{
  "home|UK": {
    "latitude": "51.6292862",
    "longitude": "-0.7419999",
    "address": "Duke Street, 11, High Wycombe, England",
    "city": "High Wycombe, England"
  },
  "I renovated I|UK": {
    "latitude": "52.5019896",
    "longitude": "-2.0209184",
    "address": "Rounds Green Road, Sandwell, England",
    "city": "Sandwell, England"
  },
  "you can flush|UK": {
    "latitude": "53.7059218",
    "longitude": "-1.6797098",
    "address": "Kirklees, England",
    "city": "Kirklees, England"
  },
  "in the winter|UK": {
    "latitude": "30.3337989",
    "longitude": "78.030606",
    "address": "Chakrata Road, Dehradun, Uttarakhand",
    "city": "Dehradun, Uttarakhand"
  },
  "but the prices are a bit steep.|UK": {
    "latitude": "55.8378422",
    "longitude": "-5.0509678",
    "address": "East Princes Street, Rothesay, Alba / Scotland",
    "city": "Rothesay, Alba / Scotland"
  },
  "is nice|UK": {
    "latitude": "41.1381588",
    "longitude": "-73.2941225",
    "address": "Post Road, Fairfield, Connecticut",
    "city": "Fairfield, Connecticut"
  },
  "on the toilet|UK": {
    "latitude": "22.486311",
    "longitude": "114.123406",
    "address": "丙岡路 Ping Kong Road, 香港 Hong Kong",
    "city": "香港 Hong Kong"
  },
  "style of toilet|UK": {
    "latitude": "50.0290526",
    "longitude": "36.3269511",
    "address": "Тополина вулиця, Харків, Харківська область",
    "city": "Харків, Харківська область"
  },
  "heater|UK": {
    "latitude": "52.203871",
    "longitude": "-3.0288908",
    "address": "Lower Cross, Kington, England",
    "city": "Kington, England"
  },
  "a washlet is|UK": {
    "latitude": "22.2641511",
    "longitude": "114.2355498",
    "address": "吉勝街 Kut Shing Street, 14, 香港 Hong Kong",
    "city": "香港 Hong Kong"
  },
  "so no extra space is needed.|UK": {
    "latitude": "40.7376019",
    "longitude": "-73.2296156",
    "address": "North Saxon Avenue, 110, Bay Shore, NY",
    "city": "Bay Shore, NY"
  },
  "the seat|UK": {
    "latitude": "51.8457568",
    "longitude": "-0.9253655",
    "address": "The Square, Waddesdon, England",
    "city": "Waddesdon, England"
  },
  "The Londoner.|UK": {
    "latitude": "22.1455997",
    "longitude": "113.5655719",
    "address": "路氹連貫公路 Estrada do Istmo, 1442-1700, 澳門 Macau",
    "city": "澳門 Macau"
  },
  "is ok|UK": {
    "latitude": "50.4791392",
    "longitude": "30.5349999",
    "address": "Набережно-Рибальська дорога, 3, Київ",
    "city": "Київ"
  },
  "would do the job|UK": {
    "latitude": "42.5273977",
    "longitude": "-70.8908478",
    "address": "Bridge Street, 122, Salem, Massachusetts",
    "city": "Salem, Massachusetts"
  },
  "on my toilet now|UK": {
    "latitude": "22.486311",
    "longitude": "114.123406",
    "address": "丙岡路 Ping Kong Road, 香港 Hong Kong",
    "city": "香港 Hong Kong"
  },
  "be equal to a massive house|UK": {
    "latitude": "54.523002",
    "longitude": "-1.5571854",
    "address": "Beaumont Street West, Darlington, England",
    "city": "Darlington, England"
  },
  "a story|UK": {
    "latitude": "50.5026616",
    "longitude": "30.4972806",
    "address": "Оболонський проспект, 15/3, Київ",
    "city": "Київ"
  },
  "with a bidet and I|UK": {
    "latitude": "53.7551665",
    "longitude": "-2.463487",
    "address": "Moss Street, 30, Blackburn, England",
    "city": "Blackburn, England"
  },
  "due to the proximity|UK": {
    "latitude": "50.841728",
    "longitude": "4.3845727",
    "address": "Avenue d'Auderghem - Oudergemselaan, Bruxelles - Brussel, Région de Bruxelles-Capitale - Brussels Hoofdstedelijk Gewest",
    "city": "Bruxelles - Brussel, Région de Bruxelles-Capitale - Brussels Hoofdstedelijk Gewest"
  },
  "has the Japanese one.|Germany": {
    "latitude": "53.5479038",
    "longitude": "9.999302",
    "address": "Willy-Brandt-Straße, 22, Hamburg",
    "city": "Hamburg"
  },
  "Canadian tire|Canada": {
    "latitude": "44.0491385",
    "longitude": "-78.6745113",
    "address": "Concession Road 10, Clarington, Ontario",
    "city": "Clarington, Ontario"
  },
  "mentions bidets|Canada": {
    "latitude": "47.2523559",
    "longitude": "-76.4304738",
    "address": "Lac-Pythonga, Québec",
    "city": "Lac-Pythonga, Québec"
  },
  "warmer plumbing and electrical is not easy.|Canada": {
    "latitude": "45.3293398",
    "longitude": "-75.8158095",
    "address": "Northside Road, 31, Ottawa, Ontario",
    "city": "Ottawa, Ontario"
  },
  "car got shatted|Canada": {
    "latitude": "46.6192265",
    "longitude": "-53.5912986",
    "address": "Newfoundland and Labrador",
    "city": "Newfoundland and Labrador"
  },
  "one.|Canada": {
    "latitude": "58.662008",
    "longitude": "-93.190604",
    "address": "Mantayo Seepee Meskanow, 1, Churchill, Manitoba",
    "city": "Churchill, Manitoba"
  },
  "are on the app.|Canada": {
    "latitude": "45.3990528",
    "longitude": "-71.8949473",
    "address": "Rue Camirand, Sherbrooke, Québec",
    "city": "Sherbrooke, Québec"
  },
  "various price points|Canada": {
    "latitude": "45.6547203",
    "longitude": "-73.5739412",
    "address": "Montréal, Québec",
    "city": "Montréal, Québec"
  },
  "heat the water|Canada": {
    "latitude": "47.684535",
    "longitude": "-53.2325326",
    "address": "Water Street, 275, Harbour Grace, Newfoundland and Labrador",
    "city": "Harbour Grace, Newfoundland and Labrador"
  },
  "Europe and got obsessed|Canada": {
    "latitude": "43.7181743",
    "longitude": "-79.4297406",
    "address": "Fairholme Avenue, Toronto, Ontario",
    "city": "Toronto, Ontario"
  },
  "work|Canada": {
    "latitude": "53.1747769",
    "longitude": "-128.6696588",
    "address": "Area C (Butedale/Kitlope/Kitsumkalum), British Columbia",
    "city": "Area C (Butedale/Kitlope/Kitsumkalum), British Columbia"
  },
  "a friends|Canada": {
    "latitude": "44.0422918",
    "longitude": "-79.4781968",
    "address": "Yonge Street, 17000, Newmarket, Ontario",
    "city": "Newmarket, Ontario"
  },
  "I can think of right now.|Canada": {
    "latitude": "44.6629093",
    "longitude": "-63.7836789",
    "address": "Hubley, Nova Scotia",
    "city": "Hubley, Nova Scotia"
  },
  "and works beautifully in|Canada": {
    "latitude": "44.7241776",
    "longitude": "-75.4979695",
    "address": "Edwardsburgh/Cardinal, Ontario",
    "city": "Edwardsburgh/Cardinal, Ontario"
  },
  "just diet Coke|Canada": {
    "latitude": "46.095693",
    "longitude": "-64.7608389",
    "address": "Rue Champlain, Dieppe, New Brunswick;Nouveau-Brunswick",
    "city": "Dieppe, New Brunswick;Nouveau-Brunswick"
  },
  "a hotel room|Canada": {
    "latitude": "52.5415537",
    "longitude": "-56.2918113",
    "address": "Marine Drive, Port Hope Simpson, Newfoundland and Labrador",
    "city": "Port Hope Simpson, Newfoundland and Labrador"
  },
  "attachment is sometimes called called a|Canada": {
    "latitude": "43.8479935",
    "longitude": "6.2229823",
    "address": "Rue de la Clappe, Moustiers-Sainte-Marie, Provence-Alpes-Côte d'Azur",
    "city": "Moustiers-Sainte-Marie, Provence-Alpes-Côte d'Azur"
  },
  "i don|Canada": {
    "latitude": "43.7350385",
    "longitude": "-79.3388079",
    "address": "The Donway East, 15, North York, Ontario",
    "city": "North York, Ontario"
  }
}