{
  "home|UK": {
    "latitude": "51.6292862",
    "longitude": "-0.7419999",
    "address": "Duke Street, 11, High Wycombe, England",
    "city": "High Wycombe, England"
  },
  "I renovated I|UK": {
    "latitude": "52.5019896",
    "longitude": "-2.0209184",
    "address": "Rounds Green Road, Sandwell, England",
    "city": "Sandwell, England"
  },
  "you can flush|UK": {
    "latitude": "53.7059218",
    "longitude": "-1.6797098",
    "address": "Kirklees, England",
    "city": "Kirklees, England"
  },
  "in the winter|UK": {
    "latitude": "30.3337989",
    "longitude": "78.030606",
    "address": "Chakrata Road, Dehradun, Uttarakhand",
    "city": "Dehradun, Uttarakhand"
  },
  "but the prices are a bit steep.|UK": {
    "latitude": "55.8378422",
    "longitude": "-5.0509678",
    "address": "East Princes Street, Rothesay, Alba / Scotland",
    "city": "Rothesay, Alba / Scotland"
  },
  "is nice|UK": {
    "latitude": "41.1381588",
    "longitude": "-73.2941225",
    "address": "Post Road, Fairfield, Connecticut",
    "city": "Fairfield, Connecticut"
  },
  "on the toilet|UK": {
    "latitude": "22.486311",
    "longitude": "114.123406",
    "address": "丙岡路 Ping Kong Road, 香港 Hong Kong",
    "city": "香港 Hong Kong"
  },
  "style of toilet|UK": {
    "latitude": "50.0290526",
    "longitude": "36.3269511",
    "address": "Тополина вулиця, Харків, Харківська область",
    "city": "Харків, Харківська область"
  },
  "heater|UK": {
    "latitude": "52.203871",
    "longitude": "-3.0288908",
    "address": "Lower Cross, Kington, England",
    "city": "Kington, England"
  },
  "a washlet is|UK": {
    "latitude": "22.2641511",
    "longitude": "114.2355498",
    "address": "吉勝街 Kut Shing Street, 14, 香港 Hong Kong",
    "city": "香港 Hong Kong"
  },
  "so no extra space is needed.|UK": {
    "latitude": "40.7376019",
    "longitude": "-73.2296156",
    "address": "North Saxon Avenue, 110, Bay Shore, NY",
    "city": "Bay Shore, NY"
  },
  "the seat|UK": {
    "latitude": "51.8457568",
    "longitude": "-0.9253655",
    "address": "The Square, Waddesdon, England",
    "city": "Waddesdon, England"
  },
  "The Londoner.|UK": {
    "latitude": "22.1455997",
    "longitude": "113.5655719",
    "address": "路氹連貫公路 Estrada do Istmo, 1442-1700, 澳門 Macau",
    "city": "澳門 Macau"
  },
  "is ok|UK": {
    "latitude": "50.4791392",
    "longitude": "30.5349999",
    "address": "Набережно-Рибальська дорога, 3, Київ",
    "city": "Київ"
  },
  "would do the job|UK": {
    "latitude": "42.5273977",
    "longitude": "-70.8908478",
    "address": "Bridge Street, 122, Salem, Massachusetts",
    "city": "Salem, Massachusetts"
  },
  "on my toilet now|UK": {
    "latitude": "22.486311",
    "longitude": "114.123406",
    "address": "丙岡路 Ping Kong Road, 香港 Hong Kong",
    "city": "香港 Hong Kong"
  },
  "be equal to a massive house|UK": {
    "latitude": "54.523002",
    "longitude": "-1.5571854",
    "address": "Beaumont Street West, Darlington, England",
    "city": "Darlington, England"
  },
  "a story|UK": {
    "latitude": "50.5026616",
    "longitude": "30.4972806",
    "address": "Оболонський проспект, 15/3, Київ",
    "city": "Київ"
  },
  "with a bidet and I|UK": {
    "latitude": "53.7551665",
    "longitude": "-2.463487",
    "address": "Moss Street, 30, Blackburn, England",
    "city": "Blackburn, England"
  },
  "due to the proximity|UK": {
    "latitude": "50.841728",
    "longitude": "4.3845727",
    "address": "Avenue d'Auderghem - Oudergemselaan, Bruxelles - Brussel, Région de Bruxelles-Capitale - Brussels Hoofdstedelijk Gewest",
    "city": "Bruxelles - Brussel, Région de Bruxelles-Capitale - Brussels Hoofdstedelijk Gewest"
  },
  "has the Japanese one.|Germany": {
    "latitude": "53.5479038",
    "longitude": "9.999302",
    "address": "Willy-Brandt-Straße, 22, Hamburg",
    "city": "Hamburg"
  },
  "Canadian tire|Canada": {
    "latitude": "44.0491385",
    "longitude": "-78.6745113",
    "address": "Concession Road 10, Clarington, Ontario",
    "city": "Clarington, Ontario"
  },
  "mentions bidets|Canada": {
    "latitude": "47.2523559",
    "longitude": "-76.4304738",
    "address": "Lac-Pythonga, Québec",
    "city": "Lac-Pythonga, Québec"
  },
  "warmer plumbing and electrical is not easy.|Canada": {
    "latitude": "45.3293398",
    "longitude": "-75.8158095",
    "address": "Northside Road, 31, Ottawa, Ontario",
    "city": "Ottawa, Ontario"
  },
  "car got shatted|Canada": {
    "latitude": "46.6192265",
    "longitude": "-53.5912986",
    "address": "Newfoundland and Labrador",
    "city": "Newfoundland and Labrador"
  },
  "one.|Canada": {
    "latitude": "58.662008",
    "longitude": "-93.190604",
    "address": "Mantayo Seepee Meskanow, 1, Churchill, Manitoba",
    "city": "Churchill, Manitoba"
  },
  "are on the app.|Canada": {
    "latitude": "45.3990528",
    "longitude": "-71.8949473",
    "address": "Rue Camirand, Sherbrooke, Québec",
    "city": "Sherbrooke, Québec"
  },
  "various price points|Canada": {
    "latitude": "45.6547203",
    "longitude": "-73.5739412",
    "address": "Montréal, Québec",
    "city": "Montréal, Québec"
  },
  "heat the water|Canada": {
    "latitude": "47.684535",
    "longitude": "-53.2325326",
    "address": "Water Street, 275, Harbour Grace, Newfoundland and Labrador",
    "city": "Harbour Grace, Newfoundland and Labrador"
  },
  "Europe and got obsessed|Canada": {
    "latitude": "43.7181743",
    "longitude": "-79.4297406",
    "address": "Fairholme Avenue, Toronto, Ontario",
    "city": "Toronto, Ontario"
  },
  "work|Canada": {
    "latitude": "53.1747769",
    "longitude": "-128.6696588",
    "address": "Area C (Butedale/Kitlope/Kitsumkalum), British Columbia",
    "city": "Area C (Butedale/Kitlope/Kitsumkalum), British Columbia"
  },
  "a friends|Canada": {
    "latitude": "44.0422918",
    "longitude": "-79.4781968",
    "address": "Yonge Street, 17000, Newmarket, Ontario",
    "city": "Newmarket, Ontario"
  },
  "I can think of right now.|Canada": {
    "latitude": "44.6629093",
    "longitude": "-63.7836789",
    "address": "Hubley, Nova Scotia",
    "city": "Hubley, Nova Scotia"
  },
  "and works beautifully in|Canada": {
    "latitude": "44.7241776",
    "longitude": "-75.4979695",
    "address": "Edwardsburgh/Cardinal, Ontario",
    "city": "Edwardsburgh/Cardinal, Ontario"
  },
  "just diet Coke|Canada": {
    "latitude": "46.095693",
    "longitude": "-64.7608389",
    "address": "Rue Champlain, Dieppe, New Brunswick;Nouveau-Brunswick",
    "city": "Dieppe, New Brunswick;Nouveau-Brunswick"
  },
  "a hotel room|Canada": {
    "latitude": "52.5415537",
    "longitude": "-56.2918113",
    "address": "Marine Drive, Port Hope Simpson, Newfoundland and Labrador",
    "city": "Port Hope Simpson, Newfoundland and Labrador"
  },
  "attachment is sometimes called called a|Canada": {
    "latitude": "43.8479935",
    "longitude": "6.2229823",
    "address": "Rue de la Clappe, Moustiers-Sainte-Marie, Provence-Alpes-Côte d'Azur",
    "city": "Moustiers-Sainte-Marie, Provence-Alpes-Côte d'Azur"
  },
  "i don|Canada": {
    "latitude": "43.7350385",
    "longitude": "-79.3388079",
    "address": "The Donway East, 15, North York, Ontario",
    "city": "North York, Ontario"
  },
  "home.|Germany": {
    "latitude": "51.7308967",
    "longitude": "8.7109633",
    "address": "Wilfried-Finke-Allee, 1, Paderborn, Nordrhein-Westfalen",
    "city": "Paderborn, Nordrhein-Westfalen"
  },
  "get the job done..|Germany": {
    "latitude": "52.5187884",
    "longitude": "13.3648356",
    "address": "John-Foster-Dulles-Allee, 10, Berlin",
    "city": "Berlin"
  },
  "you want is not a Bidet.|Germany": {
    "latitude": "51.7370203",
    "longitude": "8.721263",
    "address": "Querspange, Paderborn, Nordrhein-Westfalen",
    "city": "Paderborn, Nordrhein-Westfalen"
  },
  "bidet for 5|Australia": {
    "latitude": "-32.0094059",
    "longitude": "115.7545811",
    "address": "Curtin Avenue, 53, Perth, Western Australia",
    "city": "Perth, Western Australia"
  },
  "really impress|Australia": {
    "latitude": "-27.4157771",
    "longitude": "153.0372769",
    "address": "Kedron Park Road, 134, Brisbane, QLD",
    "city": "Brisbane, QLD"
  },
  "in other parts of the world|Australia": {
    "latitude": "-35.2805809",
    "longitude": "149.1174632",
    "address": "Fellows Lane, Canberra, Australian Capital Territory",
    "city": "Canberra, Australian Capital Territory"
  },
  "comes with that|Australia": {
    "latitude": "-33.3634174",
    "longitude": "115.6319036",
    "address": "Bunbury, Western Australia",
    "city": "Bunbury, Western Australia"
  },
  "screen TV and a sound bar|USA": {
    "latitude": "43.8572934",
    "longitude": "18.4072174",
    "address": "Krajla Tvrtka, 13, Sarajevo, Federacija Bosne i Hercegovine",
    "city": "Sarajevo, Federacija Bosne i Hercegovine"
  },
  "way you won|USA": {
    "latitude": "41.3465315",
    "longitude": "-74.6443155",
    "address": "Greenville, New York",
    "city": "Greenville, New York"
  },
  "with a washlet.|USA": {
    "latitude": "52.4038156",
    "longitude": "1.3247631",
    "address": "Green Lane, South Norfolk, England",
    "city": "South Norfolk, England"
  },
  "the no-window|USA": {
    "latitude": "33.6642745",
    "longitude": "-112.4003522",
    "address": "Surprise, Arizona",
    "city": "Surprise, Arizona"
  },
  "kind|USA": {
    "latitude": "39.6249596",
    "longitude": "-77.7197984",
    "address": "Hagerstown, Maryland",
    "city": "Hagerstown, Maryland"
  },
  "place to live|USA": {
    "latitude": "-37.8126497",
    "longitude": "145.0091649",
    "address": "Burnley Street, 2-30, Victoria",
    "city": "Victoria"
  },
  "with a bidet.|USA": {
    "latitude": "52.4038156",
    "longitude": "1.3247631",
    "address": "Green Lane, South Norfolk, England",
    "city": "South Norfolk, England"
  },
  "marketing|USA": {
    "latitude": "34.9551974",
    "longitude": "-82.169136",
    "address": "East Wade Hampton Boulevard, 12994, Duncan, SC",
    "city": "Duncan, SC"
  },
  "heating function|USA": {
    "latitude": "56.261186",
    "longitude": "-133.5660568",
    "address": "Alaska",
    "city": "Alaska"
  },
  "true affordable luxury is|USA": {
    "latitude": "38.8584954",
    "longitude": "-104.7746376",
    "address": "Rock Island Trail, Colorado Springs, Colorado",
    "city": "Colorado Springs, Colorado"
  },
  "the neighborhood i live in last week|USA": {
    "latitude": "34.4817104",
    "longitude": "-118.3103144",
    "address": "Pacific Crest Trail, California",
    "city": "California"
  },
  "loves attention.|USA": {
    "latitude": "37.8098441",
    "longitude": "-122.4106477",
    "address": "I Dock, San Francisco, California",
    "city": "San Francisco, California"
  },
  "a tent is a home.|USA": {
    "latitude": "33.7820059",
    "longitude": "-84.3959145",
    "address": "10th Street Northwest, 251, Atlanta, Georgia",
    "city": "Atlanta, Georgia"
  },
  "my friend|USA": {
    "latitude": "44.0143688",
    "longitude": "-116.157638",
    "address": "Idaho",
    "city": "Idaho"
  },
  "once you have one|USA": {
    "latitude": "28.3030985",
    "longitude": "-81.417382",
    "address": "John Young Parkway, Kissimmee, Florida",
    "city": "Kissimmee, Florida"
  },
  "that rate.|USA": {
    "latitude": "45.1668716",
    "longitude": "82.5661907",
    "address": "友好路, 阿拉山口市 ئالاتاۋ ئېغىزى ᠠᠯᠠᠭ ᠠᠭᠤᠯᠠ ᠬᠣᠲᠠ, 新疆维吾尔自治区 شىنجاڭ ئۇيغۇر ئاپتونوم رايونی",
    "city": "阿拉山口市 ئالاتاۋ ئېغىزى ᠠᠯᠠᠭ ᠠᠭᠤᠯᠠ ᠬᠣᠲᠠ, 新疆维吾尔自治区 شىنجاڭ ئۇيغۇر ئاپتونوم رايونی"
  },
  "all.|USA": {
    "latitude": "25.8243703",
    "longitude": "-80.3313659",
    "address": "Northwest 56th Street, 8290, Doral, Florida",
    "city": "Doral, Florida"
  },
  "the connection is secure|USA": {
    "latitude": "28.3311539",
    "longitude": "-81.5157531",
    "address": "Water Street, Celebration, Florida",
    "city": "Celebration, Florida"
  },
  "hard to get right once you|USA": {
    "latitude": "38.9005026",
    "longitude": "-77.0586363",
    "address": "30th Street Northwest, Washington, District of Columbia",
    "city": "Washington, District of Columbia"
  },
  "is heated|USA": {
    "latitude": "18.408351",
    "longitude": "-75.0144368",
    "address": "",
    "city": "USA"
  },
  "most are manual|USA": {
    "latitude": "-8.6042856",
    "longitude": "116.1553355",
    "address": "Mataram, Nusa Tenggara Barat",
    "city": "Mataram, Nusa Tenggara Barat"
  },
  "stuff|USA": {
    "latitude": "36.0895406",
    "longitude": "-95.8888596",
    "address": "East 51st Street South, 7846, Tulsa, OK",
    "city": "Tulsa, OK"
  },
  "getting a bidet. I|USA": {
    "latitude": "36.6291542",
    "longitude": "-121.9343253",
    "address": "Asilomar Avenue, Pacific Grove, California",
    "city": "Pacific Grove, California"
  },
  "was said already|USA": {
    "latitude": "19.697161",
    "longitude": "-155.0628881",
    "address": "Puainako Street, 111, Hilo, HI",
    "city": "Hilo, HI"
  },
  "from Costco. It|USA": {
    "latitude": "37.3304954",
    "longitude": "-121.9505487",
    "address": "Pruneridge Avenue, 1805, Santa Clara, CA",
    "city": "Santa Clara, CA"
  },
  "has drier|USA": {
    "latitude": "18.408351",
    "longitude": "-75.0144368",
    "address": "",
    "city": "USA"
  }
}