[
  {
    "name": "1986 The Kebab Kafe",
    "address": "Wicker, Sheffield, S3 8HS",
    "latitude": "53.3868117",
    "longitude": "-1.4631693",
    "city": "Sheffield",
    "country": "UK",
    "halalStatus": "options",
    "cuisine": "kebab",
    "sourceUrl": "https://www.openstreetmap.org/node/3645952212",
    "sourceQuote": "OpenStreetMap diet:halal=yes",
    "verifiedMethod": "web-source",
    "source": "osm-directory"
  },
  {
    "name": "6'S Pizza",
    "address": "",
    "latitude": "49.4239483",
    "longitude": "1.0811293",
    "city": "",
    "country": "UK",
    "halalStatus": "full",
    "cuisine": "pizza;burger;kebab",
    "sourceUrl": "https://www.openstreetmap.org/node/8107897059",
    "sourceQuote": "OpenStreetMap diet:halal=only",
    "verifiedMethod": "web-source",
    "source": "osm-directory"
  },
  {
    "name": "Ace Plaice",
    "address": "Norwood Road, London, SE27 9DL",
    "latitude": "51.4340615",
    "longitude": "-0.103557",
    "city": "London",
    "country": "UK",
    "halalStatus": "options",
    "cuisine": "fish_and_chips;kebab;american",
    "sourceUrl": "https://www.openstreetmap.org/node/522090260",
    "sourceQuote": "OpenStreetMap diet:halal=yes",
    "verifiedMethod": "web-source",
    "source": "osm-directory"
  },
  {
    "name": "Adam's Takeaway",
    "address": "Lincoln Green Road, Leeds, LS9 7SU",
    "latitude": "53.8024161",
    "longitude": "-1.5264635",
    "city": "Leeds",
    "country": "UK",
    "halalStatus": "options",
    "cuisine": "pizza;burger;chicken;kebab",
    "sourceUrl": "https://www.openstreetmap.org/node/1790103173",
    "sourceQuote": "OpenStreetMap diet:halal=yes",
    "verifiedMethod": "web-source",
    "source": "osm-directory"
  },
  {
    "name": "Adore",
    "address": "Station Road, Harrow, HA1 2TR",
    "latitude": "51.5859743",
    "longitude": "-0.3325604",
    "city": "Harrow",
    "country": "UK",
    "halalStatus": "options",
    "cuisine": "asian",
    "sourceUrl": "https://www.openstreetmap.org/node/2493953454",
    "sourceQuote": "OpenStreetMap diet:halal=yes",
    "verifiedMethod": "web-source",
    "source": "osm-directory"
  },
  {
    "name": "African fusion",
    "address": "Cours de la République, Le Havre, 76600",
    "latitude": "49.4962771",
    "longitude": "0.1266494",
    "city": "Le Havre",
    "country": "UK",
    "halalStatus": "options",
    "cuisine": "african",
    "sourceUrl": "https://www.openstreetmap.org/node/2703054728",
    "sourceQuote": "OpenStreetMap diet:halal=yes",
    "verifiedMethod": "web-source",
    "source": "osm-directory"
  },
  {
    "name": "Aha Lounge",
    "address": "",
    "latitude": "49.1798193",
    "longitude": "-2.0984196",
    "city": "",
    "country": "UK",
    "halalStatus": "options",
    "cuisine": "international;asian;burger;coffee_shop;fish_and_chips;pasta;seafood;steak_house;tapas",
    "sourceUrl": "https://www.openstreetmap.org/node/1798075076",
    "sourceQuote": "OpenStreetMap diet:halal=no",
    "verifiedMethod": "web-source",
    "source": "osm-directory"
  },
  {
    "name": "Al Farooq Kebabish",
    "address": "Barking Road, London, E6 2JX",
    "latitude": "51.5335293",
    "longitude": "0.0568479",
    "city": "London",
    "country": "UK",
    "halalStatus": "options",
    "cuisine": "kebab;burger",
    "sourceUrl": "https://www.openstreetmap.org/node/10268226463",
    "sourceQuote": "OpenStreetMap diet:halal=yes",
    "verifiedMethod": "web-source",
    "source": "osm-directory"
  },
  {
    "name": "Al Hussain Curry Wala",
    "address": "Niddrie Mains Road, Edinburgh, EH16 4BG",
    "latitude": "55.9326145",
    "longitude": "-3.1389782",
    "city": "Edinburgh",
    "country": "UK",
    "halalStatus": "options",
    "cuisine": "indian",
    "sourceUrl": "https://www.openstreetmap.org/node/2781983544",
    "sourceQuote": "OpenStreetMap diet:halal=yes",
    "verifiedMethod": "web-source",
    "source": "osm-directory"
  },
  {
    "name": "Al Madina",
    "address": "Falcon Road, London, SW11 2PG",
    "latitude": "51.4678955",
    "longitude": "-0.1704662",
    "city": "London",
    "country": "UK",
    "halalStatus": "options",
    "cuisine": "",
    "sourceUrl": "https://www.openstreetmap.org/node/3335139746",
    "sourceQuote": "OpenStreetMap diet:halal=yes",
    "verifiedMethod": "web-source",
    "source": "osm-directory"
  },
  {
    "name": "Aladdin",
    "address": "",
    "latitude": "55.842447",
    "longitude": "-4.4232974",
    "city": "",
    "country": "UK",
    "halalStatus": "options",
    "cuisine": "indian",
    "sourceUrl": "https://www.openstreetmap.org/node/8066183786",
    "sourceQuote": "OpenStreetMap diet:halal=yes",
    "verifiedMethod": "web-source",
    "source": "osm-directory"
  },
  {
    "name": "Aldwick Café & Restaurant",
    "address": "Aldwick Road, Bognor Regis, PO21 2NW",
    "latitude": "50.7814743",
    "longitude": "-0.687426",
    "city": "Bognor Regis",
    "country": "UK",
    "halalStatus": "options",
    "cuisine": "",
    "sourceUrl": "https://www.openstreetmap.org/node/8746331503",
    "sourceQuote": "OpenStreetMap diet:halal=no",
    "verifiedMethod": "web-source",
    "source": "osm-directory"
  },
  {
    "name": "Alice's Fish & Chips",
    "address": "Atkyns Road, Oxford, OX3 8RA",
    "latitude": "51.749283",
    "longitude": "-1.2008162",
    "city": "Oxford",
    "country": "UK",
    "halalStatus": "options",
    "cuisine": "fish_and_chips;kebab;burger;chicken;pie",
    "sourceUrl": "https://www.openstreetmap.org/node/771823456",
    "sourceQuote": "OpenStreetMap diet:halal=yes",
    "verifiedMethod": "web-source",
    "source": "osm-directory"
  },
  {
    "name": "Almahmud Restaurant",
    "address": "Greenford Road, Greenford, UB6 8QU",
    "latitude": "51.5310556",
    "longitude": "-0.3498678",
    "city": "Greenford",
    "country": "UK",
    "halalStatus": "options",
    "cuisine": "lebanese",
    "sourceUrl": "https://www.openstreetmap.org/node/3216468500",
    "sourceQuote": "OpenStreetMap diet:halal=yes",
    "verifiedMethod": "web-source",
    "source": "osm-directory"
  },
  {
    "name": "Amore Mio",
    "address": "Rue Saint-Hilaire",
    "latitude": "49.4423046",
    "longitude": "1.1066499",
    "city": "",
    "country": "UK",
    "halalStatus": "options",
    "cuisine": "italian",
    "sourceUrl": "https://www.openstreetmap.org/node/4046470183",
    "sourceQuote": "OpenStreetMap diet:halal=yes",
    "verifiedMethod": "web-source",
    "source": "osm-directory"
  },
  {
    "name": "Anatolia Café & Restaurant",
    "address": "Rose Inn Street, Kilkenny",
    "latitude": "52.6511513",
    "longitude": "-7.251649",
    "city": "Kilkenny",
    "country": "UK",
    "halalStatus": "options",
    "cuisine": "turkish;kebab",
    "sourceUrl": "https://www.openstreetmap.org/node/3705782703",
    "sourceQuote": "OpenStreetMap diet:halal=yes",
    "verifiedMethod": "web-source",
    "source": "osm-directory"
  },
  {
    "name": "Antonio’s Traditional Fish & Chips",
    "address": "London Road, Newark",
    "latitude": "53.0607497",
    "longitude": "-0.7876741",
    "city": "Newark",
    "country": "UK",
    "halalStatus": "options",
    "cuisine": "fish_and_chips",
    "sourceUrl": "https://www.openstreetmap.org/node/9989370094",
    "sourceQuote": "OpenStreetMap diet:halal=no",
    "verifiedMethod": "web-source",
    "source": "osm-directory"
  },
  {
    "name": "Apla Souvlaki",
    "address": "Longford Road, Bognor Regis, PO21 1BS",
    "latitude": "50.7869089",
    "longitude": "-0.6766544",
    "city": "Bognor Regis",
    "country": "UK",
    "halalStatus": "options",
    "cuisine": "greek",
    "sourceUrl": "https://www.openstreetmap.org/node/9705504055",
    "sourceQuote": "OpenStreetMap diet:halal=yes",
    "verifiedMethod": "web-source",
    "source": "osm-directory"
  },
  {
    "name": "Ariana's Kebab",
    "address": "Brunswick Street, Edinburgh, EH7 5HR",
    "latitude": "55.9608546",
    "longitude": "-3.1806135",
    "city": "Edinburgh",
    "country": "UK",
    "halalStatus": "options",
    "cuisine": "kebab",
    "sourceUrl": "https://www.openstreetmap.org/node/2401025494",
    "sourceQuote": "OpenStreetMap diet:halal=yes",
    "verifiedMethod": "web-source",
    "source": "osm-directory"
  },
  {
    "name": "Asda Café",
    "address": "Sleaford Road, Boston, PE21 8EQ",
    "latitude": "52.9794978",
    "longitude": "-0.0320823",
    "city": "Boston",
    "country": "UK",
    "halalStatus": "options",
    "cuisine": "coffee_shop",
    "sourceUrl": "https://www.openstreetmap.org/node/7294301548",
    "sourceQuote": "OpenStreetMap diet:halal=no",
    "verifiedMethod": "web-source",
    "source": "osm-directory"
  },
  {
    "name": "Asda Café",
    "address": "Miles Gray Road, Basildon, SS14 3AF",
    "latitude": "51.5830566",
    "longitude": "0.4430473",
    "city": "Basildon",
    "country": "UK",
    "halalStatus": "options",
    "cuisine": "coffee_shop",
    "sourceUrl": "https://www.openstreetmap.org/node/7492161242",
    "sourceQuote": "OpenStreetMap diet:halal=no",
    "verifiedMethod": "web-source",
    "source": "osm-directory"
  },
  {
    "name": "Asda Café",
    "address": "Holly Mount Way, Rossendale, BB4 8EL",
    "latitude": "53.7034074",
    "longitude": "-2.2865293",
    "city": "Rossendale",
    "country": "UK",
    "halalStatus": "options",
    "cuisine": "coffee_shop",
    "sourceUrl": "https://www.openstreetmap.org/node/7499458650",
    "sourceQuote": "OpenStreetMap diet:halal=yes",
    "verifiedMethod": "web-source",
    "source": "osm-directory"
  },
  {
    "name": "Asda Café",
    "address": "Bodmin, PL31 2LW",
    "latitude": "50.4735598",
    "longitude": "-4.7053617",
    "city": "Bodmin",
    "country": "UK",
    "halalStatus": "options",
    "cuisine": "coffee_shop",
    "sourceUrl": "https://www.openstreetmap.org/node/7510691715",
    "sourceQuote": "OpenStreetMap diet:halal=no",
    "verifiedMethod": "web-source",
    "source": "osm-directory"
  },
  {
    "name": "Ashford Pizza & Kebab House",
    "address": "Tufton Street, Ashford",
    "latitude": "51.1484202",
    "longitude": "0.8715743",
    "city": "Ashford",
    "country": "UK",
    "halalStatus": "options",
    "cuisine": "kebab;pizza",
    "sourceUrl": "https://www.openstreetmap.org/node/323980802",
    "sourceQuote": "OpenStreetMap diet:halal=yes",
    "verifiedMethod": "web-source",
    "source": "osm-directory"
  },
  {
    "name": "Au falafel du Liban",
    "address": "Rue Monge, Brest, 29200",
    "latitude": "48.3850049",
    "longitude": "-4.4924455",
    "city": "Brest",
    "country": "UK",
    "halalStatus": "options",
    "cuisine": "lebanese",
    "sourceUrl": "https://www.openstreetmap.org/node/4238294490",
    "sourceQuote": "OpenStreetMap diet:halal=yes",
    "verifiedMethod": "web-source",
    "source": "osm-directory"
  },
  {
    "name": "Au Refuge Berbère",
    "address": "",
    "latitude": "49.4410125",
    "longitude": "1.087042",
    "city": "",
    "country": "UK",
    "halalStatus": "options",
    "cuisine": "oriental",
    "sourceUrl": "https://www.openstreetmap.org/node/4665553159",
    "sourceQuote": "OpenStreetMap diet:halal=yes",
    "verifiedMethod": "web-source",
    "source": "osm-directory"
  },
  {
    "name": "B-Chef",
    "address": "",
    "latitude": "48.9670256",
    "longitude": "1.8583796",
    "city": "",
    "country": "UK",
    "halalStatus": "options",
    "cuisine": "",
    "sourceUrl": "https://www.openstreetmap.org/node/9947372417",
    "sourceQuote": "OpenStreetMap diet:halal=yes",
    "verifiedMethod": "web-source",
    "source": "osm-directory"
  },
  {
    "name": "BaGet Stuffed",
    "address": "Nicolson Street, Edinburgh, EH8 9BZ",
    "latitude": "55.9455792",
    "longitude": "-3.1848992",
    "city": "Edinburgh",
    "country": "UK",
    "halalStatus": "full",
    "cuisine": "",
    "sourceUrl": "https://www.openstreetmap.org/node/499992022",
    "sourceQuote": "OpenStreetMap diet:halal=only",
    "verifiedMethod": "web-source",
    "source": "osm-directory"
  },
  {
    "name": "Balderton Pizza House",
    "address": "London Road, Newark, NG24 3EZ",
    "latitude": "53.06068",
    "longitude": "-0.7874915",
    "city": "Newark",
    "country": "UK",
    "halalStatus": "options",
    "cuisine": "pizza",
    "sourceUrl": "https://www.openstreetmap.org/node/9989370093",
    "sourceQuote": "OpenStreetMap diet:halal=no",
    "verifiedMethod": "web-source",
    "source": "osm-directory"
  },
  {
    "name": "Baxto's Kebab",
    "address": "Tallaght",
    "latitude": "53.2870314",
    "longitude": "-6.3694829",
    "city": "Tallaght",
    "country": "UK",
    "halalStatus": "options",
    "cuisine": "kebab",
    "sourceUrl": "https://www.openstreetmap.org/node/9563645779",
    "sourceQuote": "OpenStreetMap diet:halal=yes",
    "verifiedMethod": "web-source",
    "source": "osm-directory"
  },
  {
    "name": "Bchef Rennes Beaulieu/Longchamps Burger",
    "address": "Rue de Fougères, Rennes, 35700",
    "latitude": "48.1287046",
    "longitude": "-1.6452737",
    "city": "Rennes",
    "country": "UK",
    "halalStatus": "options",
    "cuisine": "bagel",
    "sourceUrl": "https://www.openstreetmap.org/node/6903782005",
    "sourceQuote": "OpenStreetMap diet:halal=yes",
    "verifiedMethod": "web-source",
    "source": "osm-directory"
  },
  {
    "name": "Beef Belly",
    "address": "Uxbridge Road, Uxbridge, UB10 0LJ",
    "latitude": "51.5312555",
    "longitude": "-0.449164",
    "city": "Uxbridge",
    "country": "UK",
    "halalStatus": "options",
    "cuisine": "burger",
    "sourceUrl": "https://www.openstreetmap.org/node/7833718401",
    "sourceQuote": "OpenStreetMap diet:halal=yes",
    "verifiedMethod": "web-source",
    "source": "osm-directory"
  },
  {
    "name": "Beirut Star",
    "address": "Paisley Road West, Glasgow, G51 1PX",
    "latitude": "55.8514915",
    "longitude": "-4.2987214",
    "city": "Glasgow",
    "country": "UK",
    "halalStatus": "options",
    "cuisine": "lebanese",
    "sourceUrl": "https://www.openstreetmap.org/node/8262209918",
    "sourceQuote": "OpenStreetMap diet:halal=yes",
    "verifiedMethod": "web-source",
    "source": "osm-directory"
  },
  {
    "name": "Bella Italia",
    "address": "Stadium Way West, Bletchley, MK1 1ST",
    "latitude": "52.0110014",
    "longitude": "-0.7338815",
    "city": "Bletchley",
    "country": "UK",
    "halalStatus": "options",
    "cuisine": "italian",
    "sourceUrl": "https://www.openstreetmap.org/node/4066895507",
    "sourceQuote": "OpenStreetMap diet:halal=no",
    "verifiedMethod": "web-source",
    "source": "osm-directory"
  },
  {
    "name": "Bella's Cafe",
    "address": "Rue de la Pouclée et des Quatre Chemins, JE3 6DU",
    "latitude": "49.2016564",
    "longitude": "-2.0265363",
    "city": "",
    "country": "UK",
    "halalStatus": "options",
    "cuisine": "burger;pizza;coffee_shop",
    "sourceUrl": "https://www.openstreetmap.org/node/8891176742",
    "sourceQuote": "OpenStreetMap diet:halal=no",
    "verifiedMethod": "web-source",
    "source": "osm-directory"
  },
  {
    "name": "Bengal Brasserie",
    "address": "Merrion Way, Leeds, LS2 8BT",
    "latitude": "53.8022224",
    "longitude": "-1.5427953",
    "city": "Leeds",
    "country": "UK",
    "halalStatus": "options",
    "cuisine": "indian",
    "sourceUrl": "https://www.openstreetmap.org/node/5370588758",
    "sourceQuote": "OpenStreetMap diet:halal=yes",
    "verifiedMethod": "web-source",
    "source": "osm-directory"
  },
  {
    "name": "Benny's Chicken",
    "address": "",
    "latitude": "52.4760178",
    "longitude": "-2.0382922",
    "city": "",
    "country": "UK",
    "halalStatus": "options",
    "cuisine": "chicken",
    "sourceUrl": "https://www.openstreetmap.org/node/2694420689",
    "sourceQuote": "OpenStreetMap diet:halal=yes",
    "verifiedMethod": "web-source",
    "source": "osm-directory"
  },
  {
    "name": "Bey Beef",
    "address": "Rue de Montigné, Vezin-le-Coquet, 35132",
    "latitude": "48.105659",
    "longitude": "-1.7435017",
    "city": "Vezin-le-Coquet",
    "country": "UK",
    "halalStatus": "options",
    "cuisine": "french;steak_house;grill;barbecue;salad;pizza;fish",
    "sourceUrl": "https://www.openstreetmap.org/node/5982151917",
    "sourceQuote": "OpenStreetMap diet:halal=yes",
    "verifiedMethod": "web-source",
    "source": "osm-directory"
  },
  {
    "name": "BFC",
    "address": "Craven Park Road, London, NW10 4AE",
    "latitude": "51.5393466",
    "longitude": "-0.2514032",
    "city": "London",
    "country": "UK",
    "halalStatus": "full",
    "cuisine": "kebab",
    "sourceUrl": "https://www.openstreetmap.org/node/2625341780",
    "sourceQuote": "OpenStreetMap diet:halal=only",
    "verifiedMethod": "web-source",
    "source": "osm-directory"
  },
  {
    "name": "Bibiche Café Gourmand",
    "address": "",
    "latitude": "49.1739124",
    "longitude": "-0.3908899",
    "city": "",
    "country": "UK",
    "halalStatus": "options",
    "cuisine": "coffee_shop;brunch",
    "sourceUrl": "https://www.openstreetmap.org/node/8355591883",
    "sourceQuote": "OpenStreetMap diet:halal=no",
    "verifiedMethod": "web-source",
    "source": "osm-directory"
  },
  {
    "name": "Big Fernand",
    "address": "Place du Colombier, Rennes, 35000",
    "latitude": "48.1051032",
    "longitude": "-1.6789045",
    "city": "Rennes",
    "country": "UK",
    "halalStatus": "options",
    "cuisine": "burger",
    "sourceUrl": "https://www.openstreetmap.org/node/4716756614",
    "sourceQuote": "OpenStreetMap diet:halal=no",
    "verifiedMethod": "web-source",
    "source": "osm-directory"
  },
  {
    "name": "Big Moh",
    "address": "Avenue du 8 Mai 1945, Le Havre, 76610",
    "latitude": "49.5134871",
    "longitude": "0.162806",
    "city": "Le Havre",
    "country": "UK",
    "halalStatus": "options",
    "cuisine": "burger",
    "sourceUrl": "https://www.openstreetmap.org/node/9651065561",
    "sourceQuote": "OpenStreetMap diet:halal=yes",
    "verifiedMethod": "web-source",
    "source": "osm-directory"
  },
  {
    "name": "Bim's",
    "address": "Manchester Street, Luton",
    "latitude": "51.8801093",
    "longitude": "-0.4173171",
    "city": "Luton",
    "country": "UK",
    "halalStatus": "options",
    "cuisine": "burger",
    "sourceUrl": "https://www.openstreetmap.org/node/7177692417",
    "sourceQuote": "OpenStreetMap diet:halal=yes",
    "verifiedMethod": "web-source",
    "source": "osm-directory"
  },
  {
    "name": "BIMS",
    "address": "High Road, London, N12 9QR",
    "latitude": "51.6160022",
    "longitude": "-0.1765054",
    "city": "London",
    "country": "UK",
    "halalStatus": "options",
    "cuisine": "burger",
    "sourceUrl": "https://www.openstreetmap.org/node/6947966049",
    "sourceQuote": "OpenStreetMap diet:halal=yes",
    "verifiedMethod": "web-source",
    "source": "osm-directory"
  },
  {
    "name": "Biome Kitchen",
    "address": "",
    "latitude": "50.3620671",
    "longitude": "-4.7441358",
    "city": "",
    "country": "UK",
    "halalStatus": "options",
    "cuisine": "",
    "sourceUrl": "https://www.openstreetmap.org/node/4578287571",
    "sourceQuote": "OpenStreetMap diet:halal=no",
    "verifiedMethod": "web-source",
    "source": "osm-directory"
  },
  {
    "name": "Birtelli's",
    "address": "Clarendon Avenue, Leamington Spa, CV32 5PZ",
    "latitude": "52.2934652",
    "longitude": "-1.5375656",
    "city": "Leamington Spa",
    "country": "UK",
    "halalStatus": "options",
    "cuisine": "pizza",
    "sourceUrl": "https://www.openstreetmap.org/node/6260699547",
    "sourceQuote": "OpenStreetMap diet:halal=no",
    "verifiedMethod": "web-source",
    "source": "osm-directory"
  },
  {
    "name": "Bleecker",
    "address": "Baker Street, London, NW1 6UY",
    "latitude": "51.5225381",
    "longitude": "-0.1579087",
    "city": "London",
    "country": "UK",
    "halalStatus": "options",
    "cuisine": "burger",
    "sourceUrl": "https://www.openstreetmap.org/node/6424675171",
    "sourceQuote": "OpenStreetMap diet:halal=yes",
    "verifiedMethod": "web-source",
    "source": "osm-directory"
  },
  {
    "name": "Blip",
    "address": "Park Lane, Reading, RG31 5DL",
    "latitude": "51.4566408",
    "longitude": "-1.044392",
    "city": "Reading",
    "country": "UK",
    "halalStatus": "options",
    "cuisine": "burger",
    "sourceUrl": "https://www.openstreetmap.org/node/5122403806",
    "sourceQuote": "OpenStreetMap diet:halal=yes",
    "verifiedMethod": "web-source",
    "source": "osm-directory"
  },
  {
    "name": "Blue Sakura",
    "address": "Merrion Way, Leeds, LS2 8BT",
    "latitude": "53.8021826",
    "longitude": "-1.5425885",
    "city": "Leeds",
    "country": "UK",
    "halalStatus": "options",
    "cuisine": "japanese",
    "sourceUrl": "https://www.openstreetmap.org/node/6322856753",
    "sourceQuote": "OpenStreetMap diet:halal=yes",
    "verifiedMethod": "web-source",
    "source": "osm-directory"
  },
  {
    "name": "Bollywood Indian",
    "address": "Market Place, Driffield, YO25 6AR",
    "latitude": "54.0055395",
    "longitude": "-0.4403791",
    "city": "Driffield",
    "country": "UK",
    "halalStatus": "options",
    "cuisine": "indian",
    "sourceUrl": "https://www.openstreetmap.org/node/6196338679",
    "sourceQuote": "OpenStreetMap diet:halal=yes",
    "verifiedMethod": "web-source",
    "source": "osm-directory"
  },
  {
    "name": "boojum",
    "address": "Merrion Street, Leeds, LS2 8NG",
    "latitude": "53.8010081",
    "longitude": "-1.5446491",
    "city": "Leeds",
    "country": "UK",
    "halalStatus": "options",
    "cuisine": "mexican",
    "sourceUrl": "https://www.openstreetmap.org/node/5370588766",
    "sourceQuote": "OpenStreetMap diet:halal=yes",
    "verifiedMethod": "web-source",
    "source": "osm-directory"
  },
  {
    "name": "Boston Tea Party",
    "address": "High Street, Honiton, EX14 1PW",
    "latitude": "50.8005793",
    "longitude": "-3.1863827",
    "city": "Honiton",
    "country": "UK",
    "halalStatus": "options",
    "cuisine": "coffee_shop",
    "sourceUrl": "https://www.openstreetmap.org/node/1610112546",
    "sourceQuote": "OpenStreetMap diet:halal=no",
    "verifiedMethod": "web-source",
    "source": "osm-directory"
  },
  {
    "name": "Brez",
    "address": "",
    "latitude": "49.1880273",
    "longitude": "-0.3664179",
    "city": "",
    "country": "UK",
    "halalStatus": "options",
    "cuisine": "kebab",
    "sourceUrl": "https://www.openstreetmap.org/node/2309830719",
    "sourceQuote": "OpenStreetMap diet:halal=yes",
    "verifiedMethod": "web-source",
    "source": "osm-directory"
  },
  {
    "name": "Brix",
    "address": "Great Guildford Street, London, SE1 0HS",
    "latitude": "51.5047828",
    "longitude": "-0.0973671",
    "city": "London",
    "country": "UK",
    "halalStatus": "options",
    "cuisine": "",
    "sourceUrl": "https://www.openstreetmap.org/node/6811559885",
    "sourceQuote": "OpenStreetMap diet:halal=no",
    "verifiedMethod": "web-source",
    "source": "osm-directory"
  },
  {
    "name": "Buenasado",
    "address": "Reading, RG1 2AQ",
    "latitude": "51.4539841",
    "longitude": "-0.9720605",
    "city": "Reading",
    "country": "UK",
    "halalStatus": "options",
    "cuisine": "argentinian;steak",
    "sourceUrl": "https://www.openstreetmap.org/node/4951140217",
    "sourceQuote": "OpenStreetMap diet:halal=yes",
    "verifiedMethod": "web-source",
    "source": "osm-directory"
  },
  {
    "name": "Burger & Sauce",
    "address": "Bearwood Road",
    "latitude": "52.4744272",
    "longitude": "-1.9693651",
    "city": "",
    "country": "UK",
    "halalStatus": "options",
    "cuisine": "burger",
    "sourceUrl": "https://www.openstreetmap.org/node/6443260842",
    "sourceQuote": "OpenStreetMap diet:halal=yes",
    "verifiedMethod": "web-source",
    "source": "osm-directory"
  },
  {
    "name": "Burger King",
    "address": "DG16 5HQ",
    "latitude": "55.0079502",
    "longitude": "-3.0824086",
    "city": "",
    "country": "UK",
    "halalStatus": "options",
    "cuisine": "burger",
    "sourceUrl": "https://www.openstreetmap.org/node/440699779",
    "sourceQuote": "OpenStreetMap diet:halal=no",
    "verifiedMethod": "web-source",
    "source": "osm-directory"
  },
  {
    "name": "Burger King",
    "address": "Trinity Square, Gateshead, NE8 1AG",
    "latitude": "54.9624443",
    "longitude": "-1.6026029",
    "city": "Gateshead",
    "country": "UK",
    "halalStatus": "options",
    "cuisine": "burger",
    "sourceUrl": "https://www.openstreetmap.org/node/2914450122",
    "sourceQuote": "OpenStreetMap diet:halal=no",
    "verifiedMethod": "web-source",
    "source": "osm-directory"
  },
  {
    "name": "Burger King",
    "address": "",
    "latitude": "51.5117827",
    "longitude": "-2.1586832",
    "city": "",
    "country": "UK",
    "halalStatus": "options",
    "cuisine": "burger",
    "sourceUrl": "https://www.openstreetmap.org/node/3086428965",
    "sourceQuote": "OpenStreetMap diet:halal=no",
    "verifiedMethod": "web-source",
    "source": "osm-directory"
  },
  {
    "name": "Burger King",
    "address": "",
    "latitude": "49.441851",
    "longitude": "1.0909599",
    "city": "",
    "country": "UK",
    "halalStatus": "options",
    "cuisine": "burger",
    "sourceUrl": "https://www.openstreetmap.org/node/5553029501",
    "sourceQuote": "OpenStreetMap diet:halal=no",
    "verifiedMethod": "web-source",
    "source": "osm-directory"
  },
  {
    "name": "C.K. House",
    "address": "Market Street, Ashby-de-la-Zouch, LE65 1AP",
    "latitude": "52.7477776",
    "longitude": "-1.4688343",
    "city": "Ashby-de-la-Zouch",
    "country": "UK",
    "halalStatus": "options",
    "cuisine": "chinese",
    "sourceUrl": "https://www.openstreetmap.org/node/5810149584",
    "sourceQuote": "OpenStreetMap diet:halal=no",
    "verifiedMethod": "web-source",
    "source": "osm-directory"
  },
  {
    "name": "Cafe au Lait",
    "address": "Globe Road, London, E1 4DU",
    "latitude": "51.5221981",
    "longitude": "-0.046393",
    "city": "London",
    "country": "UK",
    "halalStatus": "full",
    "cuisine": "sandwich",
    "sourceUrl": "https://www.openstreetmap.org/node/2749844993",
    "sourceQuote": "OpenStreetMap diet:halal=only",
    "verifiedMethod": "web-source",
    "source": "osm-directory"
  },
  {
    "name": "Cafe Wander",
    "address": "West George Street, Glasgow, G2 1QJ",
    "latitude": "55.8623448",
    "longitude": "-4.2558812",
    "city": "Glasgow",
    "country": "UK",
    "halalStatus": "options",
    "cuisine": "",
    "sourceUrl": "https://www.openstreetmap.org/node/9290742517",
    "sourceQuote": "OpenStreetMap diet:halal=yes",
    "verifiedMethod": "web-source",
    "source": "osm-directory"
  },
  {
    "name": "Cafe Yu",
    "address": "Dogsthorpe Road, Peterborough, PE1 3AF",
    "latitude": "52.5841195",
    "longitude": "-0.2431835",
    "city": "Peterborough",
    "country": "UK",
    "halalStatus": "options",
    "cuisine": "",
    "sourceUrl": "https://www.openstreetmap.org/node/6806240049",
    "sourceQuote": "OpenStreetMap diet:halal=yes",
    "verifiedMethod": "web-source",
    "source": "osm-directory"
  },
  {
    "name": "Caffè Nero",
    "address": "Newgate Street, London, EC1A 7HL",
    "latitude": "51.5149324",
    "longitude": "-0.0977564",
    "city": "London",
    "country": "UK",
    "halalStatus": "options",
    "cuisine": "coffee_shop",
    "sourceUrl": "https://www.openstreetmap.org/node/534907516",
    "sourceQuote": "OpenStreetMap diet:halal=no",
    "verifiedMethod": "web-source",
    "source": "osm-directory"
  },
  {
    "name": "Caffè Nero",
    "address": "Strait Bargate, Boston, PE21 6LR",
    "latitude": "52.9789985",
    "longitude": "-0.0235067",
    "city": "Boston",
    "country": "UK",
    "halalStatus": "options",
    "cuisine": "coffee_shop",
    "sourceUrl": "https://www.openstreetmap.org/node/1037066460",
    "sourceQuote": "OpenStreetMap diet:halal=no",
    "verifiedMethod": "web-source",
    "source": "osm-directory"
  },
  {
    "name": "Caffè Nero",
    "address": "Parade, Leamington Spa, CV32 4DN",
    "latitude": "52.2920632",
    "longitude": "-1.536085",
    "city": "Leamington Spa",
    "country": "UK",
    "halalStatus": "options",
    "cuisine": "coffee_shop",
    "sourceUrl": "https://www.openstreetmap.org/node/4972436897",
    "sourceQuote": "OpenStreetMap diet:halal=no",
    "verifiedMethod": "web-source",
    "source": "osm-directory"
  },
  {
    "name": "Capri Pizza",
    "address": "Saint-Valery-en-Caux, 76460",
    "latitude": "49.8690834",
    "longitude": "0.7128903",
    "city": "Saint-Valery-en-Caux",
    "country": "UK",
    "halalStatus": "options",
    "cuisine": "pizza;kebab;pasta;ice_cream;salad",
    "sourceUrl": "https://www.openstreetmap.org/node/5818686187",
    "sourceQuote": "OpenStreetMap diet:halal=yes",
    "verifiedMethod": "web-source",
    "source": "osm-directory"
  },
  {
    "name": "Casa Gyros Grill",
    "address": "New Road Side, Leeds, LS18 4QD",
    "latitude": "53.8319331",
    "longitude": "-1.6407882",
    "city": "Leeds",
    "country": "UK",
    "halalStatus": "options",
    "cuisine": "kebab;pizza;gyros",
    "sourceUrl": "https://www.openstreetmap.org/node/282062834",
    "sourceQuote": "OpenStreetMap diet:halal=yes",
    "verifiedMethod": "web-source",
    "source": "osm-directory"
  },
  {
    "name": "Casa Rica Mexican Take away",
    "address": "Brunswick Street, Leamington Spa, CV31 2DS",
    "latitude": "52.2820856",
    "longitude": "-1.5310165",
    "city": "Leamington Spa",
    "country": "UK",
    "halalStatus": "options",
    "cuisine": "mexican",
    "sourceUrl": "https://www.openstreetmap.org/node/2872868330",
    "sourceQuote": "OpenStreetMap diet:halal=no",
    "verifiedMethod": "web-source",
    "source": "osm-directory"
  },
  {
    "name": "Chaiiwala",
    "address": "",
    "latitude": "51.5196456",
    "longitude": "-0.1216529",
    "city": "",
    "country": "UK",
    "halalStatus": "full",
    "cuisine": "coffee_shop",
    "sourceUrl": "https://www.openstreetmap.org/node/10006010070",
    "sourceQuote": "OpenStreetMap diet:halal=only",
    "verifiedMethod": "web-source",
    "source": "osm-directory"
  },
  {
    "name": "Chapter Coffee Co.",
    "address": "North End Road, London",
    "latitude": "51.4920034",
    "longitude": "-0.2070444",
    "city": "London",
    "country": "UK",
    "halalStatus": "options",
    "cuisine": "",
    "sourceUrl": "https://www.openstreetmap.org/node/9223818338",
    "sourceQuote": "OpenStreetMap diet:halal=no",
    "verifiedMethod": "web-source",
    "source": "osm-directory"
  },
  {
    "name": "Chennai Dosa",
    "address": "London Road, Derby, DE1 2SR",
    "latitude": "52.9147416",
    "longitude": "-1.4670093",
    "city": "Derby",
    "country": "UK",
    "halalStatus": "options",
    "cuisine": "indian",
    "sourceUrl": "https://www.openstreetmap.org/node/5958089104",
    "sourceQuote": "OpenStreetMap diet:halal=yes",
    "verifiedMethod": "web-source",
    "source": "osm-directory"
  },
  {
    "name": "Chick King",
    "address": "Station Road, Harrow, HA1 2TB",
    "latitude": "51.5836852",
    "longitude": "-0.3321634",
    "city": "Harrow",
    "country": "UK",
    "halalStatus": "options",
    "cuisine": "chicken",
    "sourceUrl": "https://www.openstreetmap.org/node/5109300715",
    "sourceQuote": "OpenStreetMap diet:halal=yes",
    "verifiedMethod": "web-source",
    "source": "osm-directory"
  },
  {
    "name": "Chick’os",
    "address": "Barking Road, London, E16 4HQ",
    "latitude": "51.5175419",
    "longitude": "0.0116472",
    "city": "London",
    "country": "UK",
    "halalStatus": "options",
    "cuisine": "chicken",
    "sourceUrl": "https://www.openstreetmap.org/node/10166595181",
    "sourceQuote": "OpenStreetMap diet:halal=yes",
    "verifiedMethod": "web-source",
    "source": "osm-directory"
  },
  {
    "name": "Chicken ‘N’ Grill",
    "address": "Fowler Street, South Shields, NE33 2LR",
    "latitude": "54.9986318",
    "longitude": "-1.4318797",
    "city": "South Shields",
    "country": "UK",
    "halalStatus": "options",
    "cuisine": "chicken",
    "sourceUrl": "https://www.openstreetmap.org/node/4347287724",
    "sourceQuote": "OpenStreetMap diet:halal=yes",
    "verifiedMethod": "web-source",
    "source": "osm-directory"
  },
  {
    "name": "Chicken Corner",
    "address": "Station Road, Bishop's Stortford, CM23 3BL",
    "latitude": "51.8677666",
    "longitude": "0.1619068",
    "city": "Bishop's Stortford",
    "country": "UK",
    "halalStatus": "options",
    "cuisine": "chicken;pizza",
    "sourceUrl": "https://www.openstreetmap.org/node/7187049535",
    "sourceQuote": "OpenStreetMap diet:halal=yes",
    "verifiedMethod": "web-source",
    "source": "osm-directory"
  },
  {
    "name": "Chicken Cottage",
    "address": "Alexandra Avenue, Harrow, HA2 9RY",
    "latitude": "51.5746",
    "longitude": "-0.3711557",
    "city": "Harrow",
    "country": "UK",
    "halalStatus": "options",
    "cuisine": "chicken",
    "sourceUrl": "https://www.openstreetmap.org/node/5191565009",
    "sourceQuote": "OpenStreetMap diet:halal=yes",
    "verifiedMethod": "web-source",
    "source": "osm-directory"
  },
  {
    "name": "Chicken Hot",
    "address": "Oldfield Lane North, Greenford, UB6 8PU",
    "latitude": "51.5418776",
    "longitude": "-0.3460873",
    "city": "Greenford",
    "country": "UK",
    "halalStatus": "options",
    "cuisine": "chicken",
    "sourceUrl": "https://www.openstreetmap.org/node/3895353237",
    "sourceQuote": "OpenStreetMap diet:halal=yes",
    "verifiedMethod": "web-source",
    "source": "osm-directory"
  },
  {
    "name": "Chicken Queen",
    "address": "Place de l'Éperon",
    "latitude": "48.0052083",
    "longitude": "0.1951273",
    "city": "",
    "country": "UK",
    "halalStatus": "options",
    "cuisine": "",
    "sourceUrl": "https://www.openstreetmap.org/node/817339707",
    "sourceQuote": "OpenStreetMap diet:halal=yes",
    "verifiedMethod": "web-source",
    "source": "osm-directory"
  },
  {
    "name": "Chicken Shop",
    "address": "Camden High Street, London",
    "latitude": "51.5381933",
    "longitude": "-0.1422498",
    "city": "London",
    "country": "UK",
    "halalStatus": "options",
    "cuisine": "chicken",
    "sourceUrl": "https://www.openstreetmap.org/node/2866270797",
    "sourceQuote": "OpenStreetMap diet:halal=yes",
    "verifiedMethod": "web-source",
    "source": "osm-directory"
  },
  {
    "name": "Chicken Shop",
    "address": "High Holborn, London, WC1V 7BD",
    "latitude": "51.5171399",
    "longitude": "-0.1223476",
    "city": "London",
    "country": "UK",
    "halalStatus": "options",
    "cuisine": "chicken",
    "sourceUrl": "https://www.openstreetmap.org/node/3625951708",
    "sourceQuote": "OpenStreetMap diet:halal=yes",
    "verifiedMethod": "web-source",
    "source": "osm-directory"
  },
  {
    "name": "Chicken Shop",
    "address": "Baker Street, London",
    "latitude": "51.5218393",
    "longitude": "-0.1571916",
    "city": "London",
    "country": "UK",
    "halalStatus": "options",
    "cuisine": "chicken",
    "sourceUrl": "https://www.openstreetmap.org/node/6340270788",
    "sourceQuote": "OpenStreetMap diet:halal=yes",
    "verifiedMethod": "web-source",
    "source": "osm-directory"
  },
  {
    "name": "Chicken Street",
    "address": "",
    "latitude": "49.4974045",
    "longitude": "0.1125493",
    "city": "",
    "country": "UK",
    "halalStatus": "full",
    "cuisine": "chicken",
    "sourceUrl": "https://www.openstreetmap.org/node/2704174069",
    "sourceQuote": "OpenStreetMap diet:halal=only",
    "verifiedMethod": "web-source",
    "source": "osm-directory"
  },
  {
    "name": "Chicken Street",
    "address": "",
    "latitude": "49.1834921",
    "longitude": "-0.3602256",
    "city": "",
    "country": "UK",
    "halalStatus": "full",
    "cuisine": "chicken",
    "sourceUrl": "https://www.openstreetmap.org/node/3889198992",
    "sourceQuote": "OpenStreetMap diet:halal=only",
    "verifiedMethod": "web-source",
    "source": "osm-directory"
  },
  {
    "name": "Chicken Street",
    "address": "",
    "latitude": "49.4316318",
    "longitude": "1.0872584",
    "city": "",
    "country": "UK",
    "halalStatus": "full",
    "cuisine": "chicken",
    "sourceUrl": "https://www.openstreetmap.org/node/5629393924",
    "sourceQuote": "OpenStreetMap diet:halal=only",
    "verifiedMethod": "web-source",
    "source": "osm-directory"
  },
  {
    "name": "Chicken Street",
    "address": "",
    "latitude": "50.7318071",
    "longitude": "1.5955422",
    "city": "",
    "country": "UK",
    "halalStatus": "full",
    "cuisine": "chicken",
    "sourceUrl": "https://www.openstreetmap.org/node/5811777385",
    "sourceQuote": "OpenStreetMap diet:halal=only",
    "verifiedMethod": "web-source",
    "source": "osm-directory"
  },
  {
    "name": "Chicken Valley",
    "address": "Queens Parade, London, W5 3HU",
    "latitude": "51.5169261",
    "longitude": "-0.2902281",
    "city": "London",
    "country": "UK",
    "halalStatus": "options",
    "cuisine": "chicken",
    "sourceUrl": "https://www.openstreetmap.org/node/1492880303",
    "sourceQuote": "OpenStreetMap diet:halal=yes",
    "verifiedMethod": "web-source",
    "source": "osm-directory"
  },
  {
    "name": "Chicking",
    "address": "Wheeler Gate, Nottingham, NG1 2NA",
    "latitude": "52.9525923",
    "longitude": "-1.1501175",
    "city": "Nottingham",
    "country": "UK",
    "halalStatus": "options",
    "cuisine": "chicken",
    "sourceUrl": "https://www.openstreetmap.org/node/810227085",
    "sourceQuote": "OpenStreetMap diet:halal=yes",
    "verifiedMethod": "web-source",
    "source": "osm-directory"
  },
  {
    "name": "Chico's",
    "address": "Barking Road, London, E6 1LA",
    "latitude": "51.5329708",
    "longitude": "0.053016",
    "city": "London",
    "country": "UK",
    "halalStatus": "options",
    "cuisine": "burger",
    "sourceUrl": "https://www.openstreetmap.org/node/10268653918",
    "sourceQuote": "OpenStreetMap diet:halal=yes",
    "verifiedMethod": "web-source",
    "source": "osm-directory"
  },
  {
    "name": "Chicos",
    "address": "Green Lanes, London, N8 0QY",
    "latitude": "51.5903664",
    "longitude": "-0.1038877",
    "city": "London",
    "country": "UK",
    "halalStatus": "options",
    "cuisine": "chicken",
    "sourceUrl": "https://www.openstreetmap.org/node/331362117",
    "sourceQuote": "OpenStreetMap diet:halal=yes",
    "verifiedMethod": "web-source",
    "source": "osm-directory"
  },
  {
    "name": "Chilli Cottage",
    "address": "Paisley Road West, Glasgow, G51 1BE",
    "latitude": "55.8517814",
    "longitude": "-4.296294",
    "city": "Glasgow",
    "country": "UK",
    "halalStatus": "options",
    "cuisine": "chicken",
    "sourceUrl": "https://www.openstreetmap.org/node/8262209917",
    "sourceQuote": "OpenStreetMap diet:halal=yes",
    "verifiedMethod": "web-source",
    "source": "osm-directory"
  },
  {
    "name": "Chillies Grill",
    "address": "St Georges Circus, London, SE1 6HS",
    "latitude": "51.4983886",
    "longitude": "-0.1048227",
    "city": "London",
    "country": "UK",
    "halalStatus": "full",
    "cuisine": "burger;curry;wrap",
    "sourceUrl": "https://www.openstreetmap.org/node/566662048",
    "sourceQuote": "OpenStreetMap diet:halal=only",
    "verifiedMethod": "web-source",
    "source": "osm-directory"
  },
  {
    "name": "China Court",
    "address": "",
    "latitude": "53.2855506",
    "longitude": "-9.0117786",
    "city": "",
    "country": "UK",
    "halalStatus": "options",
    "cuisine": "chinese",
    "sourceUrl": "https://www.openstreetmap.org/node/1729288374",
    "sourceQuote": "OpenStreetMap diet:halal=no",
    "verifiedMethod": "web-source",
    "source": "osm-directory"
  },
  {
    "name": "China Gourmet",
    "address": "Springburn Way, Glasgow, G21 1JX",
    "latitude": "55.8839168",
    "longitude": "-4.2297429",
    "city": "Glasgow",
    "country": "UK",
    "halalStatus": "options",
    "cuisine": "chinese",
    "sourceUrl": "https://www.openstreetmap.org/node/2098493405",
    "sourceQuote": "OpenStreetMap diet:halal=no",
    "verifiedMethod": "web-source",
    "source": "osm-directory"
  },
  {
    "name": "Chopstix",
    "address": "Northumberland Street, Newcastle upon Tyne, NE1 7AF",
    "latitude": "54.9755606",
    "longitude": "-1.6128826",
    "city": "Newcastle upon Tyne",
    "country": "UK",
    "halalStatus": "options",
    "cuisine": "noodle",
    "sourceUrl": "https://www.openstreetmap.org/node/1478073443",
    "sourceQuote": "OpenStreetMap diet:halal=no",
    "verifiedMethod": "web-source",
    "source": "osm-directory"
  },
  {
    "name": "Chow",
    "address": "",
    "latitude": "51.5116291",
    "longitude": "-2.1583457",
    "city": "",
    "country": "UK",
    "halalStatus": "options",
    "cuisine": "",
    "sourceUrl": "https://www.openstreetmap.org/node/8039759040",
    "sourceQuote": "OpenStreetMap diet:halal=no",
    "verifiedMethod": "web-source",
    "source": "osm-directory"
  },
  {
    "name": "Chris's Fish Bar",
    "address": "",
    "latitude": "51.5324205",
    "longitude": "-0.1360684",
    "city": "",
    "country": "UK",
    "halalStatus": "options",
    "cuisine": "",
    "sourceUrl": "https://www.openstreetmap.org/node/1656041023",
    "sourceQuote": "OpenStreetMap diet:halal=yes",
    "verifiedMethod": "web-source",
    "source": "osm-directory"
  },
  {
    "name": "City of Paris",
    "address": "Bonner Street, London, E2 0QP",
    "latitude": "51.5309254",
    "longitude": "-0.0476679",
    "city": "London",
    "country": "UK",
    "halalStatus": "options",
    "cuisine": "indian",
    "sourceUrl": "https://www.openstreetmap.org/node/3065514925",
    "sourceQuote": "OpenStreetMap diet:halal=yes",
    "verifiedMethod": "web-source",
    "source": "osm-directory"
  },
  {
    "name": "City Restaurant",
    "address": "Radford Road, Nottingham, NG7 5FT",
    "latitude": "52.9637876",
    "longitude": "-1.1692795",
    "city": "Nottingham",
    "country": "UK",
    "halalStatus": "options",
    "cuisine": "",
    "sourceUrl": "https://www.openstreetmap.org/node/2256026608",
    "sourceQuote": "OpenStreetMap diet:halal=yes",
    "verifiedMethod": "web-source",
    "source": "osm-directory"
  },
  {
    "name": "Clock Tower Takeaway",
    "address": "Sandbeck Arcade, Skegness, PE25 3HN",
    "latitude": "53.1417654",
    "longitude": "0.3433943",
    "city": "Skegness",
    "country": "UK",
    "halalStatus": "options",
    "cuisine": "fish_and_chips",
    "sourceUrl": "https://www.openstreetmap.org/node/9060614543",
    "sourceQuote": "OpenStreetMap diet:halal=yes",
    "verifiedMethod": "web-source",
    "source": "osm-directory"
  },
  {
    "name": "Coco Corner",
    "address": "Station Road, Harrow, HA1 2AT",
    "latitude": "51.5788874",
    "longitude": "-0.3340598",
    "city": "Harrow",
    "country": "UK",
    "halalStatus": "options",
    "cuisine": "",
    "sourceUrl": "https://www.openstreetmap.org/node/1489585770",
    "sourceQuote": "OpenStreetMap diet:halal=yes",
    "verifiedMethod": "web-source",
    "source": "osm-directory"
  },
  {
    "name": "Coffee#1",
    "address": "Warwick Street, Leamington Spa, CV32 4RQ",
    "latitude": "52.2921412",
    "longitude": "-1.5348362",
    "city": "Leamington Spa",
    "country": "UK",
    "halalStatus": "options",
    "cuisine": "coffee_shop",
    "sourceUrl": "https://www.openstreetmap.org/node/5046184270",
    "sourceQuote": "OpenStreetMap diet:halal=no",
    "verifiedMethod": "web-source",
    "source": "osm-directory"
  },
  {
    "name": "Coin Chaud",
    "address": "",
    "latitude": "49.4314103",
    "longitude": "1.0875781",
    "city": "",
    "country": "UK",
    "halalStatus": "options",
    "cuisine": "",
    "sourceUrl": "https://www.openstreetmap.org/node/4858172733",
    "sourceQuote": "OpenStreetMap diet:halal=yes",
    "verifiedMethod": "web-source",
    "source": "osm-directory"
  },
  {
    "name": "Cool Halal",
    "address": "",
    "latitude": "49.4705129",
    "longitude": "1.0498475",
    "city": "",
    "country": "UK",
    "halalStatus": "options",
    "cuisine": "kebab",
    "sourceUrl": "https://www.openstreetmap.org/node/7242650076",
    "sourceQuote": "OpenStreetMap diet:halal=yes",
    "verifiedMethod": "web-source",
    "source": "osm-directory"
  },
  {
    "name": "Costa",
    "address": "Trinity Square, Gateshead, NE8 1AG",
    "latitude": "54.9624247",
    "longitude": "-1.6018863",
    "city": "Gateshead",
    "country": "UK",
    "halalStatus": "options",
    "cuisine": "coffee_shop",
    "sourceUrl": "https://www.openstreetmap.org/node/2470456598",
    "sourceQuote": "OpenStreetMap diet:halal=no",
    "verifiedMethod": "web-source",
    "source": "osm-directory"
  },
  {
    "name": "Costa",
    "address": "Warwick, CV34 6RH",
    "latitude": "52.2790294",
    "longitude": "-1.5497948",
    "city": "Warwick",
    "country": "UK",
    "halalStatus": "options",
    "cuisine": "coffee_shop",
    "sourceUrl": "https://www.openstreetmap.org/node/2581721575",
    "sourceQuote": "OpenStreetMap diet:halal=no",
    "verifiedMethod": "web-source",
    "source": "osm-directory"
  },
  {
    "name": "Costa",
    "address": "SN14 6LB",
    "latitude": "51.5118411",
    "longitude": "-2.158364",
    "city": "",
    "country": "UK",
    "halalStatus": "options",
    "cuisine": "coffee_shop",
    "sourceUrl": "https://www.openstreetmap.org/node/3086428968",
    "sourceQuote": "OpenStreetMap diet:halal=no",
    "verifiedMethod": "web-source",
    "source": "osm-directory"
  },
  {
    "name": "Costa",
    "address": "Bon Accord Centre, Aberdeen, AB25 1HZ",
    "latitude": "57.1491909",
    "longitude": "-2.0995741",
    "city": "Aberdeen",
    "country": "UK",
    "halalStatus": "options",
    "cuisine": "coffee_shop",
    "sourceUrl": "https://www.openstreetmap.org/node/6732213796",
    "sourceQuote": "OpenStreetMap diet:halal=no",
    "verifiedMethod": "web-source",
    "source": "osm-directory"
  },
  {
    "name": "Côte Brasserie",
    "address": "Grainger Street, Newcastle upon Tyne, NE1 5AF",
    "latitude": "54.972863",
    "longitude": "-1.6136897",
    "city": "Newcastle upon Tyne",
    "country": "UK",
    "halalStatus": "options",
    "cuisine": "french",
    "sourceUrl": "https://www.openstreetmap.org/node/5359626094",
    "sourceQuote": "OpenStreetMap diet:halal=no",
    "verifiedMethod": "web-source",
    "source": "osm-directory"
  },
  {
    "name": "Crown Fish Bar",
    "address": "Middleton Boulevard, Nottingham, NG8 1FW",
    "latitude": "52.9546671",
    "longitude": "-1.1938676",
    "city": "Nottingham",
    "country": "UK",
    "halalStatus": "options",
    "cuisine": "fish_and_chips",
    "sourceUrl": "https://www.openstreetmap.org/node/2308239455",
    "sourceQuote": "OpenStreetMap diet:halal=yes",
    "verifiedMethod": "web-source",
    "source": "osm-directory"
  },
  {
    "name": "Cube Desserts",
    "address": "Regent Street, Blackburn, BB1 6BH",
    "latitude": "53.7512757",
    "longitude": "-2.4822921",
    "city": "Blackburn",
    "country": "UK",
    "halalStatus": "options",
    "cuisine": "pizza;cake;donut;coffee_shop;ice_cream",
    "sourceUrl": "https://www.openstreetmap.org/node/4581156792",
    "sourceQuote": "OpenStreetMap diet:halal=yes",
    "verifiedMethod": "web-source",
    "source": "osm-directory"
  },
  {
    "name": "Delhi Spice",
    "address": "Market Place, Gerrards Cross, SL9 9EH",
    "latitude": "51.6069526",
    "longitude": "-0.5573468",
    "city": "Gerrards Cross",
    "country": "UK",
    "halalStatus": "options",
    "cuisine": "indian",
    "sourceUrl": "https://www.openstreetmap.org/node/6713123897",
    "sourceQuote": "OpenStreetMap diet:halal=yes",
    "verifiedMethod": "web-source",
    "source": "osm-directory"
  },
  {
    "name": "Deli Kitchen",
    "address": "Great George Street, Leeds, LS1 3BB",
    "latitude": "53.8009985",
    "longitude": "-1.5515922",
    "city": "Leeds",
    "country": "UK",
    "halalStatus": "options",
    "cuisine": "sandwich;breakfast;coffee_shop",
    "sourceUrl": "https://www.openstreetmap.org/node/5660715673",
    "sourceQuote": "OpenStreetMap diet:halal=yes",
    "verifiedMethod": "web-source",
    "source": "osm-directory"
  },
  {
    "name": "Dixy Chicken",
    "address": "Waterloo Street, Burton-on-Trent, DE14 2NB",
    "latitude": "52.8105324",
    "longitude": "-1.6430616",
    "city": "Burton-on-Trent",
    "country": "UK",
    "halalStatus": "options",
    "cuisine": "chicken",
    "sourceUrl": "https://www.openstreetmap.org/node/151359388",
    "sourceQuote": "OpenStreetMap diet:halal=yes",
    "verifiedMethod": "web-source",
    "source": "osm-directory"
  },
  {
    "name": "Dixy Chicken",
    "address": "Stoke Newington High Street, London, N16 0NY",
    "latitude": "51.5615332",
    "longitude": "-0.0739155",
    "city": "London",
    "country": "UK",
    "halalStatus": "options",
    "cuisine": "chicken",
    "sourceUrl": "https://www.openstreetmap.org/node/660899270",
    "sourceQuote": "OpenStreetMap diet:halal=yes",
    "verifiedMethod": "web-source",
    "source": "osm-directory"
  },
  {
    "name": "Dixy Chicken",
    "address": "",
    "latitude": "52.4650414",
    "longitude": "-1.8919885",
    "city": "",
    "country": "UK",
    "halalStatus": "options",
    "cuisine": "chicken",
    "sourceUrl": "https://www.openstreetmap.org/node/885889470",
    "sourceQuote": "OpenStreetMap diet:halal=yes",
    "verifiedMethod": "web-source",
    "source": "osm-directory"
  },
  {
    "name": "Dixy Chicken",
    "address": "Coventry Road, Birmingham, B10 0XA",
    "latitude": "52.4729126",
    "longitude": "-1.8661571",
    "city": "Birmingham",
    "country": "UK",
    "halalStatus": "options",
    "cuisine": "chicken",
    "sourceUrl": "https://www.openstreetmap.org/node/932298440",
    "sourceQuote": "OpenStreetMap diet:halal=yes",
    "verifiedMethod": "web-source",
    "source": "osm-directory"
  },
  {
    "name": "Dixy Chicken",
    "address": "",
    "latitude": "52.4890675",
    "longitude": "-1.872062",
    "city": "",
    "country": "UK",
    "halalStatus": "options",
    "cuisine": "chicken",
    "sourceUrl": "https://www.openstreetmap.org/node/965258192",
    "sourceQuote": "OpenStreetMap diet:halal=yes",
    "verifiedMethod": "web-source",
    "source": "osm-directory"
  },
  {
    "name": "Dixy Chicken",
    "address": "Corporation Street, Birmingham, B4 6RG",
    "latitude": "52.4840249",
    "longitude": "-1.8929561",
    "city": "Birmingham",
    "country": "UK",
    "halalStatus": "options",
    "cuisine": "chicken",
    "sourceUrl": "https://www.openstreetmap.org/node/966093361",
    "sourceQuote": "OpenStreetMap diet:halal=yes",
    "verifiedMethod": "web-source",
    "source": "osm-directory"
  },
  {
    "name": "Dixy Chicken",
    "address": "Alfreton Road, Nottingham, NG7 3NU",
    "latitude": "52.9592533",
    "longitude": "-1.1676198",
    "city": "Nottingham",
    "country": "UK",
    "halalStatus": "options",
    "cuisine": "chicken",
    "sourceUrl": "https://www.openstreetmap.org/node/1184786730",
    "sourceQuote": "OpenStreetMap diet:halal=yes",
    "verifiedMethod": "web-source",
    "source": "osm-directory"
  },
  {
    "name": "Dixy Chicken",
    "address": "",
    "latitude": "52.4760434",
    "longitude": "-1.9129022",
    "city": "",
    "country": "UK",
    "halalStatus": "options",
    "cuisine": "chicken",
    "sourceUrl": "https://www.openstreetmap.org/node/1379877650",
    "sourceQuote": "OpenStreetMap diet:halal=yes",
    "verifiedMethod": "web-source",
    "source": "osm-directory"
  },
  {
    "name": "Dixy Chicken",
    "address": "Oxford Road, Manchester, M1 7DY",
    "latitude": "53.4703959",
    "longitude": "-2.2370935",
    "city": "Manchester",
    "country": "UK",
    "halalStatus": "options",
    "cuisine": "chicken",
    "sourceUrl": "https://www.openstreetmap.org/node/1502881649",
    "sourceQuote": "OpenStreetMap diet:halal=yes",
    "verifiedMethod": "web-source",
    "source": "osm-directory"
  },
  {
    "name": "Dixy Chicken",
    "address": "Fortess Road, London, NW5 2HR",
    "latitude": "51.5569634",
    "longitude": "-0.1386457",
    "city": "London",
    "country": "UK",
    "halalStatus": "options",
    "cuisine": "chicken",
    "sourceUrl": "https://www.openstreetmap.org/node/1842096021",
    "sourceQuote": "OpenStreetMap diet:halal=yes",
    "verifiedMethod": "web-source",
    "source": "osm-directory"
  },
  {
    "name": "Dixy Chicken",
    "address": "Wilmslow Road, Manchester, M14 5TB",
    "latitude": "53.4576084",
    "longitude": "-2.2264025",
    "city": "Manchester",
    "country": "UK",
    "halalStatus": "options",
    "cuisine": "chicken",
    "sourceUrl": "https://www.openstreetmap.org/node/1892270105",
    "sourceQuote": "OpenStreetMap diet:halal=yes",
    "verifiedMethod": "web-source",
    "source": "osm-directory"
  },
  {
    "name": "Dixy Chicken",
    "address": "Sneinton Dale, Nottingham, NG2 4LW",
    "latitude": "52.9534714",
    "longitude": "-1.1238646",
    "city": "Nottingham",
    "country": "UK",
    "halalStatus": "options",
    "cuisine": "chicken",
    "sourceUrl": "https://www.openstreetmap.org/node/2287995108",
    "sourceQuote": "OpenStreetMap diet:halal=yes",
    "verifiedMethod": "web-source",
    "source": "osm-directory"
  },
  {
    "name": "Dixy Chicken",
    "address": "Leith Walk, Edinburgh, EH6 8NY",
    "latitude": "55.9661107",
    "longitude": "-3.1752697",
    "city": "Edinburgh",
    "country": "UK",
    "halalStatus": "options",
    "cuisine": "chicken",
    "sourceUrl": "https://www.openstreetmap.org/node/2425708235",
    "sourceQuote": "OpenStreetMap diet:halal=yes",
    "verifiedMethod": "web-source",
    "source": "osm-directory"
  },
  {
    "name": "Dixy Chicken",
    "address": "Hurst Street, Birmingham, B5 4AS",
    "latitude": "52.4751314",
    "longitude": "-1.8981853",
    "city": "Birmingham",
    "country": "UK",
    "halalStatus": "options",
    "cuisine": "chicken",
    "sourceUrl": "https://www.openstreetmap.org/node/2556578506",
    "sourceQuote": "OpenStreetMap diet:halal=yes",
    "verifiedMethod": "web-source",
    "source": "osm-directory"
  },
  {
    "name": "Dixy Chicken",
    "address": "",
    "latitude": "52.4286676",
    "longitude": "-1.4994371",
    "city": "",
    "country": "UK",
    "halalStatus": "options",
    "cuisine": "chicken",
    "sourceUrl": "https://www.openstreetmap.org/node/2692881664",
    "sourceQuote": "OpenStreetMap diet:halal=yes",
    "verifiedMethod": "web-source",
    "source": "osm-directory"
  },
  {
    "name": "Dixy Chicken",
    "address": "",
    "latitude": "52.4461433",
    "longitude": "-1.9324096",
    "city": "",
    "country": "UK",
    "halalStatus": "options",
    "cuisine": "chicken",
    "sourceUrl": "https://www.openstreetmap.org/node/2782012407",
    "sourceQuote": "OpenStreetMap diet:halal=yes",
    "verifiedMethod": "web-source",
    "source": "osm-directory"
  },
  {
    "name": "Dixy Chicken",
    "address": "Shudehill, Manchester, M4 1EZ",
    "latitude": "53.4848836",
    "longitude": "-2.2382475",
    "city": "Manchester",
    "country": "UK",
    "halalStatus": "options",
    "cuisine": "chicken",
    "sourceUrl": "https://www.openstreetmap.org/node/2867548705",
    "sourceQuote": "OpenStreetMap diet:halal=yes",
    "verifiedMethod": "web-source",
    "source": "osm-directory"
  },
  {
    "name": "Dixy Chicken",
    "address": "Silver Street, Doncaster, DN1 1HQ",
    "latitude": "53.5230414",
    "longitude": "-1.1318337",
    "city": "Doncaster",
    "country": "UK",
    "halalStatus": "options",
    "cuisine": "chicken",
    "sourceUrl": "https://www.openstreetmap.org/node/2884407745",
    "sourceQuote": "OpenStreetMap diet:halal=yes",
    "verifiedMethod": "web-source",
    "source": "osm-directory"
  },
  {
    "name": "Dixy Chicken",
    "address": "",
    "latitude": "52.4560885",
    "longitude": "-1.8767445",
    "city": "",
    "country": "UK",
    "halalStatus": "options",
    "cuisine": "chicken",
    "sourceUrl": "https://www.openstreetmap.org/node/3461605318",
    "sourceQuote": "OpenStreetMap diet:halal=yes",
    "verifiedMethod": "web-source",
    "source": "osm-directory"
  },
  {
    "name": "Dixy Chicken",
    "address": "",
    "latitude": "52.4891458",
    "longitude": "-1.8513421",
    "city": "",
    "country": "UK",
    "halalStatus": "options",
    "cuisine": "chicken",
    "sourceUrl": "https://www.openstreetmap.org/node/3562350098",
    "sourceQuote": "OpenStreetMap diet:halal=yes",
    "verifiedMethod": "web-source",
    "source": "osm-directory"
  },
  {
    "name": "Dixy Chicken",
    "address": "",
    "latitude": "53.9936932",
    "longitude": "-1.5386581",
    "city": "",
    "country": "UK",
    "halalStatus": "options",
    "cuisine": "chicken",
    "sourceUrl": "https://www.openstreetmap.org/node/3771042527",
    "sourceQuote": "OpenStreetMap diet:halal=yes",
    "verifiedMethod": "web-source",
    "source": "osm-directory"
  },
  {
    "name": "Dixy Chicken",
    "address": "Town Street, Leeds, LS18 4AP",
    "latitude": "53.8381162",
    "longitude": "-1.6399832",
    "city": "Leeds",
    "country": "UK",
    "halalStatus": "options",
    "cuisine": "chicken",
    "sourceUrl": "https://www.openstreetmap.org/node/3886416658",
    "sourceQuote": "OpenStreetMap diet:halal=yes",
    "verifiedMethod": "web-source",
    "source": "osm-directory"
  },
  {
    "name": "Dixy Chicken",
    "address": "",
    "latitude": "52.4517257",
    "longitude": "-1.7786271",
    "city": "",
    "country": "UK",
    "halalStatus": "options",
    "cuisine": "chicken",
    "sourceUrl": "https://www.openstreetmap.org/node/4088209575",
    "sourceQuote": "OpenStreetMap diet:halal=yes",
    "verifiedMethod": "web-source",
    "source": "osm-directory"
  },
  {
    "name": "Dixy Chicken",
    "address": "Westmorland Road, Newcastle upon Tyne, NE1 4EG",
    "latitude": "54.9685833",
    "longitude": "-1.6214248",
    "city": "Newcastle upon Tyne",
    "country": "UK",
    "halalStatus": "options",
    "cuisine": "chicken",
    "sourceUrl": "https://www.openstreetmap.org/node/4513745655",
    "sourceQuote": "OpenStreetMap diet:halal=yes",
    "verifiedMethod": "web-source",
    "source": "osm-directory"
  },
  {
    "name": "Dixy Chicken",
    "address": "West Road, Newcastle upon Tyne, NE4 9PU",
    "latitude": "54.9757419",
    "longitude": "-1.6550298",
    "city": "Newcastle upon Tyne",
    "country": "UK",
    "halalStatus": "options",
    "cuisine": "chicken",
    "sourceUrl": "https://www.openstreetmap.org/node/4590641814",
    "sourceQuote": "OpenStreetMap diet:halal=yes",
    "verifiedMethod": "web-source",
    "source": "osm-directory"
  },
  {
    "name": "Dixy Chicken",
    "address": "Corporation Street, Corby, NN17 1NH",
    "latitude": "52.4878738",
    "longitude": "-0.7028214",
    "city": "Corby",
    "country": "UK",
    "halalStatus": "options",
    "cuisine": "chicken",
    "sourceUrl": "https://www.openstreetmap.org/node/4707238368",
    "sourceQuote": "OpenStreetMap diet:halal=yes",
    "verifiedMethod": "web-source",
    "source": "osm-directory"
  },
  {
    "name": "Dixy Chicken",
    "address": "Market Street, Bury, BL9 0AJ",
    "latitude": "53.592823",
    "longitude": "-2.2974888",
    "city": "Bury",
    "country": "UK",
    "halalStatus": "options",
    "cuisine": "chicken",
    "sourceUrl": "https://www.openstreetmap.org/node/4741683423",
    "sourceQuote": "OpenStreetMap diet:halal=yes",
    "verifiedMethod": "web-source",
    "source": "osm-directory"
  },
  {
    "name": "Dixy Chicken",
    "address": "Whitley Road, Whitley Bay, NE26 2TA",
    "latitude": "55.0421269",
    "longitude": "-1.4433681",
    "city": "Whitley Bay",
    "country": "UK",
    "halalStatus": "options",
    "cuisine": "chicken",
    "sourceUrl": "https://www.openstreetmap.org/node/4819987678",
    "sourceQuote": "OpenStreetMap diet:halal=yes",
    "verifiedMethod": "web-source",
    "source": "osm-directory"
  },
  {
    "name": "Dixy Chicken",
    "address": "Broad Street, Wolverhampton, WV1 1HZ",
    "latitude": "52.5875947",
    "longitude": "-2.1246531",
    "city": "Wolverhampton",
    "country": "UK",
    "halalStatus": "options",
    "cuisine": "chicken",
    "sourceUrl": "https://www.openstreetmap.org/node/5116241799",
    "sourceQuote": "OpenStreetMap diet:halal=yes",
    "verifiedMethod": "web-source",
    "source": "osm-directory"
  },
  {
    "name": "Dixy Chicken",
    "address": "Wellingborough Road, Northampton, NN1 4DN",
    "latitude": "52.2402888",
    "longitude": "-0.8866525",
    "city": "Northampton",
    "country": "UK",
    "halalStatus": "options",
    "cuisine": "chicken",
    "sourceUrl": "https://www.openstreetmap.org/node/5161695492",
    "sourceQuote": "OpenStreetMap diet:halal=yes",
    "verifiedMethod": "web-source",
    "source": "osm-directory"
  },
  {
    "name": "Dixy Chicken",
    "address": "Cross Church Street, Huddersfield, HD1 2PY",
    "latitude": "53.6465653",
    "longitude": "-1.7808251",
    "city": "Huddersfield",
    "country": "UK",
    "halalStatus": "options",
    "cuisine": "chicken",
    "sourceUrl": "https://www.openstreetmap.org/node/5341735523",
    "sourceQuote": "OpenStreetMap diet:halal=yes",
    "verifiedMethod": "web-source",
    "source": "osm-directory"
  },
  {
    "name": "Dixy Chicken",
    "address": "High Road Leytonstone, London, E11 4HH",
    "latitude": "51.5535465",
    "longitude": "0.0050023",
    "city": "London",
    "country": "UK",
    "halalStatus": "options",
    "cuisine": "chicken",
    "sourceUrl": "https://www.openstreetmap.org/node/5812592685",
    "sourceQuote": "OpenStreetMap diet:halal=yes",
    "verifiedMethod": "web-source",
    "source": "osm-directory"
  },
  {
    "name": "Dixy Chicken",
    "address": "Wote Street, Basingstoke, RG21 7NW",
    "latitude": "51.2634371",
    "longitude": "-1.0866897",
    "city": "Basingstoke",
    "country": "UK",
    "halalStatus": "options",
    "cuisine": "chicken",
    "sourceUrl": "https://www.openstreetmap.org/node/5835227485",
    "sourceQuote": "OpenStreetMap diet:halal=yes",
    "verifiedMethod": "web-source",
    "source": "osm-directory"
  },
  {
    "name": "Dixy Chicken",
    "address": "Newport Street, Bolton, BL3 6AB",
    "latitude": "53.5750314",
    "longitude": "-2.4282231",
    "city": "Bolton",
    "country": "UK",
    "halalStatus": "options",
    "cuisine": "chicken",
    "sourceUrl": "https://www.openstreetmap.org/node/6126574611",
    "sourceQuote": "OpenStreetMap diet:halal=yes",
    "verifiedMethod": "web-source",
    "source": "osm-directory"
  },
  {
    "name": "Dixy Chicken",
    "address": "Moss Lane West, Manchester, M15 5PQ",
    "latitude": "53.4592397",
    "longitude": "-2.2572166",
    "city": "Manchester",
    "country": "UK",
    "halalStatus": "options",
    "cuisine": "chicken",
    "sourceUrl": "https://www.openstreetmap.org/node/6312999320",
    "sourceQuote": "OpenStreetMap diet:halal=yes",
    "verifiedMethod": "web-source",
    "source": "osm-directory"
  },
  {
    "name": "Dixy Chicken",
    "address": "New Briggate, Leeds, LS2 8JD",
    "latitude": "53.8000829",
    "longitude": "-1.5415379",
    "city": "Leeds",
    "country": "UK",
    "halalStatus": "options",
    "cuisine": "chicken",
    "sourceUrl": "https://www.openstreetmap.org/node/6349524098",
    "sourceQuote": "OpenStreetMap diet:halal=yes",
    "verifiedMethod": "web-source",
    "source": "osm-directory"
  },
  {
    "name": "Dixy Chicken",
    "address": "Reed Hill, Rochdale, OL16 1DF",
    "latitude": "53.6189232",
    "longitude": "-2.1568907",
    "city": "Rochdale",
    "country": "UK",
    "halalStatus": "options",
    "cuisine": "chicken",
    "sourceUrl": "https://www.openstreetmap.org/node/6540423287",
    "sourceQuote": "OpenStreetMap diet:halal=yes",
    "verifiedMethod": "web-source",
    "source": "osm-directory"
  },
  {
    "name": "Dixy Chicken",
    "address": "Washwood Heath Road, Birmingham, B8 2HG",
    "latitude": "52.4936555",
    "longitude": "-1.8332199",
    "city": "Birmingham",
    "country": "UK",
    "halalStatus": "options",
    "cuisine": "chicken",
    "sourceUrl": "https://www.openstreetmap.org/node/7227103206",
    "sourceQuote": "OpenStreetMap diet:halal=yes",
    "verifiedMethod": "web-source",
    "source": "osm-directory"
  },
  {
    "name": "Dixy Chicken",
    "address": "Wilbraham Road, Manchester, M21 0AG",
    "latitude": "53.4426085",
    "longitude": "-2.2764896",
    "city": "Manchester",
    "country": "UK",
    "halalStatus": "options",
    "cuisine": "chicken",
    "sourceUrl": "https://www.openstreetmap.org/node/7967333938",
    "sourceQuote": "OpenStreetMap diet:halal=yes",
    "verifiedMethod": "web-source",
    "source": "osm-directory"
  },
  {
    "name": "Dixy Chicken",
    "address": "Pershore Road, Birmingham, B30 2JH",
    "latitude": "52.4237349",
    "longitude": "-1.9217248",
    "city": "Birmingham",
    "country": "UK",
    "halalStatus": "options",
    "cuisine": "chicken",
    "sourceUrl": "https://www.openstreetmap.org/node/9062955868",
    "sourceQuote": "OpenStreetMap diet:halal=yes",
    "verifiedMethod": "web-source",
    "source": "osm-directory"
  },
  {
    "name": "Dixy Chicken",
    "address": "Bury New Road, Manchester, M8 8EL",
    "latitude": "53.493238",
    "longitude": "-2.2495841",
    "city": "Manchester",
    "country": "UK",
    "halalStatus": "options",
    "cuisine": "chicken",
    "sourceUrl": "https://www.openstreetmap.org/node/9877667635",
    "sourceQuote": "OpenStreetMap diet:halal=yes",
    "verifiedMethod": "web-source",
    "source": "osm-directory"
  },
  {
    "name": "Dixy Chicken",
    "address": "Prescot Road, Liverpool",
    "latitude": "53.4145575",
    "longitude": "-2.907654",
    "city": "Liverpool",
    "country": "UK",
    "halalStatus": "options",
    "cuisine": "chicken",
    "sourceUrl": "https://www.openstreetmap.org/node/9938830104",
    "sourceQuote": "OpenStreetMap diet:halal=yes",
    "verifiedMethod": "web-source",
    "source": "osm-directory"
  },
  {
    "name": "Dixy Chicken",
    "address": "Washway Road, M33 7TY",
    "latitude": "53.4210257",
    "longitude": "-2.3299946",
    "city": "",
    "country": "UK",
    "halalStatus": "options",
    "cuisine": "chicken;pizza;burger",
    "sourceUrl": "https://www.openstreetmap.org/node/10053244794",
    "sourceQuote": "OpenStreetMap diet:halal=yes",
    "verifiedMethod": "web-source",
    "source": "osm-directory"
  },
  {
    "name": "Dixy Chicken",
    "address": "High Street, London, E13 9HH",
    "latitude": "51.5293986",
    "longitude": "0.0257118",
    "city": "London",
    "country": "UK",
    "halalStatus": "options",
    "cuisine": "chicken",
    "sourceUrl": "https://www.openstreetmap.org/node/10316717062",
    "sourceQuote": "OpenStreetMap diet:halal=yes",
    "verifiedMethod": "web-source",
    "source": "osm-directory"
  },
  {
    "name": "Dixy Chicken",
    "address": "Ley Street, Ilford",
    "latitude": "51.5626979",
    "longitude": "0.0787769",
    "city": "Ilford",
    "country": "UK",
    "halalStatus": "options",
    "cuisine": "chicken",
    "sourceUrl": "https://www.openstreetmap.org/node/10583855297",
    "sourceQuote": "OpenStreetMap diet:halal=yes",
    "verifiedMethod": "web-source",
    "source": "osm-directory"
  },
  {
    "name": "Dixy Chicken",
    "address": "Soho Road, Birmingham, B21 9SA",
    "latitude": "52.5035876",
    "longitude": "-1.9366483",
    "city": "Birmingham",
    "country": "UK",
    "halalStatus": "options",
    "cuisine": "chicken",
    "sourceUrl": "https://www.openstreetmap.org/node/10774396437",
    "sourceQuote": "OpenStreetMap diet:halal=yes",
    "verifiedMethod": "web-source",
    "source": "osm-directory"
  },
  {
    "name": "Domino's",
    "address": "Place Saint-Pierre, Mordelles, 35310",
    "latitude": "48.0721208",
    "longitude": "-1.8499541",
    "city": "Mordelles",
    "country": "UK",
    "halalStatus": "options",
    "cuisine": "pizza",
    "sourceUrl": "https://www.openstreetmap.org/node/4421931290",
    "sourceQuote": "OpenStreetMap diet:halal=yes",
    "verifiedMethod": "web-source",
    "source": "osm-directory"
  },
  {
    "name": "Domino's",
    "address": "Regent Street, Leamington Spa, CV32 4NR",
    "latitude": "52.2904597",
    "longitude": "-1.533005",
    "city": "Leamington Spa",
    "country": "UK",
    "halalStatus": "options",
    "cuisine": "pizza",
    "sourceUrl": "https://www.openstreetmap.org/node/6388297780",
    "sourceQuote": "OpenStreetMap diet:halal=no",
    "verifiedMethod": "web-source",
    "source": "osm-directory"
  },
  {
    "name": "Döner Box",
    "address": "Ilkeston Road, Nottingham, NG7 3FX",
    "latitude": "52.9553326",
    "longitude": "-1.1799483",
    "city": "Nottingham",
    "country": "UK",
    "halalStatus": "options",
    "cuisine": "sandwich",
    "sourceUrl": "https://www.openstreetmap.org/node/2258357645",
    "sourceQuote": "OpenStreetMap diet:halal=yes",
    "verifiedMethod": "web-source",
    "source": "osm-directory"
  },
  {
    "name": "Dublin Chicken and Rice",
    "address": "Blessington Street",
    "latitude": "53.356221",
    "longitude": "-6.2653265",
    "city": "",
    "country": "UK",
    "halalStatus": "options",
    "cuisine": "",
    "sourceUrl": "https://www.openstreetmap.org/node/5384454766",
    "sourceQuote": "OpenStreetMap diet:halal=yes",
    "verifiedMethod": "web-source",
    "source": "osm-directory"
  },
  {
    "name": "Ducey Kebab House",
    "address": "",
    "latitude": "48.6192181",
    "longitude": "-1.291652",
    "city": "",
    "country": "UK",
    "halalStatus": "options",
    "cuisine": "kebab",
    "sourceUrl": "https://www.openstreetmap.org/node/9651677556",
    "sourceQuote": "OpenStreetMap diet:halal=yes",
    "verifiedMethod": "web-source",
    "source": "osm-directory"
  },
  {
    "name": "EastZEast Blackburn",
    "address": "Northgate, Blackburn, BB2 1AA",
    "latitude": "53.7491585",
    "longitude": "-2.4858497",
    "city": "Blackburn",
    "country": "UK",
    "halalStatus": "options",
    "cuisine": "",
    "sourceUrl": "https://www.openstreetmap.org/node/4167800089",
    "sourceQuote": "OpenStreetMap diet:halal=yes",
    "verifiedMethod": "web-source",
    "source": "osm-directory"
  },
  {
    "name": "Eat's Good",
    "address": "Rue Garibaldi, Sotteville-lès-Rouen, 76300",
    "latitude": "49.4183708",
    "longitude": "1.0908023",
    "city": "Sotteville-lès-Rouen",
    "country": "UK",
    "halalStatus": "options",
    "cuisine": "burger;tex-mex;tacos;sandwich;pizza;kebab",
    "sourceUrl": "https://www.openstreetmap.org/node/6966568723",
    "sourceQuote": "OpenStreetMap diet:halal=yes",
    "verifiedMethod": "web-source",
    "source": "osm-directory"
  },
  {
    "name": "Ed's Easy Diner",
    "address": "King Edwards Road, Birmingham, B1 2AA",
    "latitude": "52.4793072",
    "longitude": "-1.914328",
    "city": "Birmingham",
    "country": "UK",
    "halalStatus": "options",
    "cuisine": "",
    "sourceUrl": "https://www.openstreetmap.org/node/3342719050",
    "sourceQuote": "OpenStreetMap diet:halal=no",
    "verifiedMethod": "web-source",
    "source": "osm-directory"
  },
  {
    "name": "Edinburgh Prime Steakhouse",
    "address": "Moat Place, Edinburgh, EH14 1NY",
    "latitude": "55.9316955",
    "longitude": "-3.2375293",
    "city": "Edinburgh",
    "country": "UK",
    "halalStatus": "options",
    "cuisine": "steak_house",
    "sourceUrl": "https://www.openstreetmap.org/node/482901320",
    "sourceQuote": "OpenStreetMap diet:halal=yes",
    "verifiedMethod": "web-source",
    "source": "osm-directory"
  },
  {
    "name": "Efes",
    "address": "Mile End Road, London, E1 4LJ",
    "latitude": "51.5215677",
    "longitude": "-0.0469187",
    "city": "London",
    "country": "UK",
    "halalStatus": "options",
    "cuisine": "turkish",
    "sourceUrl": "https://www.openstreetmap.org/node/4084964915",
    "sourceQuote": "OpenStreetMap diet:halal=yes",
    "verifiedMethod": "web-source",
    "source": "osm-directory"
  },
  {
    "name": "El's Gourmet",
    "address": "Great George Street, Leeds, LS1 3BB",
    "latitude": "53.8010138",
    "longitude": "-1.551833",
    "city": "Leeds",
    "country": "UK",
    "halalStatus": "options",
    "cuisine": "burger",
    "sourceUrl": "https://www.openstreetmap.org/node/357751915",
    "sourceQuote": "OpenStreetMap diet:halal=yes",
    "verifiedMethod": "web-source",
    "source": "osm-directory"
  },
  {
    "name": "EL&N",
    "address": "",
    "latitude": "51.5317441",
    "longitude": "-0.1266408",
    "city": "",
    "country": "UK",
    "halalStatus": "options",
    "cuisine": "coffee_shop",
    "sourceUrl": "https://www.openstreetmap.org/node/3310086151",
    "sourceQuote": "OpenStreetMap diet:halal=yes",
    "verifiedMethod": "web-source",
    "source": "osm-directory"
  },
  {
    "name": "EL&N",
    "address": "",
    "latitude": "51.5116204",
    "longitude": "-0.122868",
    "city": "",
    "country": "UK",
    "halalStatus": "options",
    "cuisine": "coffee_shop",
    "sourceUrl": "https://www.openstreetmap.org/node/5012281286",
    "sourceQuote": "OpenStreetMap diet:halal=yes",
    "verifiedMethod": "web-source",
    "source": "osm-directory"
  },
  {
    "name": "EL&N",
    "address": "Brompton Road, London",
    "latitude": "51.4967358",
    "longitude": "-0.1686653",
    "city": "London",
    "country": "UK",
    "halalStatus": "options",
    "cuisine": "coffee_shop",
    "sourceUrl": "https://www.openstreetmap.org/node/6126595490",
    "sourceQuote": "OpenStreetMap diet:halal=yes",
    "verifiedMethod": "web-source",
    "source": "osm-directory"
  },
  {
    "name": "EL&N",
    "address": "",
    "latitude": "51.498613",
    "longitude": "-0.1578848",
    "city": "",
    "country": "UK",
    "halalStatus": "options",
    "cuisine": "coffee_shop",
    "sourceUrl": "https://www.openstreetmap.org/node/7982364431",
    "sourceQuote": "OpenStreetMap diet:halal=yes",
    "verifiedMethod": "web-source",
    "source": "osm-directory"
  },
  {
    "name": "EL&N",
    "address": "",
    "latitude": "51.5139667",
    "longitude": "-0.1341755",
    "city": "",
    "country": "UK",
    "halalStatus": "options",
    "cuisine": "coffee_shop",
    "sourceUrl": "https://www.openstreetmap.org/node/10073023017",
    "sourceQuote": "OpenStreetMap diet:halal=yes",
    "verifiedMethod": "web-source",
    "source": "osm-directory"
  },
  {
    "name": "Ella's Heaven",
    "address": "Talbot Street, Dublin",
    "latitude": "53.3502744",
    "longitude": "-6.2567291",
    "city": "Dublin",
    "country": "UK",
    "halalStatus": "options",
    "cuisine": "",
    "sourceUrl": "https://www.openstreetmap.org/node/6544830663",
    "sourceQuote": "OpenStreetMap diet:halal=yes",
    "verifiedMethod": "web-source",
    "source": "osm-directory"
  },
  {
    "name": "Etles Uyghur Restaurant",
    "address": "Hoe Street, London, E17 9PP",
    "latitude": "51.5818408",
    "longitude": "-0.0182592",
    "city": "London",
    "country": "UK",
    "halalStatus": "options",
    "cuisine": "uyghur",
    "sourceUrl": "https://www.openstreetmap.org/node/10793105692",
    "sourceQuote": "OpenStreetMap diet:halal=yes",
    "verifiedMethod": "web-source",
    "source": "osm-directory"
  },
  {
    "name": "Everest",
    "address": "Kennedy Square, Leamington Spa, CV32 4SY",
    "latitude": "52.2929063",
    "longitude": "-1.5301789",
    "city": "Leamington Spa",
    "country": "UK",
    "halalStatus": "options",
    "cuisine": "indian",
    "sourceUrl": "https://www.openstreetmap.org/node/3246140795",
    "sourceQuote": "OpenStreetMap diet:halal=no",
    "verifiedMethod": "web-source",
    "source": "osm-directory"
  },
  {
    "name": "Exeter Fried Chicken Fish & Chips",
    "address": "Cowick Street, Exeter, EX4 1DG",
    "latitude": "50.7175006",
    "longitude": "-3.5406573",
    "city": "Exeter",
    "country": "UK",
    "halalStatus": "options",
    "cuisine": "fish_and_chips;fried_chicken;burger",
    "sourceUrl": "https://www.openstreetmap.org/node/8959561598",
    "sourceQuote": "OpenStreetMap diet:halal=yes",
    "verifiedMethod": "web-source",
    "source": "osm-directory"
  },
  {
    "name": "Faizan",
    "address": "",
    "latitude": "53.8052839",
    "longitude": "-1.8212261",
    "city": "",
    "country": "UK",
    "halalStatus": "options",
    "cuisine": "pizza",
    "sourceUrl": "https://www.openstreetmap.org/node/10007212028",
    "sourceQuote": "OpenStreetMap diet:halal=yes",
    "verifiedMethod": "web-source",
    "source": "osm-directory"
  },
  {
    "name": "Fennec & Parsley",
    "address": "Hoxton Street, London, N1 6SH",
    "latitude": "51.5312718",
    "longitude": "-0.0800008",
    "city": "London",
    "country": "UK",
    "halalStatus": "options",
    "cuisine": "middle-eastern;falafel",
    "sourceUrl": "https://www.openstreetmap.org/node/6813245536",
    "sourceQuote": "OpenStreetMap diet:halal=yes",
    "verifiedMethod": "web-source",
    "source": "osm-directory"
  },
  {
    "name": "Fillings",
    "address": "Wellesley Road, Croydon, CR0 1LH",
    "latitude": "51.3749534",
    "longitude": "-0.0969888",
    "city": "Croydon",
    "country": "UK",
    "halalStatus": "options",
    "cuisine": "indian;pakistani",
    "sourceUrl": "https://www.openstreetmap.org/node/2097232185",
    "sourceQuote": "OpenStreetMap diet:halal=yes",
    "verifiedMethod": "web-source",
    "source": "osm-directory"
  },
  {
    "name": "Fireaway Pizza",
    "address": "Chepstow Road, Newport, NP19 8EG",
    "latitude": "51.5897236",
    "longitude": "-2.9781078",
    "city": "Newport",
    "country": "UK",
    "halalStatus": "options",
    "cuisine": "pizza",
    "sourceUrl": "https://www.openstreetmap.org/node/9864824630",
    "sourceQuote": "OpenStreetMap diet:halal=yes",
    "verifiedMethod": "web-source",
    "source": "osm-directory"
  },
  {
    "name": "Fisherman's Pier Seafood",
    "address": "",
    "latitude": "56.6228096",
    "longitude": "-6.0679906",
    "city": "",
    "country": "UK",
    "halalStatus": "options",
    "cuisine": "fish_and_chips",
    "sourceUrl": "https://www.openstreetmap.org/node/1579617399",
    "sourceQuote": "OpenStreetMap diet:halal=no",
    "verifiedMethod": "web-source",
    "source": "osm-directory"
  },
  {
    "name": "Fl'Eure Pizza",
    "address": "",
    "latitude": "49.3098469",
    "longitude": "1.4322847",
    "city": "",
    "country": "UK",
    "halalStatus": "options",
    "cuisine": "pizza",
    "sourceUrl": "https://www.openstreetmap.org/node/1837666927",
    "sourceQuote": "OpenStreetMap diet:halal=yes",
    "verifiedMethod": "web-source",
    "source": "osm-directory"
  },
  {
    "name": "Flame 'n' Grill",
    "address": "Marlborough Crescent, Newcastle upon Tyne, NE1 4EE",
    "latitude": "54.9674462",
    "longitude": "-1.6220378",
    "city": "Newcastle upon Tyne",
    "country": "UK",
    "halalStatus": "options",
    "cuisine": "",
    "sourceUrl": "https://www.openstreetmap.org/node/4504609183",
    "sourceQuote": "OpenStreetMap diet:halal=yes",
    "verifiedMethod": "web-source",
    "source": "osm-directory"
  },
  {
    "name": "Flavours of Asia",
    "address": "Belgrave Gate, Leicester, LE1 3GQ",
    "latitude": "52.6386834",
    "longitude": "-1.1317112",
    "city": "Leicester",
    "country": "UK",
    "halalStatus": "options",
    "cuisine": "indian",
    "sourceUrl": "https://www.openstreetmap.org/node/7856554054",
    "sourceQuote": "OpenStreetMap diet:halal=yes",
    "verifiedMethod": "web-source",
    "source": "osm-directory"
  },
  {
    "name": "Florrie's Park Cafe",
    "address": "London Road, Redhill, RH1 1SZ",
    "latitude": "51.2431953",
    "longitude": "-0.1659911",
    "city": "Redhill",
    "country": "UK",
    "halalStatus": "options",
    "cuisine": "breakfast;cake;coffee_shop;ice_cream",
    "sourceUrl": "https://www.openstreetmap.org/node/7027071817",
    "sourceQuote": "OpenStreetMap diet:halal=no",
    "verifiedMethod": "web-source",
    "source": "osm-directory"
  },
  {
    "name": "Focaccia",
    "address": "Bank Street, Glasgow, G12 8NE",
    "latitude": "55.8740586",
    "longitude": "-4.2832093",
    "city": "Glasgow",
    "country": "UK",
    "halalStatus": "options",
    "cuisine": "",
    "sourceUrl": "https://www.openstreetmap.org/node/4559242789",
    "sourceQuote": "OpenStreetMap diet:halal=yes",
    "verifiedMethod": "web-source",
    "source": "osm-directory"
  },
  {
    "name": "Food 76",
    "address": "",
    "latitude": "49.4405703",
    "longitude": "1.0974726",
    "city": "",
    "country": "UK",
    "halalStatus": "full",
    "cuisine": "kebab;tacos;burger",
    "sourceUrl": "https://www.openstreetmap.org/node/7663605583",
    "sourceQuote": "OpenStreetMap diet:halal=only",
    "verifiedMethod": "web-source",
    "source": "osm-directory"
  },
  {
    "name": "Freddy's Chicken & Pizza",
    "address": "Prescot Road, Liverpool, L13 5UX",
    "latitude": "53.4140675",
    "longitude": "-2.9103336",
    "city": "Liverpool",
    "country": "UK",
    "halalStatus": "options",
    "cuisine": "pizza;burger;chicken;american",
    "sourceUrl": "https://www.openstreetmap.org/node/9938830086",
    "sourceQuote": "OpenStreetMap diet:halal=yes",
    "verifiedMethod": "web-source",
    "source": "osm-directory"
  },
  {
    "name": "Fulbourn Kebab & Pizza",
    "address": "High Street, Fulbourn",
    "latitude": "52.1832364",
    "longitude": "0.221983",
    "city": "Fulbourn",
    "country": "UK",
    "halalStatus": "options",
    "cuisine": "pizza;fish_and_chips;kebab",
    "sourceUrl": "https://www.openstreetmap.org/node/428843049",
    "sourceQuote": "OpenStreetMap diet:halal=yes",
    "verifiedMethod": "web-source",
    "source": "osm-directory"
  },
  {
    "name": "George & Delila",
    "address": "Cowley Road, Oxford, OX4 1JE",
    "latitude": "51.7484039",
    "longitude": "-1.23928",
    "city": "Oxford",
    "country": "UK",
    "halalStatus": "options",
    "cuisine": "ice_cream",
    "sourceUrl": "https://www.openstreetmap.org/node/504753150",
    "sourceQuote": "OpenStreetMap diet:halal=yes",
    "verifiedMethod": "web-source",
    "source": "osm-directory"
  },
  {
    "name": "German Doner Kebab",
    "address": "Park Way, Havant, PO9 1HH",
    "latitude": "50.8524871",
    "longitude": "-0.9851821",
    "city": "Havant",
    "country": "UK",
    "halalStatus": "options",
    "cuisine": "kebab",
    "sourceUrl": "https://www.openstreetmap.org/node/9967400896",
    "sourceQuote": "OpenStreetMap diet:halal=yes",
    "verifiedMethod": "web-source",
    "source": "osm-directory"
  },
  {
    "name": "Golden Crown Cafe",
    "address": "Mansfield Road, Nottingham, NG5 2JN",
    "latitude": "52.9819207",
    "longitude": "-1.146071",
    "city": "Nottingham",
    "country": "UK",
    "halalStatus": "options",
    "cuisine": "",
    "sourceUrl": "https://www.openstreetmap.org/node/2348296949",
    "sourceQuote": "OpenStreetMap diet:halal=no",
    "verifiedMethod": "web-source",
    "source": "osm-directory"
  },
  {
    "name": "Good' Up",
    "address": "",
    "latitude": "49.4430605",
    "longitude": "1.1049173",
    "city": "",
    "country": "UK",
    "halalStatus": "options",
    "cuisine": "kebab",
    "sourceUrl": "https://www.openstreetmap.org/node/6946297179",
    "sourceQuote": "OpenStreetMap diet:halal=yes",
    "verifiedMethod": "web-source",
    "source": "osm-directory"
  },
  {
    "name": "Green Mosaic",
    "address": "Broadway Shopping Centre, London",
    "latitude": "51.4916158",
    "longitude": "-0.2243269",
    "city": "London",
    "country": "UK",
    "halalStatus": "full",
    "cuisine": "pizza",
    "sourceUrl": "https://www.openstreetmap.org/node/5943462686",
    "sourceQuote": "OpenStreetMap diet:halal=only",
    "verifiedMethod": "web-source",
    "source": "osm-directory"
  },
  {
    "name": "Green Pepper",
    "address": "Mile End Road, London, E1 4AA",
    "latitude": "51.5222932",
    "longitude": "-0.0445803",
    "city": "London",
    "country": "UK",
    "halalStatus": "options",
    "cuisine": "burger;chicken;kebab;pizza",
    "sourceUrl": "https://www.openstreetmap.org/node/7140709734",
    "sourceQuote": "OpenStreetMap diet:halal=yes",
    "verifiedMethod": "web-source",
    "source": "osm-directory"
  },
  {
    "name": "Greenwich",
    "address": "",
    "latitude": "53.3918641",
    "longitude": "-6.2482788",
    "city": "",
    "country": "UK",
    "halalStatus": "options",
    "cuisine": "",
    "sourceUrl": "https://www.openstreetmap.org/node/10558631407",
    "sourceQuote": "OpenStreetMap diet:halal=yes",
    "verifiedMethod": "web-source",
    "source": "osm-directory"
  },
  {
    "name": "Greggs",
    "address": "Neville Street, Newcastle upon Tyne, NE1 5DF",
    "latitude": "54.9693129",
    "longitude": "-1.6176416",
    "city": "Newcastle upon Tyne",
    "country": "UK",
    "halalStatus": "options",
    "cuisine": "sandwich;bakery",
    "sourceUrl": "https://www.openstreetmap.org/node/1509962395",
    "sourceQuote": "OpenStreetMap diet:halal=no",
    "verifiedMethod": "web-source",
    "source": "osm-directory"
  },
  {
    "name": "Greggs",
    "address": "Butt Lane, Leeds, LS13 4JF",
    "latitude": "53.7954667",
    "longitude": "-1.6207982",
    "city": "Leeds",
    "country": "UK",
    "halalStatus": "options",
    "cuisine": "sandwich;bakery",
    "sourceUrl": "https://www.openstreetmap.org/node/2593274958",
    "sourceQuote": "OpenStreetMap diet:halal=no",
    "verifiedMethod": "web-source",
    "source": "osm-directory"
  },
  {
    "name": "Greggs",
    "address": "Piccadilly Station Approach, Manchester, M1 2GH",
    "latitude": "53.4779365",
    "longitude": "-2.2315274",
    "city": "Manchester",
    "country": "UK",
    "halalStatus": "options",
    "cuisine": "sandwich;bakery",
    "sourceUrl": "https://www.openstreetmap.org/node/2688594176",
    "sourceQuote": "OpenStreetMap diet:halal=no",
    "verifiedMethod": "web-source",
    "source": "osm-directory"
  },
  {
    "name": "Greggs",
    "address": "Market Street, Ashby-de-la-Zouch, LE65 1AF",
    "latitude": "52.7469163",
    "longitude": "-1.4724557",
    "city": "Ashby-de-la-Zouch",
    "country": "UK",
    "halalStatus": "full",
    "cuisine": "sandwich;bakery",
    "sourceUrl": "https://www.openstreetmap.org/node/5302329680",
    "sourceQuote": "OpenStreetMap diet:halal=only",
    "verifiedMethod": "web-source",
    "source": "osm-directory"
  },
  {
    "name": "Greggs",
    "address": "Long Millgate, Manchester, M3 1WY",
    "latitude": "53.4873932",
    "longitude": "-2.2424441",
    "city": "Manchester",
    "country": "UK",
    "halalStatus": "options",
    "cuisine": "sandwich;bakery",
    "sourceUrl": "https://www.openstreetmap.org/node/5628819286",
    "sourceQuote": "OpenStreetMap diet:halal=no",
    "verifiedMethod": "web-source",
    "source": "osm-directory"
  },
  {
    "name": "Greggs",
    "address": "Parade, Leamington Spa, CV32 4DE",
    "latitude": "52.2925484",
    "longitude": "-1.5356565",
    "city": "Leamington Spa",
    "country": "UK",
    "halalStatus": "options",
    "cuisine": "sandwich;bakery",
    "sourceUrl": "https://www.openstreetmap.org/node/6260699536",
    "sourceQuote": "OpenStreetMap diet:halal=no",
    "verifiedMethod": "web-source",
    "source": "osm-directory"
  },
  {
    "name": "Greggs",
    "address": "Interchange Centre , Gateshead, NE8 1BH",
    "latitude": "54.9624675",
    "longitude": "-1.6042179",
    "city": "Gateshead",
    "country": "UK",
    "halalStatus": "options",
    "cuisine": "sandwich;bakery",
    "sourceUrl": "https://www.openstreetmap.org/node/6900847452",
    "sourceQuote": "OpenStreetMap diet:halal=no",
    "verifiedMethod": "web-source",
    "source": "osm-directory"
  },
  {
    "name": "Greggs",
    "address": "Citadel East, Newcastle upon Tyne, NE12 6YT",
    "latitude": "55.0363833",
    "longitude": "-1.5660185",
    "city": "Newcastle upon Tyne",
    "country": "UK",
    "halalStatus": "options",
    "cuisine": "sandwich;bakery",
    "sourceUrl": "https://www.openstreetmap.org/node/7208868412",
    "sourceQuote": "OpenStreetMap diet:halal=no",
    "verifiedMethod": "web-source",
    "source": "osm-directory"
  },
  {
    "name": "Greggs",
    "address": "Leigh Delamere, SN14 6LB",
    "latitude": "51.5117958",
    "longitude": "-2.1578446",
    "city": "Leigh Delamere",
    "country": "UK",
    "halalStatus": "options",
    "cuisine": "sandwich;bakery",
    "sourceUrl": "https://www.openstreetmap.org/node/8039759037",
    "sourceQuote": "OpenStreetMap diet:halal=no",
    "verifiedMethod": "web-source",
    "source": "osm-directory"
  },
  {
    "name": "Greggs",
    "address": "East Walk, Basildon, SS14 1HE",
    "latitude": "51.570385",
    "longitude": "0.461104",
    "city": "Basildon",
    "country": "UK",
    "halalStatus": "options",
    "cuisine": "sandwich;bakery",
    "sourceUrl": "https://www.openstreetmap.org/node/9635464595",
    "sourceQuote": "OpenStreetMap diet:halal=no",
    "verifiedMethod": "web-source",
    "source": "osm-directory"
  },
  {
    "name": "Gugsu",
    "address": "Whitechapel High Street, London, E1 7PL",
    "latitude": "51.5159398",
    "longitude": "-0.0696522",
    "city": "London",
    "country": "UK",
    "halalStatus": "options",
    "cuisine": "thai",
    "sourceUrl": "https://www.openstreetmap.org/node/9505182950",
    "sourceQuote": "OpenStreetMap diet:halal=yes",
    "verifiedMethod": "web-source",
    "source": "osm-directory"
  },
  {
    "name": "Gumnam",
    "address": "Union Street, Dundee, DD1 4BN",
    "latitude": "56.458981",
    "longitude": "-2.9712077",
    "city": "Dundee",
    "country": "UK",
    "halalStatus": "options",
    "cuisine": "indian",
    "sourceUrl": "https://www.openstreetmap.org/node/4991014676",
    "sourceQuote": "OpenStreetMap diet:halal=yes",
    "verifiedMethod": "web-source",
    "source": "osm-directory"
  },
  {
    "name": "Halal Chinese Food",
    "address": "",
    "latitude": "51.4288817",
    "longitude": "-0.1669137",
    "city": "",
    "country": "UK",
    "halalStatus": "options",
    "cuisine": "chinese",
    "sourceUrl": "https://www.openstreetmap.org/node/8615790320",
    "sourceQuote": "OpenStreetMap diet:halal=yes",
    "verifiedMethod": "web-source",
    "source": "osm-directory"
  },
  {
    "name": "Happy Nest Chinese Takeaway",
    "address": "Leamington Spa, CV31 2LT",
    "latitude": "52.2625557",
    "longitude": "-1.5255144",
    "city": "Leamington Spa",
    "country": "UK",
    "halalStatus": "options",
    "cuisine": "chinese",
    "sourceUrl": "https://www.openstreetmap.org/node/474361730",
    "sourceQuote": "OpenStreetMap diet:halal=no",
    "verifiedMethod": "web-source",
    "source": "osm-directory"
  },
  {
    "name": "Harput Kebab",
    "address": "Oxford Road, Reading, RG1 7UU",
    "latitude": "51.4548325",
    "longitude": "-0.9821123",
    "city": "Reading",
    "country": "UK",
    "halalStatus": "options",
    "cuisine": "turkish",
    "sourceUrl": "https://www.openstreetmap.org/node/5586723759",
    "sourceQuote": "OpenStreetMap diet:halal=yes",
    "verifiedMethod": "web-source",
    "source": "osm-directory"
  },
  {
    "name": "Harvest Market",
    "address": "",
    "latitude": "50.9350922",
    "longitude": "1.8121264",
    "city": "",
    "country": "UK",
    "halalStatus": "options",
    "cuisine": "",
    "sourceUrl": "https://www.openstreetmap.org/node/9626289972",
    "sourceQuote": "OpenStreetMap diet:halal=no",
    "verifiedMethod": "web-source",
    "source": "osm-directory"
  },
  {
    "name": "Haute Dolci",
    "address": "Watson Road, Birmingham, B7 5SA",
    "latitude": "52.5048634",
    "longitude": "-1.8548963",
    "city": "Birmingham",
    "country": "UK",
    "halalStatus": "options",
    "cuisine": "dessert",
    "sourceUrl": "https://www.openstreetmap.org/node/6554890172",
    "sourceQuote": "OpenStreetMap diet:halal=yes",
    "verifiedMethod": "web-source",
    "source": "osm-directory"
  },
  {
    "name": "Healthy Appetite",
    "address": "King Street, London, W6 9JT",
    "latitude": "51.4925422",
    "longitude": "-0.2328025",
    "city": "London",
    "country": "UK",
    "halalStatus": "options",
    "cuisine": "fish_and_chips;kebab;baked_potatoes;sandwich;burger",
    "sourceUrl": "https://www.openstreetmap.org/node/10077676417",
    "sourceQuote": "OpenStreetMap diet:halal=yes",
    "verifiedMethod": "web-source",
    "source": "osm-directory"
  },
  {
    "name": "Heritage House",
    "address": "Upper Dock Street, Newport, NP20 1DB",
    "latitude": "51.5890196",
    "longitude": "-2.9956973",
    "city": "Newport",
    "country": "UK",
    "halalStatus": "options",
    "cuisine": "sri_lankan",
    "sourceUrl": "https://www.openstreetmap.org/node/10160359261",
    "sourceQuote": "OpenStreetMap diet:halal=yes",
    "verifiedMethod": "web-source",
    "source": "osm-directory"
  },
  {
    "name": "Honest Burgers",
    "address": "Festival Terrace, London, SE1 8XX",
    "latitude": "51.5052621",
    "longitude": "-0.1167109",
    "city": "London",
    "country": "UK",
    "halalStatus": "options",
    "cuisine": "burger",
    "sourceUrl": "https://www.openstreetmap.org/node/282686485",
    "sourceQuote": "OpenStreetMap diet:halal=yes",
    "verifiedMethod": "web-source",
    "source": "osm-directory"
  },
  {
    "name": "Honest Burgers",
    "address": "Bridge Street, Manchester, M3 3BZ",
    "latitude": "53.4811148",
    "longitude": "-2.250371",
    "city": "Manchester",
    "country": "UK",
    "halalStatus": "options",
    "cuisine": "burger",
    "sourceUrl": "https://www.openstreetmap.org/node/6507208554",
    "sourceQuote": "OpenStreetMap diet:halal=yes",
    "verifiedMethod": "web-source",
    "source": "osm-directory"
  },
  {
    "name": "Hooked",
    "address": "Henry Street, Galway",
    "latitude": "53.2714558",
    "longitude": "-9.0610338",
    "city": "Galway",
    "country": "UK",
    "halalStatus": "options",
    "cuisine": "fish_and_chips;regional;seafood",
    "sourceUrl": "https://www.openstreetmap.org/node/5413429612",
    "sourceQuote": "OpenStreetMap diet:halal=no",
    "verifiedMethod": "web-source",
    "source": "osm-directory"
  },
  {
    "name": "Hot Munchies",
    "address": "Southwark Street, London",
    "latitude": "51.5048163",
    "longitude": "-0.0925125",
    "city": "London",
    "country": "UK",
    "halalStatus": "options",
    "cuisine": "chicken;fish_and_chips;burger",
    "sourceUrl": "https://www.openstreetmap.org/node/534964527",
    "sourceQuote": "OpenStreetMap diet:halal=yes",
    "verifiedMethod": "web-source",
    "source": "osm-directory"
  },
  {
    "name": "Husseys Fish And Chips",
    "address": "Sandbeck Avenue, Skegness, PE25 3HN",
    "latitude": "53.1418602",
    "longitude": "0.3432314",
    "city": "Skegness",
    "country": "UK",
    "halalStatus": "options",
    "cuisine": "fish_and_chips",
    "sourceUrl": "https://www.openstreetmap.org/node/9006036714",
    "sourceQuote": "OpenStreetMap diet:halal=no",
    "verifiedMethod": "web-source",
    "source": "osm-directory"
  },
  {
    "name": "Istanbul",
    "address": "Strand Road, Londonderry, BT48 7PX",
    "latitude": "55.0002975",
    "longitude": "-7.3219648",
    "city": "Londonderry",
    "country": "UK",
    "halalStatus": "options",
    "cuisine": "turkish",
    "sourceUrl": "https://www.openstreetmap.org/node/543386327",
    "sourceQuote": "OpenStreetMap diet:halal=yes",
    "verifiedMethod": "web-source",
    "source": "osm-directory"
  },
  {
    "name": "Istanbul Cafe & Bistro",
    "address": "Great Portland Street, London, W1W 5PW",
    "latitude": "51.5236491",
    "longitude": "-0.1439285",
    "city": "London",
    "country": "UK",
    "halalStatus": "options",
    "cuisine": "bistro;turkish;breakfast;lunch;diner;mediterranean;seafood;brunch",
    "sourceUrl": "https://www.openstreetmap.org/node/4327900878",
    "sourceQuote": "OpenStreetMap diet:halal=yes",
    "verifiedMethod": "web-source",
    "source": "osm-directory"
  },
  {
    "name": "Istanbul Kebab",
    "address": "Call Lane, Leeds, LS1 6DN",
    "latitude": "53.7965135",
    "longitude": "-1.5398982",
    "city": "Leeds",
    "country": "UK",
    "halalStatus": "options",
    "cuisine": "burger;pizza;kebab;turkish",
    "sourceUrl": "https://www.openstreetmap.org/node/333452822",
    "sourceQuote": "OpenStreetMap diet:halal=yes",
    "verifiedMethod": "web-source",
    "source": "osm-directory"
  },
  {
    "name": "Istanbul Kebab",
    "address": "",
    "latitude": "48.4300972",
    "longitude": "0.088288",
    "city": "",
    "country": "UK",
    "halalStatus": "options",
    "cuisine": "kebab",
    "sourceUrl": "https://www.openstreetmap.org/node/3273756528",
    "sourceQuote": "OpenStreetMap diet:halal=yes",
    "verifiedMethod": "web-source",
    "source": "osm-directory"
  },
  {
    "name": "itsu",
    "address": "Paternoster Row, London, EC4M 7EJ",
    "latitude": "51.5147687",
    "longitude": "-0.0978044",
    "city": "London",
    "country": "UK",
    "halalStatus": "options",
    "cuisine": "asian",
    "sourceUrl": "https://www.openstreetmap.org/node/4231921521",
    "sourceQuote": "OpenStreetMap diet:halal=no",
    "verifiedMethod": "web-source",
    "source": "osm-directory"
  },
  {
    "name": "Izgara Finchley",
    "address": "Hendon Lane, London, N3 1RT",
    "latitude": "51.5999385",
    "longitude": "-0.1958603",
    "city": "London",
    "country": "UK",
    "halalStatus": "options",
    "cuisine": "turkish;mediterranean;kebab;grill",
    "sourceUrl": "https://www.openstreetmap.org/node/10559429452",
    "sourceQuote": "OpenStreetMap diet:halal=yes",
    "verifiedMethod": "web-source",
    "source": "osm-directory"
  },
  {
    "name": "Jas Cafe&Grill",
    "address": "Coronation Square, Reading, RG30 3QN",
    "latitude": "51.4425437",
    "longitude": "-1.0104473",
    "city": "Reading",
    "country": "UK",
    "halalStatus": "options",
    "cuisine": "kebab",
    "sourceUrl": "https://www.openstreetmap.org/node/5606949427",
    "sourceQuote": "OpenStreetMap diet:halal=yes",
    "verifiedMethod": "web-source",
    "source": "osm-directory"
  },
  {
    "name": "Joe's",
    "address": "",
    "latitude": "52.6575771",
    "longitude": "-8.5937303",
    "city": "",
    "country": "UK",
    "halalStatus": "options",
    "cuisine": "fish_and_chips",
    "sourceUrl": "https://www.openstreetmap.org/node/5326331411",
    "sourceQuote": "OpenStreetMap diet:halal=no",
    "verifiedMethod": "web-source",
    "source": "osm-directory"
  },
  {
    "name": "Joufflu 1er",
    "address": "",
    "latitude": "49.182589",
    "longitude": "-0.3738889",
    "city": "",
    "country": "UK",
    "halalStatus": "options",
    "cuisine": "",
    "sourceUrl": "https://www.openstreetmap.org/node/3811636660",
    "sourceQuote": "OpenStreetMap diet:halal=no",
    "verifiedMethod": "web-source",
    "source": "osm-directory"
  },