{
  "US|1141 Brighton Beach Ave, USA": {
    "latitude": "40.5777565",
    "longitude": "-73.9554906",
    "address": "1141, Brighton Beach Avenue, Brooklyn, NY, 11235",
    "city": "Brooklyn, NY",
    "country": "USA"
  },
  "US|Halal Restaurants NYC, New York, USA": null,
  "US|Halal Restaurants NYC, USA": {
    "latitude": "37.5345676",
    "longitude": "-121.9651449",
    "address": "40645, Fremont Boulevard, Fremont, CA, 94538",
    "city": "Fremont, CA",
    "country": "USA"
  },
  "US|1762 Westchester Ave, The Bronx, NY 10472, USA, USA": {
    "latitude": "40.8312583",
    "longitude": "-73.8679191",
    "address": "1762, Westchester Avenue, New York, New York, 10472",
    "city": "New York, New York",
    "country": "USA"
  },
  "US|still draws crowds for its chicken and gyro platters, drizzled with their signature white sauce and a fiery red hot sauce that’s not for the, USA": null,
  "US|The Halal Times, New York, USA": null,
  "US|The Halal Times, USA": {
    "latitude": "34.7988256",
    "longitude": "-87.6778038",
    "address": "219, West Tennessee Street, Florence, AL, 35630",
    "city": "Florence, AL",
    "country": "USA"
  },
  "US|New York Street Food, New York, USA": {
    "latitude": "40.7292053",
    "longitude": "-73.9950148",
    "address": "Bleecker Street, New York, NY, 10012",
    "city": "New York, NY",
    "country": "USA"
  },
  "US|Home, New York, USA": {
    "latitude": "32.1988867",
    "longitude": "-110.8209401",
    "address": "Tucson, Arizona, 85710",
    "city": "Tucson, Arizona",
    "country": "USA"
  },
  "US|2 Zabiha Cafe in New York, NY, New York, USA": {
    "latitude": "40.7561938",
    "longitude": "-73.969411",
    "address": "217, East 51st Street, New York, New York, 10022",
    "city": "New York, New York",
    "country": "USA"
  },
  "US|Best Zabiha Restaurants in New York, New York, USA": null,
  "US|Best Zabiha Restaurants in New York, USA": null,
  "US|on West 53rd Street., USA": {
    "latitude": "47.2085921",
    "longitude": "-122.5361134",
    "address": "University Place, Washington, 98467",
    "city": "University Place, Washington",
    "country": "USA"
  },
  "US|you agree to our, USA": null,
  "US|Time Out New York, New York, USA": {
    "latitude": "40.7035986",
    "longitude": "-73.9918867",
    "address": "55, Water Street, Brooklyn, NY, 11201",
    "city": "Brooklyn, NY",
    "country": "USA"
  },
  "US|Manhattan Halal Restaurant, New York, USA": null,
  "US|Manhattan Halal Restaurant, USA": {
    "latitude": "37.5345676",
    "longitude": "-121.9651449",
    "address": "40645, Fremont Boulevard, Fremont, CA, 94538",
    "city": "Fremont, CA",
    "country": "USA"
  },
  "US|Mia Halal Food, New York, USA": {
    "latitude": "40.6851985",
    "longitude": "-73.9781047",
    "address": "Ashland Place, New York, New York, 11217",
    "city": "New York, New York",
    "country": "USA"
  },
  "US|you consent to receive offers and promotions from Zabiha Halal and Living Halal. You can unsubscribe at anytime. ©2022 Zabiha Halal, USA": null,
  "US|Zabiha Halal Restaurants, Phoenix, USA": null,
  "US|Zabiha Halal Restaurants, USA": {
    "latitude": "37.5345676",
    "longitude": "-121.9651449",
    "address": "40645, Fremont Boulevard, Fremont, CA, 94538",
    "city": "Fremont, CA",
    "country": "USA"
  },
  "US|About, Phoenix, USA": {
    "latitude": "33.6752647",
    "longitude": "-111.9798241",
    "address": "20910, North Tatum Boulevard, Phoenix, AZ, 85050-6105",
    "city": "Phoenix, AZ",
    "country": "USA"
  },
  "US|you consent to receive offers and …, USA": null,
  "US|Zabiha Halal Restaurants In, Phoenix, USA": null,
  "US|Zabiha Halal Restaurants In, USA": null,
  "US|Zabiha Restuarants, Phoenix, USA": {
    "latitude": "36.9611922",
    "longitude": "-122.0468005",
    "address": "2301, Mission Street, Santa Cruz, CA, 95061",
    "city": "Santa Cruz, CA",
    "country": "USA"
  },
  "US|CheckMyHalal, Phoenix, USA": {
    "latitude": "33.4484367",
    "longitude": "-112.074141",
    "address": "Arizona",
    "city": "Arizona",
    "country": "USA"
  },
  "US|Button -->, USA": {
    "latitude": "67.1728188",
    "longitude": "-151.7798997",
    "address": "Alaska",
    "city": "Alaska",
    "country": "USA"
  },
  "US||\\n\\nWalking into Khyber Halal Restaurant \\u0026 Catering, I was immediately captivated by the *delicious aromas* that filled the air. The d, USA": null,
  "US|Phoenix Wanderer, Phoenix, USA": {
    "latitude": "33.4484367",
    "longitude": "-112.074141",
    "address": "Arizona",
    "city": "Arizona",
    "country": "USA"
  },
  "US|updates for every halal spot in the city., USA": null,
  "US|Verified Halal Food in Phoenix, AZ, Phoenix, USA": {
    "latitude": "33.4957052",
    "longitude": "-112.1119098",
    "address": "2430, West Indian School Road, Phoenix, AZ, 85015",
    "city": "Phoenix, AZ",
    "country": "USA"
  },
  "US|1638N, 40th Street Phoenix, USA": {
    "latitude": "33.5103576",
    "longitude": "-111.9953175",
    "address": "Phoenix, Arizona, 85018",
    "city": "Phoenix, Arizona",
    "country": "USA"
  },
  "US|1638 N 40th St, Phoenix, AZ 85008\\n\\ud83c\\udf10 Order Online or Learn More: www.hilalgrill.com\\n\\nFrom aromatic curries to sizzling kebabs,, USA": null,
  "US|&#x1f525; HOT-FRESH- HALAL BBQ done RIGHT &#x2014; only at Hilal Grill, Phoenix! &#x1f357;, Phoenix, USA": null,
  "US|&#x1f525; HOT-FRESH- HALAL BBQ done RIGHT &#x2014; only at Hilal Grill, Phoenix! &#x1f357;, USA": null,
  "US|Phoenix, AZ, Phoenix, USA": {
    "latitude": "33.4484367",
    "longitude": "-112.074141",
    "address": "Arizona",
    "city": "Arizona",
    "country": "USA"
  },
  "US|has a dedicated halal butcher counter., USA": null,
  "US|Halal Food and Restaurants in Detroit, Detroit, USA": null,
  "US|Halal Food and Restaurants in Detroit, USA": null,
  "US|CheckMyHalal, Detroit, USA": {
    "latitude": "42.3641217",
    "longitude": "-83.0884919",
    "address": "2648, West Grand Boulevard, Detroit, MI, 48200",
    "city": "Detroit, MI",
    "country": "USA"
  },
  "US|6545 Orchard Lake Rd, West Bloomfield Township, MI 48322, USA, USA": null,
  "US|Prime29 Steakhouse, Detroit, USA": null,
  "US|Prime29 Steakhouse, USA": {
    "latitude": "42.542551",
    "longitude": "-83.3589297",
    "address": "West Maple Road, West Bloomfield Charter Township, Michigan, 48322",
    "city": "West Bloomfield Charter Township, Michigan",
    "country": "USA"
  },
  "US|211 W. Fort Street, Suite 1000, USA": {
    "latitude": "40.5799021",
    "longitude": "-105.0797096",
    "address": "211, West Myrtle Street, Fort Collins, CO, 80521",
    "city": "Fort Collins, CO",
    "country": "USA"
  },
  "US|Detroit, MI, Detroit, USA": {
    "latitude": "42.3641217",
    "longitude": "-83.0884919",
    "address": "2648, West Grand Boulevard, Detroit, MI, 48200",
    "city": "Detroit, MI",
    "country": "USA"
  },
  "US|Halal Food Junkie, Detroit, USA": null,
  "US|Halal Food Junkie, USA": {
    "latitude": "32.7490589",
    "longitude": "-117.0873612",
    "address": "50th Street, San Diego, California, 92105",
    "city": "San Diego, California",
    "country": "USA"
  },
  "US|on Greenfield & Rotunda\\n\\n#fyp #michigan #dough #bakery #frozen\"},\"__isNode\":\"Video\"}}],\"short_form_video_context\":{\"play_count_reduced\":\"3, USA": null,
  "US|9K views &#xb7; 16 reactions, Detroit, USA": null,
  "US|9K views &#xb7; 16 reactions, USA": null,
  "US|5.6K views &#xb7; 44 reactions, Detroit, USA": null,
  "US|5.6K views &#xb7; 44 reactions, USA": null,
  "ES|Mango Tree, Barcelona, Spain": {
    "latitude": "41.4224631",
    "longitude": "2.1945552",
    "address": "Carrer del Pont del Treball Digne, Barcelona, Catalunya, 08020",
    "city": "Barcelona, Catalunya",
    "country": "Spain"
  },
  "ES|*\" data-parsley-required=\"true\" data-parsley-minlength=\"6\" data-parsley-maxlength=\"150\" data-parsley-error-message=\"Please specify a valid e, Spain": null,
  "ES|Halal Girl About Town, Barcelona, Spain": null,
  "ES|Halal Girl About Town, Spain": null,
  "ES|Button -->, Spain": {
    "latitude": "42.7674398",
    "longitude": "-3.6515469",
    "address": "Los Altos, Castilla y León",
    "city": "Los Altos, Castilla y León",
    "country": "Spain"
  },
  "ES|\\u003C\\u002Fstrong> Carrer de Pau Claris, 70, 08010 Barcelona, Spain\\u003C\\u002Fp>\\u003Cp>\\u003Cstrong>Opening Hours\\u003C\\u002Fstrong>: Dai, Spain": null,
  "ES|HalalZilla, Barcelona, Spain": {
    "latitude": "41.3825802",
    "longitude": "2.177073",
    "address": "Catalunya",
    "city": "Catalunya",
    "country": "Spain"
  },
  "ES|AL BARAKA, Barcelona, Spain": {
    "latitude": "41.3904473",
    "longitude": "2.1605444",
    "address": "Carrer de València, Barcelona, Catalunya, 08011",
    "city": "Barcelona, Catalunya",
    "country": "Spain"
  },
  "ES|BY CROUSTY Barcelona, Barcelona, Spain": {
    "latitude": "41.3638447",
    "longitude": "2.1107719",
    "address": "6, Avinguda de Ventura Gassol, l'Hospitalet de Llobregat, Catalunya, 08901",
    "city": "l'Hospitalet de Llobregat, Catalunya",
    "country": "Spain"
  },
  "ES|Mutiar Mas, Valencia, Spain": {
    "latitude": "39.4881796",
    "longitude": "-0.4813204",
    "address": "Carretera del Aeropuerto, Manises, Comunitat Valenciana, 46940",
    "city": "Manises, Comunitat Valenciana",
    "country": "Spain"
  },
  "ES|before{content:\"\";flex-shrink:0;width:24px;height:24px;background-size:contain}.filters-panel .filters-section{width:100%}.filters-panel .fi, Spain": null,
  "ES|Restaurant Guru, Valencia, Spain": {
    "latitude": "39.1641635",
    "longitude": "-0.244928",
    "address": "Carrer del Cabanyal, Cullera, Comunitat Valenciana, 46400",
    "city": "Cullera, Comunitat Valenciana",
    "country": "Spain"
  },
  "ES|Halalfoodle, Valencia, Spain": {
    "latitude": "39.6819591",
    "longitude": "-0.7654406",
    "address": "",
    "city": "",
    "country": "Spain"
  },
  "ES|Sultan's Feast, Valencia, Spain": {
    "latitude": "39.7076339",
    "longitude": "-0.5163554",
    "address": "Olocau, Comunitat Valenciana, 46169",
    "city": "Olocau, Comunitat Valenciana",
    "country": "Spain"
  },
  "ES|KINGS CORNER &#x2022; Halal French Tacos Burger Kebab Valencia (@tacoskingscorner) &#x2022, Valencia, Spain": null,
  "ES|KINGS CORNER &#x2022; Halal French Tacos Burger Kebab Valencia (@tacoskingscorner) &#x2022, Spain": null,
  "PL|Button -->, Poland": {
    "latitude": "53.0313759",
    "longitude": "18.5881258",
    "address": "Szosa Chełmińska, Toruń, województwo kujawsko-pomorskie, 87-119",
    "city": "Toruń, województwo kujawsko-pomorskie",
    "country": "Poland"
  },
  "PL|to find nearby listings.\",\"nearby_listings_retrieving_location\":\"Retrieving location...\",\"nearby_listings_searching\":\"Searching for nearby l, Poland": null,
  "PL|IbnBattutaTravel.com, Warsaw, Poland": {
    "latitude": "52.2091426",
    "longitude": "21.009485",
    "address": "162, Aleja Niepodległości, Warszawa, województwo mazowieckie, 02-554",
    "city": "Warszawa, województwo mazowieckie",
    "country": "Poland"
  },
  "PL|Warsaw, Warsaw, Poland": {
    "latitude": "52.2333742",
    "longitude": "21.0711489",
    "address": "województwo mazowieckie",
    "city": "województwo mazowieckie",
    "country": "Poland"
  },
  "PL|and schedule, as the community has grown beyond the original Wiertnicza premises., Poland": null,
  "PL|Halal Food and Restaurants in Poland, Warsaw, Poland": {
    "latitude": "52.2074458",
    "longitude": "21.0006906",
    "address": "36, Rakowiecka, Warszawa, województwo mazowieckie, 02-532",
    "city": "Warszawa, województwo mazowieckie",
    "country": "Poland"
  },
  "PL|Krakow, Krakow, Poland": {
    "latitude": "50.0619474",
    "longitude": "19.9368564",
    "address": "województwo małopolskie",
    "city": "województwo małopolskie",
    "country": "Poland"
  },
  "PL|{\r\n        text-align: right;\r\n        position: absolute;\r\n        right: 35px;\r\n        color: #fff;\r\n        letter-spacing: 0.2px;, Poland": null,
  "PL|HalalTrip, Krakow, Poland": {
    "latitude": "50.0619474",
    "longitude": "19.9368564",
    "address": "województwo małopolskie",
    "city": "województwo małopolskie",
    "country": "Poland"
  },
  "PL|Halalfoodle, Krakow, Poland": {
    "latitude": "50.0619474",
    "longitude": "19.9368564",
    "address": "województwo małopolskie",
    "city": "województwo małopolskie",
    "country": "Poland"
  },
  "PL|before{content:\"\";flex-shrink:0;width:24px;height:24px;background-size:contain}.filters-panel .filters-section{width:100%}.filters-panel .fi, Poland": null,
  "PL|Restaurant Guru, Krakow, Poland": {
    "latitude": "50.0480536",
    "longitude": "19.9601376",
    "address": "15, Przemysłowa, Kraków, województwo małopolskie, 30-701",
    "city": "Kraków, województwo małopolskie",
    "country": "Poland"
  },
  "PL|Halal in Kraków, Krakow, Poland": {
    "latitude": "50.0604369",
    "longitude": "19.9236105",
    "address": "1, Aleja 3 Maja, Kraków, województwo małopolskie, 30-062",
    "city": "Kraków, województwo małopolskie",
    "country": "Poland"
  },
  "JP|FLIP Japan Guide, Tokyo, Japan": {
    "latitude": "35.709016",
    "longitude": "139.5801411",
    "address": "成蹊東門通り, 東京都, 180-0000",
    "city": "東京都",
    "country": "Japan"
  },
  "JP|Halal Food and Restaurants in Tokyo, Tokyo, Japan": {
    "latitude": "35.7057037",
    "longitude": "139.6484302",
    "address": "セントラルロード, 東京都, 166-0002",
    "city": "東京都",
    "country": "Japan"
  },
  "JP|access\\\",\\\"nearMeDescription\\\":\\\"Show halal spots within 5km\\\",\\\"forOwnersLink\\\":\\\"Are you a store owner?\\\",\\\"popularNowKicker\\\":\\\"Trending\\, Japan": null,
  "JP|Halal Food in Japan, Tokyo, Japan": {
    "latitude": "35.7057037",
    "longitude": "139.6484302",
    "address": "セントラルロード, 東京都, 166-0002",
    "city": "東京都",
    "country": "Japan"
  },
  "JP|Halal Food Options and Restaurants in Japan, Tokyo, Japan": null,
  "JP|Halal Food Options and Restaurants in Japan, Japan": null,
  "JP|\\u003c/b\\u003e Ayam-ya Halal Ramen Tokyo, Motoasakusa 3 Chome 10-3, Taito City, Tokyo\\u003c/p\\u003e\\u003cp data-block-key=\\\"ctv6o\\\"\\u003e\\u0, Japan": null,
  "JP|The Ultimate Guide to Halal Japanese Food in Tokyo, Tokyo, Japan": null,
  "JP|The Ultimate Guide to Halal Japanese Food in Tokyo, Japan": null,
  "JP|makes it convenient for tourists visiting the temple district., Japan": null,
  "JP|Halal Food and Restaurants in Japan, Tokyo, Japan": {
    "latitude": "35.7057037",
    "longitude": "139.6484302",
    "address": "セントラルロード, 東京都, 166-0002",
    "city": "東京都",
    "country": "Japan"
  },
  "JP|YiCgf5NH7mBP1pqUFD8f0w\":{\"__typename\":\"BusinessLocation\",\"encid\":\"YiCgf5NH7mBP1pqUFD8f0w\",&quot, Japan": null,
  "JP|The Best 10 Halal Restaurants near Tokyo Station Marunouchi, Chiyoda, 東京都, Tokyo, Japan": null,
  "JP|The Best 10 Halal Restaurants near Tokyo Station Marunouchi, Chiyoda, 東京都, Japan": null,
  "JP|Halal Food In Japan, Tokyo, Japan": {
    "latitude": "35.7057037",
    "longitude": "139.6484302",
    "address": "セントラルロード, 東京都, 166-0002",
    "city": "東京都",
    "country": "Japan"
  },
  "BR|BRAZIL Travel Tips &#x1f1e7;&#x1f1f7, Rio de Janeiro, Brazil": null,
  "BR|BRAZIL Travel Tips &#x1f1e7;&#x1f1f7, Brazil": null,
  "BR|Button -->, Brazil": {
    "latitude": "-27.019",
    "longitude": "-48.926",
    "address": "Brusque, Santa Catarina, 89112-880",
    "city": "Brusque, Santa Catarina",
    "country": "Brazil"
  },
  "BR|Halalfoodle, Rio de Janeiro, Brazil": {
    "latitude": "-22.9110137",
    "longitude": "-43.2093727",
    "address": "Rio de Janeiro",
    "city": "Rio de Janeiro",
    "country": "Brazil"
  },
  "RU|Button -->, Russia": {
    "latitude": "60.038657",
    "longitude": "30.3290934",
    "address": "8 к1, улица Есенина, Санкт-Петербург, Санкт-Петербург, 194354",
    "city": "Санкт-Петербург, Санкт-Петербург",
    "country": "Russia"
  },
  "RU|Halal Food and Restaurants in Russia, Moscow, Russia": null,
  "RU|Halal Food and Restaurants in Russia, Russia": {
    "latitude": "56.5134835",
    "longitude": "85.0314379",
    "address": "97, улица Ивана Черных, Томск, Томская область, 634062",
    "city": "Томск, Томская область",
    "country": "Russia"
  },
  "RU|with you. No need to force people to create an account in this app.Edit 2: Thanks for removing the login wall. Obviously, it makes sense to, Russia": null,
  "RU|App Store, Moscow, Russia": {
    "latitude": "55.8111398",
    "longitude": "37.8022957",
    "address": "Щёлковское шоссе (дублёр), Москва, Москва, 105215",
    "city": "Москва, Москва",
    "country": "Russia"
  },
  "RU|Moscow, Manezhnaya Square, Russia": {
    "latitude": "55.7506195",
    "longitude": "37.6115498",
    "address": "Москва, Москва, 119019",
    "city": "Москва, Москва",
    "country": "Russia"
  },
  "RU|Lva Tolstogo Street, 16, Russia": {
    "latitude": "54.1700593",
    "longitude": "45.9682515",
    "address": "16, улица Льва Толстого, Большие Березники, Мордовия, 431750",
    "city": "Большие Березники, Мордовия",
    "country": "Russia"
  },
  "RU|{\r\n        text-align: right;\r\n        position: absolute;\r\n        right: 35px;\r\n        color: #fff;\r\n        letter-spacing: 0.2px;, Russia": null,
  "RU|HalalTrip, Saint Petersburg, Russia": {
    "latitude": "59.9606739",
    "longitude": "30.1586551",
    "address": "",
    "city": "",
    "country": "Russia"
  },
  "RU|is impressive, which is great if you are coming with a big group of people., Russia": null,
  "RU|42, universe, Saint Petersburg, Russia": {
    "latitude": "59.9406782",
    "longitude": "30.2964999",
    "address": "Филологический переулок, Санкт-Петербург, Санкт-Петербург, 199034",
    "city": "Санкт-Петербург, Санкт-Петербург",
    "country": "Russia"
  },
  "RU|Saint Petersburg, Rubinshteyna Street, 4, Russia": {
    "latitude": "59.9321902",
    "longitude": "30.3464246",
    "address": "4, улица Рубинштейна, Санкт-Петербург, Санкт-Петербург, 190000",
    "city": "Санкт-Петербург, Санкт-Петербург",
    "country": "Russia"
  },
  "RU|Samiya M Ahmed, Saint Petersburg, Russia": null,
  "RU|Samiya M Ahmed, Russia": null,
  "RU|Tampa Halal Food, Saint Petersburg, Russia": null,
  "RU|Tampa Halal Food, Russia": {
    "latitude": "53.1850919",
    "longitude": "50.1028865",
    "address": "61, Садовая улица, Самара, Самарская область, 443028",
    "city": "Самара, Самарская область",
    "country": "Russia"
  },
  "RU|CheckMyHalal, Saint Petersburg, Russia": {
    "latitude": "59.9606739",
    "longitude": "30.1586551",
    "address": "",
    "city": "",
    "country": "Russia"
  },
  "RU|of Salem's Fresh Eats\" loading=\"lazy\" width=\"600\" height=\"400\" decoding=\"async\" data-nimg=\"1\" class=\"w-full h-full object-cover\" style=, Russia": null,
  "RU|Best Halal Restaurants in St. Petersburg, Saint Petersburg, Russia": null,
  "RU|Best Halal Restaurants in St. Petersburg, Russia": null,
  "UA|Button -->, Ukraine": {
    "latitude": "48.9209869",
    "longitude": "24.7131839",
    "address": "вулиця Леся Курбаса, Івано-Франківськ, Івано-Франківська область, 76010",
    "city": "Івано-Франківськ, Івано-Франківська область",
    "country": "Ukraine"
  },
  "UA|to find nearby listings.\",\"nearby_listings_retrieving_location\":\"Retrieving location...\",\"nearby_listings_searching\":\"Searching for nearby l, Ukraine": null,
  "UA|IbnBattutaTravel.com, Kyiv, Ukraine": {
    "latitude": "50.4279373",
    "longitude": "30.5409808",
    "address": "1, площа Лесі Українки, Київ, 01196",
    "city": "Київ",
    "country": "Ukraine"
  },
  "UA|Halalfoodle, Kyiv, Ukraine": {
    "latitude": "50.4500336",
    "longitude": "30.5241361",
    "address": "",
    "city": "",
    "country": "Ukraine"
  },
  "UA|Spinzer Restaurant, Kyiv, Ukraine": {
    "latitude": "50.500493",
    "longitude": "30.5005745",
    "address": "вулиця Героїв полку «Азов», Київ, 04205",
    "city": "Київ",
    "country": "Ukraine"
  },
  "UA|Halal Food in Ukraine 2026, Kyiv, Ukraine": {
    "latitude": "50.3959726",
    "longitude": "30.5007416",
    "address": "Васильківська вулиця, Київ, 03040",
    "city": "Київ",
    "country": "Ukraine"
  },
  "US|1221 6th Avenue, USA": {
    "latitude": "33.40411",
    "longitude": "-111.8046",
    "address": "1221, East 6th Avenue, Mesa, AZ, 85204",
    "city": "Mesa, AZ",
    "country": "USA"
  },
  "US|\\\\n\"}],\"B\":[{\"A?\":\"A\",\"A\":{\"color\":{\"B\":\"#ffffff\"},\"font-family\":{\"B\":\"YACgEeV8bIQ,0\"},\"font-size\":{\"B\":\"42.6667\"},\"text-align\":{\"B\":\"center, USA": null,
  "US|Z Halal Grill, New York, USA": null,
  "US|Z Halal Grill, USA": null,
  "US|232 7th Avenue, USA": {
    "latitude": "37.7841588",
    "longitude": "-122.46539",
    "address": "232, 7th Avenue, San Francisco, California, 94118",
    "city": "San Francisco, California",
    "country": "USA"
  },
  "US|Future Poultry Market, New York, USA": null,
  "US|Future Poultry Market, USA": {
    "latitude": "38.8865291",
    "longitude": "-76.9963988",
    "address": "225, 7th Street Southeast, Washington, DC, 20003",
    "city": "Washington, DC",
    "country": "USA"
  },
  "US|MOE EATS NYC, New York, USA": {
    "latitude": "40.7384453",
    "longitude": "-73.9786905",
    "address": "328, East 25th Street, New York, New York, 10010",
    "city": "New York, New York",
    "country": "USA"
  },
  "US|near hospital and school adds to its convenient access.\"}},{\"@type\":\"ListItem\",\"position\":19,\"item\":{\"@type\":\"LocalBusiness\",\"@id\":\"https://, USA": null,
  "US|Slaps Deli, New York, USA": {
    "latitude": "40.777439",
    "longitude": "-73.916989",
    "address": "24-05, 23rd Avenue, New York, New York, 11105",
    "city": "New York, New York",
    "country": "USA"
  },
  "US|makes it a pleasant surprise for those who find it., USA": null,
  "US|Old Sport Food, New York, USA": {
    "latitude": "40.7241516",
    "longitude": "-73.8554007",
    "address": "67-03, Austin Street, Flushing, NY, 11375",
    "city": "Flushing, NY",
    "country": "USA"
  },
  "US|MeatUp Mediterranean Restaurant, New York, USA": null,
  "US|MeatUp Mediterranean Restaurant, USA": {
    "latitude": "64.8350061",
    "longitude": "-147.7182256",
    "address": "1452, South Cushman Street, Fairbanks, Alaska, 99701",
    "city": "Fairbanks, Alaska",
    "country": "USA"
  },
  "US|Red Chilli, New York, USA": {
    "latitude": "40.6985761",
    "longitude": "-73.9175131",
    "address": "Knickerbocker Avenue, New York, New York, 11207",
    "city": "New York, New York",
    "country": "USA"
  },
  "US|Omega Deli & Cafe, New York, USA": null,
  "US|Omega Deli & Cafe, USA": {
    "latitude": "28.4340211",
    "longitude": "-81.4526984",
    "address": "Universal Boulevard, Tangelo Park, Florida, 32819",
    "city": "Tangelo Park, Florida",
    "country": "USA"
  },
  "US|is not halal., USA": {
    "latitude": "37.369729",
    "longitude": "-121.9289472",
    "address": "2075, Airport Boulevard, San Jose, CA, 95110",
    "city": "San Jose, CA",
    "country": "USA"
  },
  "US|Top 10 halal deli spots to Enjoy in New York City, New York, USA": null,
  "US|Top 10 halal deli spots to Enjoy in New York City, USA": null,
  "US|1320 Second Street, STE B, Santa Monica, California 90401, United States, USA": {
    "latitude": "34.0209784",
    "longitude": "-118.49177",
    "address": "1320, 9th Street, Santa Monica, California, 90401",
    "city": "Santa Monica, California",
    "country": "USA"
  },
  "US|11787 Lantern Road #201, USA": null,
  "US|Tasting Table, Los Angeles, USA": {
    "latitude": "34.0541004",
    "longitude": "-118.4652739",
    "address": "11677, West San Vicente Boulevard, Los Angeles, California, 90049",
    "city": "Los Angeles, California",
    "country": "USA"
  },
  "US|in Hollywood in 1984. The chain uses halal chicken at all locations. Their signature garlic sauce and rotisserie chicken have made Zankou on, USA": null,
  "US|Halal Food and Restaurants in Los Angeles, Los Angeles, USA": {
    "latitude": "34.2014938",
    "longitude": "-118.4834259",
    "address": "16063, Sherman Way, Los Angeles, CA, 91406",
    "city": "Los Angeles, CA",
    "country": "USA"
  },
  "US|22 Zabiha Eat & Drink in Los Angeles, CA, Los Angeles, USA": {
    "latitude": "33.8246452",
    "longitude": "-118.2758438",
    "address": "111, East 223rd Street, Carson, CA, 90745",
    "city": "Carson, CA",
    "country": "USA"
  },
  "US|5060 Lankershim Blvd, USA": {
    "latitude": "34.2267373",
    "longitude": "-118.3877059",
    "address": "Lankershim Boulevard, Los Angeles, California, 91352",
    "city": "Los Angeles, California",
    "country": "USA"
  },
  "US|HalalWorthy, Los Angeles, USA": {
    "latitude": "34.0536909",
    "longitude": "-118.242766",
    "address": "California",
    "city": "California",
    "country": "USA"
  },
  "US|132 North Robertson Blvd., Los Angeles, CA 90211, USA": {
    "latitude": "34.0722311",
    "longitude": "-118.3837882",
    "address": "Los Angeles, California, 90211",
    "city": "Los Angeles, California",
    "country": "USA"
  },
  "US|on Hollywood Blvd., USA": {
    "latitude": "34.101497",
    "longitude": "-118.329821",
    "address": "Hollywood Boulevard, Los Angeles, California, 90028",
    "city": "Los Angeles, California",
    "country": "USA"
  },
  "US|Bakery LA, Los Angeles, USA": {
    "latitude": "34.0536909",
    "longitude": "-118.242766",
    "address": "California",
    "city": "California",
    "country": "USA"
  },
  "US|Grab&Go Kabob \\, Los Angeles, USA": {
    "latitude": "33.9406519",
    "longitude": "-118.4045693",
    "address": "World Way, Los Angeles, California, 90009",
    "city": "Los Angeles, California",
    "country": "USA"
  },
  "US|BROT Berliner Doner Haus, Los Angeles, USA": {
    "latitude": "33.7677663",
    "longitude": "-118.1724448",
    "address": "1532, East Broadway, Long Beach, CA, 90802",
    "city": "Long Beach, CA",
    "country": "USA"
  },
  "US|Killer Kabab, Los Angeles, USA": {
    "latitude": "34.0402804",
    "longitude": "-118.442901",
    "address": "2030, Sawtelle Boulevard, Los Angeles, CA, 90025",
    "city": "Los Angeles, CA",
    "country": "USA"
  },
  "US|Desi Halal Thai & Peri Peri, Los Angeles, USA": null,
  "US|Desi Halal Thai & Peri Peri, USA": null,
  "US|Oliver Pepper, Los Angeles, USA": {
    "latitude": "34.1709095",
    "longitude": "-118.5700866",
    "address": "20042, Ventura Boulevard, Woodland Hills, CA, 91364",
    "city": "Woodland Hills, CA",
    "country": "USA"
  },
  "US|has served this dish for over two decades. Their halal goat karahi and brain masala are also popular among South Asian diners., USA": null,
  "US|Halal Food and Restaurants in Chicago, Chicago, USA": null,
  "US|Halal Food and Restaurants in Chicago, USA": null,
  "US|2245 West Devon Avenue, Chicago, IL 60659, USA": {
    "latitude": "41.9970806",
    "longitude": "-87.7084391",
    "address": "3135, West Devon Avenue, Chicago, IL, 60659",
    "city": "Chicago, IL",
    "country": "USA"
  },
  "US|will not be published., USA": {
    "latitude": "30.6681104",
    "longitude": "-97.6567511",
    "address": "2500, Northeast Inner Loop, Georgetown, TX, 78626",
    "city": "Georgetown, TX",
    "country": "USA"
  },
  "US|Kings Halal Kitchen, Chicago, USA": null,
  "US|Kings Halal Kitchen, USA": {
    "latitude": "40.6832996",
    "longitude": "-73.9793255",
    "address": "50, 4th Avenue, Brooklyn, New York, 11217",
    "city": "Brooklyn, New York",
    "country": "USA"
  },
  "US|4661 N Kedzie Ave Ste 1, Chicago, IL 60625-4679, USA": null,
  "US|Noon O Kabab, Chicago, USA": {
    "latitude": "41.9669895",
    "longitude": "-87.7081576",
    "address": "4701, North Kedzie Avenue, Chicago, IL, 60625",
    "city": "Chicago, IL",
    "country": "USA"
  },
  "US|Chicago Halal Restaurant Reviews, Chicago, USA": null,
  "US|Chicago Halal Restaurant Reviews, USA": null,
  "US|Chicago, IL, Chicago, USA": {
    "latitude": "41.6915631",
    "longitude": "-87.5342827",
    "address": "3657, East 112th Street, Chicago, IL, 60617",
    "city": "Chicago, IL",
    "country": "USA"
  },
  "US|itself is easy to find and a favorite among the Chicago foodie community, often tagged with #chicagofoodie and #chicagoeats. The restaurant’, USA": null,
  "US|Lemon8, Chicago, USA": {
    "latitude": "41.6915631",
    "longitude": "-87.5342827",
    "address": "3657, East 112th Street, Chicago, IL, 60617",
    "city": "Chicago, IL",
    "country": "USA"
  },
  "US|from 4 PM to 10 PM., USA": null,
  "US|Migos Fine Foods, Chicago, USA": {
    "latitude": "41.9607584",
    "longitude": "-87.7541882",
    "address": "5044, West Montrose Avenue, Chicago, IL, 60641-1526",
    "city": "Chicago, IL",
    "country": "USA"
  },
  "US|6456 W Belmont Ave, USA": {
    "latitude": "41.9385073",
    "longitude": "-87.7883166",
    "address": "6456, West Belmont Avenue, Jefferson Township, Illinois, 60634",
    "city": "Jefferson Township, Illinois",
    "country": "USA"
  },
  "US|100 N LaSalle St, USA": {
    "latitude": "40.750632",
    "longitude": "-73.9687884",
    "address": "799, 1st Avenue, New York, NY, 10017",
    "city": "New York, NY",
    "country": "USA"
  },
  "US|7310 Barrington Rd, USA": {
    "latitude": "33.5440481",
    "longitude": "-112.1520202",
    "address": "7310, North 43rd Drive, Glendale, AZ, 85301",
    "city": "Glendale, AZ",
    "country": "USA"
  },
  "US|5431 N East River Rd, USA": {
    "latitude": "41.4656685",
    "longitude": "-72.3166271",
    "address": "East Haddam, Connecticut, 06423",
    "city": "East Haddam, Connecticut",
    "country": "USA"
  },
  "US|4031 FM 1463 #50, Katy, TX 77494, USA, USA": null,
  "US|Chuckwagon BBQ & Burgers, Houston, USA": null,
  "US|Chuckwagon BBQ & Burgers, USA": {
    "latitude": "29.7323006",
    "longitude": "-95.8456797",
    "address": "FM 1463, Texas, 77494",
    "city": "Texas",
    "country": "USA"
  },
  "US|5740 San Felipe St, USA": {
    "latitude": "29.7505323",
    "longitude": "-95.4793211",
    "address": "5740, San Felipe Street, Houston, Texas, 77057",
    "city": "Houston, Texas",
    "country": "USA"
  },
  "US|Houston Hits, Houston, USA": {
    "latitude": "32.4659752",
    "longitude": "-83.631394",
    "address": "Georgia",
    "city": "Georgia",
    "country": "USA"
  },
  "US|Halal Food and Restaurants in Houston, Houston, USA": null,
  "US|Halal Food and Restaurants in Houston, USA": null,
  "US|11842 Wilcrest Dr, USA": {
    "latitude": "29.6491714",
    "longitude": "-95.567545",
    "address": "11842, Wilcrest Drive, Houston, TX, 77031",
    "city": "Houston, TX",
    "country": "USA"
  },
  "US|Line 1\",\"identifier\":\"Line1\",\"length\":0,\"required\":true,\"metadata\":{\"autocomplete\":\"address-line1\"}},{\"type\":\"SEPARATOR\",\"label\":\"\\n\",\"ident, USA": null,
  "US|Imtiaz Halal, Houston, USA": null,
  "US|Imtiaz Halal, USA": {
    "latitude": "32.6199212",
    "longitude": "-85.480276",
    "address": "Auburn, Alabama, 36830",
    "city": "Auburn, Alabama",
    "country": "USA"
  },
  "US|10941 Farm to Market 1960, USA": null,
  "US|Bundu Khan Kabab House, Houston, USA": null,
  "US|Bundu Khan Kabab House, USA": null,
  "US|1880 S Dairy Ashford Rd Suite 207, USA": {
    "latitude": "29.7534339",
    "longitude": "-95.6100337",
    "address": "1880 S, Dairy Ashford Rd Suite 207, Houston, Texas, 77077",
    "city": "Houston, Texas",
    "country": "USA"
  },
  "US|2925 Richmond Ave. Suite 160, Houston, TX 77098, USA": null,
  "US|Kiran's, Houston, USA": {
    "latitude": "29.7536089",
    "longitude": "-95.3596509",
    "address": "Houston, Texas",
    "city": "Houston, Texas",
    "country": "USA"
  },
  "US|3821 Farnham St, USA": {
    "latitude": "29.7322384",
    "longitude": "-95.4120309",
    "address": "3821, Farnham Street, Houston, TX, 77098",
    "city": "Houston, TX",
    "country": "USA"
  },
  "US|11700 Westheimer Rd Suite H, USA": null,
  "US|The Halal Guys, Houston, USA": {
    "latitude": "29.7098205",
    "longitude": "-95.4019776",
    "address": "6609, Main Street, Houston, TX, 77030",
    "city": "Houston, TX",
    "country": "USA"
  },
  "US|Houston Halal Restaurant Reviews, Houston, USA": null,
  "US|Houston Halal Restaurant Reviews, USA": null,
  "US|Zain's Halal Reviews, Houston, USA": null,
  "US|Zain's Halal Reviews, USA": null,
  "US|Halal Food Texas, Houston, USA": null,
  "US|Halal Food Texas, USA": {
    "latitude": "30.3670053",
    "longitude": "-97.6967651",
    "address": "822, Rutland Drive, Austin, Texas, 78758",
    "city": "Austin, Texas",
    "country": "USA"
  },
  "US|CheckMyHalal, Houston, USA": {
    "latitude": "29.7536089",
    "longitude": "-95.3596509",
    "address": "Houston, Texas",
    "city": "Houston, Texas",
    "country": "USA"
  },
  "US|912 Westheimer Rd, USA": {
    "latitude": "32.698107",
    "longitude": "-85.1612244",
    "address": "Alabama, 36854",
    "city": "Alabama",
    "country": "USA"
  },
  "US|HTownBest, Houston, USA": {
    "latitude": "29.7536089",
    "longitude": "-95.3596509",
    "address": "Houston, Texas",
    "city": "Houston, Texas",
    "country": "USA"
  },
  "US|has outdoor seating only., USA": {
    "latitude": "34.3375687",
    "longitude": "-82.9162517",
    "address": "Elberton Highway, Hartwell, Georgia, 30643",
    "city": "Hartwell, Georgia",
    "country": "USA"
  },
  "US|near a gas station slightly affects the setting but food quality stands out.\"}},{\"@type\":\"ListItem\",\"position\":30,\"item\":{\"@type\":\"LocalBusi, USA": null,
  "US|Hot Grill, Houston, USA": {
    "latitude": "33.4216531",
    "longitude": "-111.9252184",
    "address": "927, East University Drive, Tempe, AZ, 85281",
    "city": "Tempe, AZ",
    "country": "USA"
  },
  "US|Shawarma & Kebab Fresh, Houston, USA": null,
  "US|Shawarma & Kebab Fresh, USA": {
    "latitude": "37.7893808",
    "longitude": "-122.420327",
    "address": "1338, Polk Street, San Francisco, California, 94164",
    "city": "San Francisco, California",
    "country": "USA"
  },
  "US|and nice service., USA": {
    "latitude": "38.8948665",
    "longitude": "-77.0423144",
    "address": "1849, C Street Northwest, Washington, DC, 20240",
    "city": "Washington, DC",
    "country": "USA"
  },
  "US|Ramadan Halal Meat Market, Houston, USA": null,
  "US|Ramadan Halal Meat Market, USA": {
    "latitude": "33.4661927",
    "longitude": "-111.9723751",
    "address": "5056, East McDowell Road, Phoenix, AZ, 85008",
    "city": "Phoenix, AZ",
    "country": "USA"
  },
  "US|Saraya Resturant, Houston, USA": {
    "latitude": "61.647031",
    "longitude": "-149.878124",
    "address": "George Parks Highway, Houston, Alaska",
    "city": "Houston, Alaska",
    "country": "USA"
  },
  "US|does not have an enclosed dining room., USA": null,
  "US|Dave's Hot Chicken, Houston, USA": {
    "latitude": "29.7358177",
    "longitude": "-95.5949978",
    "address": "Westheimer Road, Houston, Texas, 77082",
    "city": "Houston, Texas",
    "country": "USA"
  },
  "US|that sees few customers. Pizza quality varies widely, from fresh and well-baked to greasy and flavorless.\"}}]}, USA": null,
  "US|Cheesy Bite #3, Houston, USA": null,
  "US|Cheesy Bite #3, USA": {
    "latitude": "33.9812176",
    "longitude": "-118.4418014",
    "address": "Marvin Braude Coastal Bike Trail, Marina del Rey, California, 90292",
    "city": "Marina del Rey, California",
    "country": "USA"
  },
  "US|Bodacious Wings, Houston, USA": {
    "latitude": "29.8280699",
    "longitude": "-95.3782495",
    "address": "54C, East Crosstimbers Street, Houston, TX, 77022",
    "city": "Houston, TX",
    "country": "USA"
  },
  "US|2210 Texas Pkwy, USA": {
    "latitude": "38.273783",
    "longitude": "-122.0339925",
    "address": "North Texas Street, Fairfield, California, 94533",
    "city": "Fairfield, California",
    "country": "USA"
  },
  "US|943 Columbus Ave, San Francisco, CA 94133, USA": {
    "latitude": "37.7975644",
    "longitude": "-122.4064654",
    "address": "259, Columbus Avenue, San Francisco, CA, 94133",
    "city": "San Francisco, CA",
    "country": "USA"
  },
  "US|CheckMyHalal, San Francisco, USA": {
    "latitude": "37.7879363",
    "longitude": "-122.4075201",
    "address": "California",
    "city": "California",
    "country": "USA"
  },
  "US|Halal Food and Restaurants in San Francisco, San Francisco, USA": {
    "latitude": "37.783536",
    "longitude": "-122.40931",
    "address": "25, Mason Street, San Francisco, California, 94107",
    "city": "San Francisco, California",
    "country": "USA"
  },
  "US|of Yemeni kabab & Mediterranean\" loading=\"lazy\" width=\"600\" height=\"400\" decoding=\"async\" data-nimg=\"1\" class=\"w-full h-full object-cove, USA": null,
  "US|Best Halal Restaurants in San Francisco, San Francisco, USA": {
    "latitude": "37.6329093",
    "longitude": "-122.4902339",
    "address": "2160, Francisco Boulevard, Pacifica, CA, 94044",
    "city": "Pacifica, CA",
    "country": "USA"
  },
  "US|San Francisco, CA, San Francisco, USA": {
    "latitude": "37.8097487",
    "longitude": "-122.4104493",
    "address": "Pier 39, San Francisco, California, 94133",
    "city": "San Francisco, California",
    "country": "USA"
  },
  "US|24 Zabiha Eat & Drink in San Francisco, CA, San Francisco, USA": null,
  "US|24 Zabiha Eat & Drink in San Francisco, CA, USA": null,
  "US|Karahi House, San Francisco, USA": {
    "latitude": "37.7897985",
    "longitude": "-122.4207014",
    "address": "1409, Polk Street, San Francisco, CA, 94164",
    "city": "San Francisco, CA",
    "country": "USA"
  },
  "US|CurryLeaf, San Francisco, USA": {
    "latitude": "37.7879363",
    "longitude": "-122.4075201",
    "address": "California",
    "city": "California",
    "country": "USA"
  },
  "US|600 Stockton Street, San Francisco, CA 94108, USA": {
    "latitude": "37.7929003",
    "longitude": "-122.4076776",
    "address": "San Francisco, California, 94108",
    "city": "San Francisco, California",
    "country": "USA"
  },
  "US|315 5th St 315 5th Street, USA": {
    "latitude": "32.6545801",
    "longitude": "-85.3794552",
    "address": "315, North 5th Street, Opelika, AL, 36801",
    "city": "Opelika, AL",
    "country": "USA"
  },
  "US|336 O'Farrell Street, USA": {
    "latitude": "37.7862637",
    "longitude": "-122.4104324",
    "address": "336, O'Farrell Street, San Francisco, California, 94107",
    "city": "San Francisco, California",
    "country": "USA"
  },
  "US|845 Market St San Francisco Centre, Space 4, USA": {
    "latitude": "37.7770557",
    "longitude": "-122.4108319",
    "address": "1158, Howard Street, San Francisco, CA, 94103",
    "city": "San Francisco, CA",
    "country": "USA"
  },
  "US|470 Green St, USA": {
    "latitude": "34.6163079",
    "longitude": "-118.4034763",
    "address": "California",
    "city": "California",
    "country": "USA"
  },
  "US|Mashallah Halal Pakistani Food Restaurant, San Francisco, USA": null,
  "US|Mashallah Halal Pakistani Food Restaurant, USA": null,
  "US|Bay Area Halal Foodies, San Francisco, USA": {
    "latitude": "37.7884969",
    "longitude": "-122.3558473",
    "address": "San Francisco, California, 94110",
    "city": "San Francisco, California",
    "country": "USA"
  },
  "US|a:hover,\n.chosen-container .chosen-results li.highlighted,\n.input-with-icon.location a i:hover,\n.sort-by .chosen-container-single .chosen-si, USA": null,
  "US|Contact, San Francisco, USA": {
    "latitude": "37.7879363",
    "longitude": "-122.4075201",
    "address": "California",
    "city": "California",
    "country": "USA"
  },
  "US|is opening soon so check out the, USA": null,
  "US|Medium, San Francisco, USA": {
    "latitude": "37.7879363",
    "longitude": "-122.4075201",
    "address": "California",
    "city": "California",
    "country": "USA"
  },
  "US|Sofiya Restaurant, San Francisco, USA": {
    "latitude": "37.7881036",
    "longitude": "-122.4183697",
    "address": "1098, Sutter Street, San Francisco, California, 94109",
    "city": "San Francisco, California",
    "country": "USA"
  },
  "US|60 Morris St, USA": {
    "latitude": "33.7481642",
    "longitude": "-86.8090507",
    "address": "601, Morris Majestic Road, Morris, AL, 35116",
    "city": "Morris, AL",
    "country": "USA"
  },
  "US|604 Geary St, USA": {
    "latitude": "37.7803263",
    "longitude": "-122.4754415",
    "address": "5211, Geary Boulevard, San Francisco, California, 94121",
    "city": "San Francisco, California",
    "country": "USA"
  },
  "US|455 Market St, USA": {
    "latitude": "40.2244769",
    "longitude": "-105.271293",
    "address": "455, Main Street, Lyons, CO, 80540",
    "city": "Lyons, CO",
    "country": "USA"
  },
  "US|Bank of California Building, USA": {
    "latitude": "47.6040219",
    "longitude": "-122.3345578",
    "address": "2nd Avenue, Seattle, Washington, 98174",
    "city": "Seattle, Washington",
    "country": "USA"
  },
  "US|22 6th St, USA": null,
  "US|Atly, San Francisco, USA": {
    "latitude": "37.7879363",
    "longitude": "-122.4075201",
    "address": "California",
    "city": "California",
    "country": "USA"
  },
  "US|1042 Polk St, USA": {
    "latitude": "32.7671766",
    "longitude": "-89.1348501",
    "address": "1042, West Beacon Street, Philadelphia, MS, 39350",
    "city": "Philadelphia, MS",
    "country": "USA"
  },
  "US|601 Mission Bay Blvd North, USA": {
    "latitude": "37.7707171",
    "longitude": "-122.3915905",
    "address": "601, Mission Bay Boulevard North, San Francisco, CA, 94158",
    "city": "San Francisco, CA",
    "country": "USA"
  },
  "US|CheckMyHalal, Dallas, USA": {
    "latitude": "32.7748049",
    "longitude": "-96.8608113",
    "address": "Dallas, Texas",
    "city": "Dallas, Texas",
    "country": "USA"
  },
  "US|Dallas Nav, Dallas, USA": {
    "latitude": "32.7748049",
    "longitude": "-96.8608113",
    "address": "Dallas, Texas",
    "city": "Dallas, Texas",
    "country": "USA"
  },
  "US|of Ariana Cuisine\" loading=\"lazy\" width=\"600\" height=\"400\" decoding=\"async\" data-nimg=\"1\" class=\"w-full h-full object-cover\" style=\"color:tr, USA": null,
  "US|Best Halal Restaurants in Dallas, Dallas, USA": null,
  "US|Best Halal Restaurants in Dallas, USA": null,
  "US|in Carrollton, stocks some halal-certified products in its international food section. It is primarily a Korean grocery store and not a hala, USA": null,
  "US|Halal Food and Restaurants in Dallas, Dallas, USA": null,
  "US|Halal Food and Restaurants in Dallas, USA": null,
  "US|Royal Darbar, Dallas, USA": {
    "latitude": "32.4272981",
    "longitude": "-87.0297031",
    "address": "Selma, Alabama, 36701",
    "city": "Selma, Alabama",
    "country": "USA"
  },
  "US|61 Zabiha Restaurants in Dallas, TX, Dallas, USA": null,
  "US|61 Zabiha Restaurants in Dallas, TX, USA": null,
  "US|1223 W McDermott Dr #85, Allen, TX 75013, USA, USA": null,
  "US|Silver Spoon, Dallas, USA": {
    "latitude": "37.3692599",
    "longitude": "-122.0407791",
    "address": "620, Hollenbeck Avenue, Sunnyvale, CA, 94087",
    "city": "Sunnyvale, CA",
    "country": "USA"
  },
  "US|Strada Barbu Vacarescu 56 Sector 2, Bucharest 020271 Romania, USA": null,
  "US|Beyti Restaurant, Dallas, USA": {
    "latitude": "33.9331139",
    "longitude": "-84.7275381",
    "address": "3918, Charles Hardy Parkway, Dallas, GA, 30157",
    "city": "Dallas, GA",
    "country": "USA"
  },
  "US|1811 Greenville Ave Suite 145, USA": null,
  "US|The Halal Guys, Dallas, USA": {
    "latitude": "32.828011",
    "longitude": "-96.8236566",
    "address": "5444, Lemmon Avenue, Dallas, Texas, 75209",
    "city": "Dallas, Texas",
    "country": "USA"
  },
  "US|Halal Foodistan &#x1f37d;&#xfe0f, Dallas, USA": null,
  "US|Halal Foodistan &#x1f37d;&#xfe0f, USA": null,
  "US|is one of the, USA": null,
  "US|The Pass and Provisions, Dallas, USA": null,
  "US|The Pass and Provisions, USA": {
    "latitude": "32.0529622",
    "longitude": "-81.1025264",
    "address": "9, West 43rd Street, Savannah, GA, 31401",
    "city": "Savannah, GA",
    "country": "USA"
  },
  "US|& Contact, USA": {
    "latitude": "58.5638622",
    "longitude": "-136.5583665",
    "address": "Alaska",
    "city": "Alaska",
    "country": "USA"
  },
  "US|3711 GREENVILLE AVE. DALLAS, TX., USA": {
    "latitude": "32.8320888",
    "longitude": "-96.7705101",
    "address": "3711, Greenville Avenue, Dallas, Texas, 75206",
    "city": "Dallas, Texas",
    "country": "USA"
  },
  "US|Juicy Joint, Dallas, USA": {
    "latitude": "37.8059857",
    "longitude": "-122.2716",
    "address": "San Pablo Avenue, Oakland, California, 94612",
    "city": "Oakland, California",
    "country": "USA"
  },
  "US|Ariana Cuisine, Dallas, USA": null,
  "US|Ariana Cuisine, USA": {
    "latitude": "39.8511192",
    "longitude": "-74.9813831",
    "address": "700, Haddonfield-Berlin Road, Voorhees, NJ, 08043",
    "city": "Voorhees, NJ",
    "country": "USA"
  },
  "US|11641 Harry Hines Blvd #201, USA": null,
  "US|Lyari Cafe Finest Pakistani/Indian Halal Cuisine, Dallas, USA": null,
  "US|Lyari Cafe Finest Pakistani/Indian Halal Cuisine, USA": null,
  "US|11361 McCree Rd #160, USA": null,
  "US|La Roma Halal Pizzeria, Dallas, USA": null,
  "US|La Roma Halal Pizzeria, USA": null,
  "US|7100 Wildcat Way, USA": {
    "latitude": "34.1181139",
    "longitude": "-109.8864808",
    "address": "Pinetop Country Club, Arizona, 85935",
    "city": "Pinetop Country Club, Arizona",
    "country": "USA"
  },
  "US|feels safe and peaceful despite nearby highway and many dining options. Breakfast offers good quality and a better variety than most hotels., USA": null,
  "US|Jonathon's Forestwood, Dallas, USA": {
    "latitude": "32.9104093",
    "longitude": "-96.8157505",
    "address": "5337, Forest Lane, Dallas, Texas, 75230",
    "city": "Dallas, Texas",
    "country": "USA"
  },
  "US|Halal Food and Restaurants in Miami, Miami, USA": null,
  "US|Halal Food and Restaurants in Miami, USA": null,
  "US|of ICON Mediterranean\" loading=\"lazy\" width=\"600\" height=\"400\" decoding=\"async\" data-nimg=\"1\" class=\"w-full h-full object-cover\" style=\"colo, USA": null,
  "US|Best Halal Restaurants in Miami, Miami, USA": {
    "latitude": "25.7712736",
    "longitude": "-80.2628258",
    "address": "4100, West Flagler Street, Miami, FL, 33134",
    "city": "Miami, FL",
    "country": "USA"
  },
  "US|Miami, FL, Miami, USA": {
    "latitude": "25.7708333",
    "longitude": "-80.2938889",
    "address": "5995, West Flagler Street, Miami, FL, 33144",
    "city": "Miami, FL",
    "country": "USA"
  },
  "US|CheckMyHalal, Miami, USA": {
    "latitude": "25.7741566",
    "longitude": "-80.1935973",
    "address": "Florida",
    "city": "Florida",
    "country": "USA"
  },
  "US|8281 W Sunrise Blvd, Plantation, FL 33322, USA, USA": {
    "latitude": "26.1466253",
    "longitude": "-80.2684615",
    "address": "Plantation, Florida, 33322",
    "city": "Plantation, Florida",
    "country": "USA"
  },
  "US|9519 S Dixie Hwy, Miami, FL 33156, USA": {
    "latitude": "25.681551",
    "longitude": "-80.3152238",
    "address": "9519, South Dixie Highway, Pinecrest, FL, 33156",
    "city": "Pinecrest, FL",
    "country": "USA"
  },
  "US|1049 Washington Ave, Miami Beach, FL 33139, USA": {
    "latitude": "25.7739594",
    "longitude": "-80.1346172",
    "address": "404, Washington Avenue, Miami Beach, FL, 33139",
    "city": "Miami Beach, FL",
    "country": "USA"
  },
  "US|141 NE 22nd St, USA": {
    "latitude": "25.902893",
    "longitude": "-80.235839",
    "address": "Northwest 22nd Avenue, Opa-locka, Florida, 33054",
    "city": "Opa-locka, Florida",
    "country": "USA"
  },
  "US|Krispy Chicken & Kitchen Halal, Miami, USA": null,
  "US|Krispy Chicken & Kitchen Halal, USA": null,
  "US|Ruby’s Kitchen, Miami, USA": {
    "latitude": "25.8483675",
    "longitude": "-80.1743866",
    "address": "1099, Northeast 79th Street, Miami, Florida, 33138",
    "city": "Miami, Florida",
    "country": "USA"
  },
  "US|{\n    border-right: 2px solid #d2212d;\n  }\n  address a {\n    color: #d2212d;\n  }\n  .website-name a {\n      color: #d2212d !important;\n    }, USA": null,
  "US|Halal Restaurant in Miami, FL, Miami, USA": {
    "latitude": "25.716327",
    "longitude": "-80.337868",
    "address": "Southwest 56th Street, Florida, 33165",
    "city": "Florida",
    "country": "USA"
  },
  "US|DCG, Miami, USA": {
    "latitude": "25.7741566",
    "longitude": "-80.1935973",
    "address": "Florida",
    "city": "Florida",
    "country": "USA"
  },
  "US|Aladdin Market & Grill, Miami, USA": {
    "latitude": "25.6840355",
    "longitude": "-80.4198048",
    "address": "13854, Southwest 88th Street, Miami, FL, 33186",
    "city": "Miami, FL",
    "country": "USA"
  },
  "US|11212 SW 11th St, USA": {
    "latitude": "33.50038",
    "longitude": "-86.79604",
    "address": "20th Street South, Birmingham, Alabama, 35205",
    "city": "Birmingham, Alabama",
    "country": "USA"
  },
  "US|1653 N Miami Ave, USA": {
    "latitude": "25.7949789",
    "longitude": "-80.2867234",
    "address": "2100, Northwest 42nd Avenue, Miami, FL, 33142",
    "city": "Miami, FL",
    "country": "USA"
  },
  "US|9724 SW 168th St, USA": {
    "latitude": "29.5271093",
    "longitude": "-82.5211878",
    "address": "Archer, Florida, 32618",
    "city": "Archer, Florida",
    "country": "USA"
  },
  "US|Halal Food Restaurant, Miami, USA": {
    "latitude": "25.7877109",
    "longitude": "-80.1322152",
    "address": "405, 15th Street, Miami Beach, FL, 33139",
    "city": "Miami Beach, FL",
    "country": "USA"
  },
  "US|20 NE 167th St, USA": {
    "latitude": "25.928281",
    "longitude": "-80.198454",
    "address": "Northeast 167th Street, North Miami Beach, Florida, 33162",
    "city": "North Miami Beach, Florida",
    "country": "USA"
  },
  "US|20705 NW 2nd Ave, USA": {
    "latitude": "33.5682",
    "longitude": "-86.7199",
    "address": "2nd Avenue South, Birmingham, Alabama, 35206",
    "city": "Birmingham, Alabama",
    "country": "USA"
  },
  "US|CheckMyHalal, Seattle, USA": {
    "latitude": "47.580138",
    "longitude": "-122.3273036",
    "address": "SODO Trail, Seattle, Washington, 98134",
    "city": "Seattle, Washington",
    "country": "USA"
  },
  "US|1933 7th Avenue, Seattle, WA 98101, USA": {
    "latitude": "47.6148464",
    "longitude": "-122.3374642",
    "address": "1933, 7th Avenue, Seattle, WA, 98101",
    "city": "Seattle, WA",
    "country": "USA"
  },
  "US|13721 Lake City Way NE, Seattle, WA 98125, USA, USA": {
    "latitude": "47.7268485",
    "longitude": "-122.2927681",
    "address": "13501, Lake City Way Northeast, Seattle, Washington, 98125",
    "city": "Seattle, Washington",
    "country": "USA"
  },
  "US|The Emerald Palate, Seattle, USA": null,
  "US|The Emerald Palate, USA": {
    "latitude": "38.9440876",
    "longitude": "-76.7366156",
    "address": "Emerald Way, Bowie, Maryland, 20716",
    "city": "Bowie, Maryland",
    "country": "USA"
  },
  "US|Seattle, WA, Seattle, USA": {
    "latitude": "47.580138",
    "longitude": "-122.3273036",
    "address": "SODO Trail, Seattle, Washington, 98134",
    "city": "Seattle, Washington",
    "country": "USA"
  },
  "US|77 Zabiha Restaurants in Seattle, WA, Seattle, USA": null,
  "US|77 Zabiha Restaurants in Seattle, WA, USA": null,
  "US|*24228 104th Ave SE #105, Kent, WA 98031*\n\nThis new place...\" />, USA": null,
  "US|Seattle Halal Foodies, Seattle, USA": null,
  "US|Seattle Halal Foodies, USA": null,
  "US|Seattle, Seattle, USA": {
    "latitude": "47.580138",
    "longitude": "-122.3273036",
    "address": "SODO Trail, Seattle, Washington, 98134",
    "city": "Seattle, Washington",
    "country": "USA"
  },
  "US|3756 Rainier Ave S Ste B, USA": {
    "latitude": "47.5700427",
    "longitude": "-122.2904794",
    "address": "3756, Rainier Avenue South, Seattle, WA, 98144",
    "city": "Seattle, WA",
    "country": "USA"
  },
  "US|= document.getElementById(\"search-box-2\").value.trim();\n\t\n\tif (typeof(address) !== \"undefined\" && address)\n\t{\n\t\tif(address.toLowerCase() ==, USA": null,
  "US|MenuPix, Seattle, USA": {
    "latitude": "47.580138",
    "longitude": "-122.3273036",
    "address": "SODO Trail, Seattle, Washington, 98134",
    "city": "Seattle, Washington",
    "country": "USA"
  },
  "US|Aviv Hummus Bar, Seattle, USA": {
    "latitude": "47.6188119",
    "longitude": "-122.312901",
    "address": "107, 15th Avenue East, Seattle, Washington, 98112",
    "city": "Seattle, Washington",
    "country": "USA"
  },
  "US|8334 Rainier Ave S # 102, USA": null,
  "US|Atly, Seattle, USA": {
    "latitude": "47.580138",
    "longitude": "-122.3273036",
    "address": "SODO Trail, Seattle, Washington, 98134",
    "city": "Seattle, Washington",
    "country": "USA"
  },
  "US|Hamsa Arabic Cafe & Bistro Seattle, Seattle, USA": null,
  "US|Hamsa Arabic Cafe & Bistro Seattle, USA": null,
  "US|is only for pick-up, so there is no seating available., USA": null,
  "US|Halal Smash BRGR, Seattle, USA": null,
  "US|Halal Smash BRGR, USA": null,
  "US|2313 N 45th St, USA": {
    "latitude": "33.473854",
    "longitude": "-112.1567497",
    "address": "2313, North 45th Drive, Phoenix, AZ, 85035",
    "city": "Phoenix, AZ",
    "country": "USA"
  },
  "US|405 NE 45th St, USA": {
    "latitude": "33.5430614",
    "longitude": "-86.7693448",
    "address": "10th Avenue North, Birmingham, Alabama, 35212",
    "city": "Birmingham, Alabama",
    "country": "USA"
  },
  "US|8334 Rainier Ave S Suite101, USA": null,
  "US|11805 Renton Ave S Suite C, USA": {
    "latitude": "47.4969952",
    "longitude": "-122.2474977",
    "address": "11805, Renton Avenue South, Seattle, WA, 98178",
    "city": "Seattle, WA",
    "country": "USA"
  },
  "US|323 N 105th St Suite b, USA": {
    "latitude": "25.8718624",
    "longitude": "-80.2045064",
    "address": "323, Northwest 105th Street, Miami, FL, 33150",
    "city": "Miami, FL",
    "country": "USA"
  },
  "US|5600 Roosevelt Way NE, USA": {
    "latitude": "43.4616687",
    "longitude": "-73.5860093",
    "address": "EMERGENCY TRAIL DO NOT USE (0.41mi), Fort Ann, New York, 12820",
    "city": "Fort Ann, New York",
    "country": "USA"
  },
  "US|42 Massachusetts 60, MA 02155, USA": null,
  "US|Zam Zam Restaurant, Boston, USA": {
    "latitude": "33.900564",
    "longitude": "-84.2776838",
    "address": "5432, Buford Highway, Doraville, GA, 30340",
    "city": "Doraville, GA",
    "country": "USA"
  },
  "US|CheckMyHalal, Boston, USA": {
    "latitude": "42.3816752",
    "longitude": "-71.085484",
    "address": "85, Washington Street, Somerville, MA, 02143",
    "city": "Somerville, MA",
    "country": "USA"
  },
  "US|Boston, MA, Boston, USA": {
    "latitude": "42.3816752",
    "longitude": "-71.085484",
    "address": "85, Washington Street, Somerville, MA, 02143",
    "city": "Somerville, MA",
    "country": "USA"
  },
  "US|makes it convenient for students and visitors attending events at Fenway Park. The restaurant uses halal-certified meat., USA": null,
  "US|Halal Food and Restaurants in Boston, Boston, USA": null,
  "US|Halal Food and Restaurants in Boston, USA": null,
  "US|thehalalfusion, Boston, USA": {
    "latitude": "42.3816752",
    "longitude": "-71.085484",
    "address": "85, Washington Street, Somerville, MA, 02143",
    "city": "Somerville, MA",
    "country": "USA"
  },
  "US|2 Zabiha Bakeries in Boston, MA, Boston, USA": {
    "latitude": "39.3054744",
    "longitude": "-76.6211186",
    "address": "1111, Park Avenue, Baltimore, MD, 21217",
    "city": "Baltimore, MD",
    "country": "USA"
  },
  "US|137 Stuart St, USA": {
    "latitude": "27.197983",
    "longitude": "-80.2519175",
    "address": "Florida",
    "city": "Florida",
    "country": "USA"
  },
  "US|Foodies in Boston, Boston, USA": {
    "latitude": "33.3033825",
    "longitude": "-111.8739487",
    "address": "1750, West Boston Street, Chandler, AZ, 85224",
    "city": "Chandler, AZ",
    "country": "USA"
  },
  "US|1124 Boylston St, Boston, MA, 02115 Phone:(617) 936-3955 Restaurant Hours: Sun-Thurs:10:00 AM – 12:00 AM Fri-Sat:10:00 AM – 2:00, USA": null,
  "US|Shahs Halal Food, Boston, USA": {
    "latitude": "42.3467379",
    "longitude": "-71.0889394",
    "address": "1124, Boylston Street, Boston, MA, 02215",
    "city": "Boston, MA",
    "country": "USA"
  },
  "US|26 New Street, USA": {
    "latitude": "40.8224012",
    "longitude": "-73.9412917",
    "address": "262, West 145th Street, New York, New York, 10030",
    "city": "New York, New York",
    "country": "USA"
  },
  "US|a{color:var(--wp--preset--color--primary);text-decoration:underline;text-decoration-color:var(--wp--preset--color--primary)}.wp-block-smn-fe, USA": null,
  "US|Boston Uncovered, Boston, USA": {
    "latitude": "42.3816752",
    "longitude": "-71.085484",
    "address": "85, Washington Street, Somerville, MA, 02143",
    "city": "Somerville, MA",
    "country": "USA"
  },
  "US|291 Roxbury St, USA": {
    "latitude": "42.3303835",
    "longitude": "-71.0943563",
    "address": "291, Roxbury Street, Roxbury, MA, 02119",
    "city": "Roxbury, MA",
    "country": "USA"
  },
  "US|645 Cambridge St, USA": {
    "latitude": "42.3720663",
    "longitude": "-71.08715",
    "address": "645, Cambridge Street, Cambridge, MA, 02141",
    "city": "Cambridge, MA",
    "country": "USA"
  },
  "US|1092 Hope St, USA": {
    "latitude": "33.6670616",
    "longitude": "-93.5915665",
    "address": "Arkansas",
    "city": "Arkansas",
    "country": "USA"
  },
  "US|Cairo Gyro & Grill, Boston, USA": null,
  "US|Cairo Gyro & Grill, USA": {
    "latitude": "38.7721036",
    "longitude": "-121.3123506",
    "address": "Pleasant Grove Boulevard, Roseville, California, 95678",
    "city": "Roseville, California",
    "country": "USA"
  },
  "US|3050 Alafaya Trail Ste 1032, USA": {
    "latitude": "28.6250008",
    "longitude": "-81.2073561",
    "address": "3050, Alafaya Trail Ste, Oviedo, Florida, 32765",
    "city": "Oviedo, Florida",
    "country": "USA"
  },
  "US|1240 E Ontario Ave STE 107, USA": {
    "latitude": "34.1242901",
    "longitude": "-118.0591969",
    "address": "1240, Golden West Avenue, San Diego, CA, 90025",
    "city": "San Diego, CA",
    "country": "USA"
  },
  "US|add to its appeal for gluten-sensitive guests., USA": null,
  "US|Nebo Cucina & Enoteca, Boston, USA": {
    "latitude": "42.3537855",
    "longitude": "-71.0528227",
    "address": "520, Atlantic Avenue, Boston, MA, 02210",
    "city": "Boston, MA",
    "country": "USA"
  },
  "US|Desi Mart, Boston, USA": {
    "latitude": "30.7914802",
    "longitude": "-83.7872826",
    "address": "South Green Street, Boston, Georgia, 31626",
    "city": "Boston, Georgia",
    "country": "USA"
  },
  "US|SayHeySanDiego, San Diego, USA": {
    "latitude": "32.7174202",
    "longitude": "-117.162772",
    "address": "California",
    "city": "California",
    "country": "USA"
  },
  "US|CheckMyHalal, San Diego, USA": {
    "latitude": "32.7174202",
    "longitude": "-117.162772",
    "address": "California",
    "city": "California",
    "country": "USA"
  },
  "US|of Mystic Grill\" loading=\"lazy\" width=\"600\" height=\"400\" decoding=\"async\" data-nimg=\"1\" class=\"w-full h-full object-cover\" style=\"color:tran, USA": null,
  "US|Best Halal Restaurants in San Diego, San Diego, USA": {
    "latitude": "32.7606004",
    "longitude": "-117.1885987",
    "address": "2485, Hotel Circle Place, San Diego, CA, 92108",
    "city": "San Diego, CA",
    "country": "USA"
  },
  "US|11975 Bernardo Plaza Drive, San Diego, California 92128, USA": {
    "latitude": "33.0199636",
    "longitude": "-117.0726021",
    "address": "11975, Bernardo Plaza Drive, San Diego, CA, 92128",
    "city": "San Diego, CA",
    "country": "USA"
  },
  "US|on the map, please choose an other address\",\"addDeliveryAddress\":\"Please add the delivery address\",\"addDeliveryAddressReason\":\"You have chos, USA": null,
  "US|Kebabish, San Diego, USA": {
    "latitude": "32.7174202",
    "longitude": "-117.162772",
    "address": "California",
    "city": "California",
    "country": "USA"
  },
  "US|Halal Restaurants in San Diego, California, San Diego, USA": {
    "latitude": "32.7333608",
    "longitude": "-117.1922464",
    "address": "Belleau Woods Avenue, San Diego, California, 92103",
    "city": "San Diego, California",
    "country": "USA"
  },
  "US|534 5th Ave, San Diego, CA 92101, USA": {
    "latitude": "32.7109218",
    "longitude": "-117.1602994",
    "address": "534, 5th Avenue, San Diego, CA, 92101",
    "city": "San Diego, CA",
    "country": "USA"
  },
  "US|329 Market St, San Diego, CA 92101, USA": {
    "latitude": "32.711338",
    "longitude": "-117.161378",
    "address": "329, Market Street, San Diego, CA, 92101",
    "city": "San Diego, CA",
    "country": "USA"
  },
  "US|5965 El Cajon Blvd, San Diego, CA 92115, USA": {
    "latitude": "32.7636128",
    "longitude": "-117.0639396",
    "address": "El Cajon Boulevard, San Diego, California, 92115",
    "city": "San Diego, California",
    "country": "USA"
  },
  "US|Pick Best Places, San Diego, USA": null,
  "US|Pick Best Places, USA": {
    "latitude": "36.3325351",
    "longitude": "-94.1260506",
    "address": "South 8th Street, Rogers, Arkansas, 72756",
    "city": "Rogers, Arkansas",
    "country": "USA"
  },
  "US|Wet Tacos, San Diego, USA": {
    "latitude": "32.5835423",
    "longitude": "-117.0629428",
    "address": "3265, Palm Avenue, San Diego, CA, 92154",
    "city": "San Diego, CA",
    "country": "USA"
  },
  "US|Deccan Bites, San Diego, USA": {
    "latitude": "33.1279032",
    "longitude": "-117.3132041",
    "address": "Unikitty's Disco Drop, Carlsbad, California, 92011",
    "city": "Carlsbad, California",
    "country": "USA"
  },
  "US|East Commons, USA": {
    "latitude": "33.6242777",
    "longitude": "-111.928328",
    "address": "East Main Street, Phoenix, Arizona, 86260",
    "city": "Phoenix, Arizona",
    "country": "USA"
  },
  "US|Safa International Market, San Diego, USA": {
    "latitude": "32.7113277",
    "longitude": "-117.1597605",
    "address": "521, Market Street, San Diego, California, 92101",
    "city": "San Diego, California",
    "country": "USA"
  },
  "US|3825 Fifth Ave, USA": {
    "latitude": "32.7319472",
    "longitude": "-117.1607538",
    "address": "5th Avenue, San Diego, California, 92193",
    "city": "San Diego, California",
    "country": "USA"
  },
  "US|6172 University Ave, USA": {
    "latitude": "34.0556686",
    "longitude": "-117.8239282",
    "address": "3801, Temple Ave, Pomona, CA, 91768",
    "city": "Pomona, CA",
    "country": "USA"
  },
  "US|120 S Mollison Ave #102, USA": null,
  "US|Atly, San Diego, USA": {
    "latitude": "32.7174202",
    "longitude": "-117.162772",
    "address": "California",
    "city": "California",
    "country": "USA"
  },
  "US|9810 Carroll Canyon Rd ste 102, USA": {
    "latitude": "36.5839457",
    "longitude": "-121.8921872",
    "address": "Cabrillo Highway, Monterey, California, 93940",
    "city": "Monterey, California",
    "country": "USA"
  },
  "US|Atlanta Hits, Atlanta, USA": {
    "latitude": "33.7544657",
    "longitude": "-84.3898151",
    "address": "Georgia",
    "city": "Georgia",
    "country": "USA"
  },
  "US|220 S Main St, Alpharetta, GA, 30009, US, USA": {
    "latitude": "34.0928249",
    "longitude": "-84.2844859",
    "address": "762, North Main Street, Alpharetta, Georgia, 30009",
    "city": "Alpharetta, Georgia",
    "country": "USA"
  },
  "US|CheckMyHalal, Atlanta, USA": {
    "latitude": "33.7544657",
    "longitude": "-84.3898151",
    "address": "Georgia",
    "city": "Georgia",
    "country": "USA"
  },
  "US|Atlanta, GA, Atlanta, USA": {
    "latitude": "33.738743",
    "longitude": "-84.3589885",
    "address": "885, Glenwood Avenue Southeast, Atlanta, GA, 30316",
    "city": "Atlanta, GA",
    "country": "USA"
  },
  "US|is closest to the South Asian Muslim community in Gwinnett County. It holds Friday prayers and serves as a community hub for Pakistani, Indi, USA": null,
  "US|Halal Food and Restaurants in Atlanta, Atlanta, USA": {
    "latitude": "33.7568329",
    "longitude": "-84.3641886",
    "address": "99, Krog Street Northeast, Atlanta, GA, 30307",
    "city": "Atlanta, GA",
    "country": "USA"
  },
  "US|56 Zabiha Restaurants in Atlanta, GA, Atlanta, USA": {
    "latitude": "33.8023999",
    "longitude": "-84.4262223",
    "address": "1737, Ellsworth Industrial Boulevard Northwest, Atlanta, Georgia, 30318",
    "city": "Atlanta, Georgia",
    "country": "USA"
  },
  "US|Welcome To Our Website, Atlanta, USA": null,
  "US|Welcome To Our Website, USA": {
    "latitude": "31.883292",
    "longitude": "-109.2055944",
    "address": "Cave Creek Road, Arizona",
    "city": "Arizona",
    "country": "USA"
  },
  "US|200 Edgewood Ave NE, Atlanta, GA 30303 Phone:(404) 549-7256 Restaurant Hours: Mon-Thurs:11:00 AM – 12:00 AM Fri:11:00 AM – 02:00, USA": null,
  "US|Shahs Halal Food, Atlanta, USA": {
    "latitude": "41.4051724",
    "longitude": "-73.4183867",
    "address": "Plumtrees Road, Danbury, Connecticut, 06801",
    "city": "Danbury, Connecticut",
    "country": "USA"
  },
  "US|\"left\"\n    };, USA": {
    "latitude": "35.9395594",
    "longitude": "-93.090312",
    "address": "Arkansas",
    "city": "Arkansas",
    "country": "USA"
  },
  "US|95 8th St NW Ste 200, USA": {
    "latitude": "41.6931425",
    "longitude": "-93.0521341",
    "address": "200, South 8th Avenue East, Newton, Iowa, 50208",
    "city": "Newton, Iowa",
    "country": "USA"
  },
  "US|4022 Buford Highway Northeast, USA": {
    "latitude": "34.1221911",
    "longitude": "-83.9874756",
    "address": "Buford, Georgia, 30519",
    "city": "Buford, Georgia",
    "country": "USA"
  },
  "US|Halal Food in Georgia, Atlanta, USA": {
    "latitude": "33.755625",
    "longitude": "-84.3655279",
    "address": "661 Unit 180, Auburn Avenue Northeast, Atlanta, Georgia, 30312",
    "city": "Atlanta, Georgia",
    "country": "USA"
  },
  "US|before{content:\"\";flex-shrink:0;width:24px;height:24px;background-size:contain}.filters-panel .filters-section{width:100%}.filters-panel .fi, USA": null,
  "US|Restaurant Guru, Atlanta, USA": {
    "latitude": "33.914267",
    "longitude": "-84.3615378",
    "address": "5825, Glenridge Drive Northeast, Sandy Springs, Georgia, 30328",
    "city": "Sandy Springs, Georgia",
    "country": "USA"
  },
  "US|AVIVA BY KAMEEL MEDITERRANEAN KITCHEN, Atlanta, USA": null,
  "US|AVIVA BY KAMEEL MEDITERRANEAN KITCHEN, USA": null,
  "US|HalalWorthy, Atlanta, USA": {
    "latitude": "33.7544657",
    "longitude": "-84.3898151",
    "address": "Georgia",
    "city": "Georgia",
    "country": "USA"
  },
  "US|and choose a password to book an appointment.\",\"i18n_appt_required_fields_guest\":\"Please fill in all \\\"Information\\\" fields.\",\"i18n_password, USA": null,
  "US|Sahirah Kebab & Curry, Atlanta, USA": null,
  "US|Sahirah Kebab & Curry, USA": {
    "latitude": "39.7393664",
    "longitude": "-75.6924865",
    "address": "4704, Limestone Road, Wilmington, DE, 19808",
    "city": "Wilmington, DE",
    "country": "USA"
  },
  "US|10684 Alpharetta Hwy Suite 500, USA": null,
  "US|jaffarestaurant.com, Atlanta, USA": {
    "latitude": "33.770365",
    "longitude": "-84.3979016",
    "address": "310, North Avenue Northwest, Atlanta, GA, 30332",
    "city": "Atlanta, GA",
    "country": "USA"
  },
  "US|HalalEatsATL, Atlanta, USA": {
    "latitude": "33.7544657",
    "longitude": "-84.3898151",
    "address": "Georgia",
    "city": "Georgia",
    "country": "USA"
  },
  "US|at 4010 Buford Highway., USA": {
    "latitude": "33.847838",
    "longitude": "-84.3231746",
    "address": "Brookhaven, Georgia, 30329",
    "city": "Brookhaven, Georgia",
    "country": "USA"
  },
  "US|95 8th St NW #200, USA": null,
  "US|The Halal Guys, Atlanta, USA": {
    "latitude": "34.061472",
    "longitude": "-118.2988868",
    "address": "3432, Wilshire Boulevard, Los Angeles, CA, 90010",
    "city": "Los Angeles, CA",
    "country": "USA"
  },
  "US|Heritage Halal Market, Atlanta, USA": {
    "latitude": "33.9800767",
    "longitude": "-84.422196",
    "address": "1232, Johnson Ferry Road Northeast, Marietta, GA, 30068",
    "city": "Marietta, GA",
    "country": "USA"
  },
  "US|225 Central Ave SW Apt 1608, USA": {
    "latitude": "28.6810884",
    "longitude": "-81.510527",
    "address": "225, North Central Avenue, Apopka, FL, 32703",
    "city": "Apopka, FL",
    "country": "USA"
  },
  "US|398 14th St NW, USA": {
    "latitude": "33.5298",
    "longitude": "-86.8183",
    "address": "14th Court North, Birmingham, Alabama, 35234",
    "city": "Birmingham, Alabama",
    "country": "USA"
  },
  "US|4646 Buford Hwy NE Ste T, USA": {
    "latitude": "33.8442959",
    "longitude": "-84.3264506",
    "address": "Briarwood Road Northeast, Brookhaven, Georgia, 30319",
    "city": "Brookhaven, Georgia",
    "country": "USA"
  },
  "US|khyber Halal Restaurant, Phoenix, USA": {
    "latitude": "33.4942841",
    "longitude": "-112.0305595",
    "address": "4030, North 24th Street, Phoenix, AZ, 85016",
    "city": "Phoenix, AZ",
    "country": "USA"
  },
  "US|CROWN Restaurant, Phoenix, USA": {
    "latitude": "36.9611922",
    "longitude": "-122.0468005",
    "address": "2301, Mission Street, Santa Cruz, CA, 95061",
    "city": "Santa Cruz, CA",
    "country": "USA"
  },
  "US|5704 N 27th Ave, USA": {
    "latitude": "45.5638652",
    "longitude": "-122.6378672",
    "address": "5704, Northeast 27th Avenue, Portland, Oregon, 97211",
    "city": "Portland, Oregon",
    "country": "USA"
  },
  "US|4030 N 24th St, USA": {
    "latitude": "33.4942841",
    "longitude": "-112.0305595",
    "address": "4030, North 24th Street, Phoenix, AZ, 85016",
    "city": "Phoenix, AZ",
    "country": "USA"
  },
  "US|960 W University Dr, USA": {
    "latitude": "33.422686",
    "longitude": "-111.951082",
    "address": "960, West University Drive, Tempe, AZ, 85281",
    "city": "Tempe, AZ",
    "country": "USA"
  },
  "US|2446 W Buckeye Rd, USA": {
    "latitude": "33.379887",
    "longitude": "-112.587508",
    "address": "Buckeye, Arizona, 85326",
    "city": "Buckeye, Arizona",
    "country": "USA"
  },
  "US|Güscht Döner Haus, Phoenix, USA": null,
  "US|Güscht Döner Haus, USA": null,
  "US|Al Ameer Restaurant, Detroit, USA": null,
  "US|Al Ameer Restaurant, USA": null,
  "US|3741 Oakwood Blvd, USA": {
    "latitude": "30.6482257",
    "longitude": "-88.1622845",
    "address": "Cottage Hill Road, Mobile, Alabama, 36695",
    "city": "Mobile, Alabama",
    "country": "USA"
  },
  "US|the_noodle_way, Detroit, USA": {
    "latitude": "39.9611544",
    "longitude": "-104.9555876",
    "address": "Thornton, Colorado, 80241",
    "city": "Thornton, Colorado",
    "country": "USA"
  },
  "US|Sheeba Express, Detroit, USA": {
    "latitude": "42.3253602",
    "longitude": "-83.0605049",
    "address": "1366, West Fort Street, Detroit, MI, 48226",
    "city": "Detroit, MI",
    "country": "USA"
  },
  "US|11935 E Warren Ave, USA": {
    "latitude": "39.6767824",
    "longitude": "-104.88466",
    "address": "South Yosemite Street, Colorado, 80231",
    "city": "Colorado",
    "country": "USA"
  },
  "US|is a FOOD TRUCK, not a restaurant., USA": {
    "latitude": "45.0130282",
    "longitude": "-93.2650757",
    "address": "220, Northeast Lowry Avenue, Minneapolis, Minnesota, 55418",
    "city": "Minneapolis, Minnesota",
    "country": "USA"
  },
  "US|13736 Linwood St, USA": {
    "latitude": "25.7481334",
    "longitude": "-80.4177602",
    "address": "13736, Southwest 21st Street, Miami, FL, 33175",
    "city": "Miami, FL",
    "country": "USA"
  },
  "US|Pizza Joint, Detroit, USA": {
    "latitude": "37.7760951",
    "longitude": "-122.491831",
    "address": "3088, Balboa Street, San Francisco, CA, 94121",
    "city": "San Francisco, CA",
    "country": "USA"
  },
  "US|12900 Joseph Campau Ave, USA": null,
  "US|Sylhet Cafe.- Halal Restaurant Inc, Detroit, USA": null,
  "US|Sylhet Cafe.- Halal Restaurant Inc, USA": null,
  "US|13625 Eight Mile W, USA": {
    "latitude": "38.0575959",
    "longitude": "-121.3435902",
    "address": "Stockton, California, 95209",
    "city": "Stockton, California",
    "country": "USA"
  },
  "US|6531 Greenfield Rd, USA": {
    "latitude": "33.4084864",
    "longitude": "-111.737448",
    "address": "East Broadway Road, Mesa, Arizona, 85205",
    "city": "Mesa, Arizona",
    "country": "USA"
  },
  "US|15640 W Warren Ave, USA": {
    "latitude": "39.6772161",
    "longitude": "-105.10958",
    "address": "South Kipling Street, Lakewood, Colorado, 80232",
    "city": "Lakewood, Colorado",
    "country": "USA"
  },
  "US|3181 3rd Ave, Detroit, Michigan, United States, USA": {
    "latitude": "42.3426241",
    "longitude": "-83.0645793",
    "address": "3181, 3rd Street, Detroit, MI, 48201",
    "city": "Detroit, MI",
    "country": "USA"
  },
  "US|is within walking distance of major arenas and venues., USA": null,
  "US|Halal Eastside Eats & Market, Detroit, USA": null,
  "US|Halal Eastside Eats & Market, USA": {
    "latitude": "39.6770588",
    "longitude": "-104.9021",
    "address": "7449, East Iliff Avenue, Denver, Colorado, 80231",
    "city": "Denver, Colorado",
    "country": "USA"
  },
  "US|CheckMyHalal, Minneapolis, USA": {
    "latitude": "44.9339977",
    "longitude": "-93.2232457",
    "address": "3801, Minnehaha Avenue, Minneapolis, Minnesota, 55406",
    "city": "Minneapolis, Minnesota",
    "country": "USA"
  },
  "US|to find nearby listings.\",\"nearby_listings_retrieving_location\":\"Retrieving location...\",\"nearby_listings_searching\":\"Searching for nearby l, USA": null,
  "US|IbnBattutaTravel.com, Minneapolis, USA": {
    "latitude": "37.4991931",
    "longitude": "-102.254602",
    "address": "Colorado",
    "city": "Colorado",
    "country": "USA"
  },
  "US|Minneapolis, MN, Minneapolis, USA": {
    "latitude": "44.9790932",
    "longitude": "-93.2716461",
    "address": "15, South 5th Street, Minneapolis, MN, 55402",
    "city": "Minneapolis, MN",
    "country": "USA"
  },
  "US|Restaurant Guru, Minneapolis, USA": {
    "latitude": "38.4799336",
    "longitude": "-107.8756304",
    "address": "448, East Main Street, Montrose, Colorado, 81401",
    "city": "Montrose, Colorado",
    "country": "USA"
  },
  "US|MNHalal.com, Minneapolis, USA": {
    "latitude": "37.4991931",
    "longitude": "-102.254602",
    "address": "Colorado",
    "city": "Colorado",
    "country": "USA"
  },
  "US|Halal Chicken USA, Minneapolis, USA": {
    "latitude": "38.6382336",
    "longitude": "-121.4977475",
    "address": "3654, Promenade Circle, Sacramento, CA, 94834",
    "city": "Sacramento, CA",
    "country": "USA"
  },
  "US|offers halal options for all chicken dishes., USA": null,
  "US|Football Pizza, Minneapolis, USA": {
    "latitude": "45.0120003",
    "longitude": "-93.2470587",
    "address": "2337, Central Avenue Northeast, Minneapolis, Minnesota, 55418",
    "city": "Minneapolis, Minnesota",
    "country": "USA"
  },
  "US|2000 Nicollet Ave, Minneapolis, MN 55404-2526, USA": null,
  "US|La Mama Restaurant, Minneapolis, USA": {
    "latitude": "44.962553",
    "longitude": "-93.2780247",
    "address": "West Franklin Avenue, Minneapolis, Minnesota, 55403",
    "city": "Minneapolis, Minnesota",
    "country": "USA"
  },
  "US|2513 Central Ave NE, USA": {
    "latitude": "38.9115166",
    "longitude": "-76.9845399",
    "address": "West Virginia Avenue Northeast, Washington, District of Columbia, 20002",
    "city": "Washington, District of Columbia",
    "country": "USA"
  },
  "US|2513 Central Ave NE, Minneapolis, MN 55418-3725, USA": null,
  "US|Holy Land Bakery, Grocery and Deli, Minneapolis, USA": null,
  "US|Holy Land Bakery, Grocery and Deli, USA": {
    "latitude": "34.0910534",
    "longitude": "-118.2992617",
    "address": "North Mariposa Avenue, Los Angeles, California, 90029",
    "city": "Los Angeles, California",
    "country": "USA"
  },
  "US|2910 E Lake St, USA": null,
  "US|Himalayan Restaurant, Minneapolis, USA": {
    "latitude": "44.9486043",
    "longitude": "-93.2294741",
    "address": "2910, East Lake Street, Minneapolis, Minnesota, 55406",
    "city": "Minneapolis, Minnesota",
    "country": "USA"
  },
  "US|Nader Persian Restaurant, Minneapolis, USA": {
    "latitude": "44.9695759",
    "longitude": "-93.2474392",
    "address": "Cedar Avenue South, Minneapolis, Minnesota, 55454",
    "city": "Minneapolis, Minnesota",
    "country": "USA"
  },
  "US|HalalSpy, Minneapolis, USA": {
    "latitude": "44.9339977",
    "longitude": "-93.2232457",
    "address": "3801, Minnehaha Avenue, Minneapolis, Minnesota, 55406",
    "city": "Minneapolis, Minnesota",
    "country": "USA"
  },
  "US|Halal Restaurants in Minneapolis, Minnesota, Minneapolis, USA": {
    "latitude": "44.9481946",
    "longitude": "-93.219502",
    "address": "3621, East Lake Street, Minneapolis, MN, 55406",
    "city": "Minneapolis, MN",
    "country": "USA"
  },
  "US|bb.q Chicken Blaine, Minneapolis, USA": null,
  "US|bb.q Chicken Blaine, USA": {
    "latitude": "33.4796525",
    "longitude": "-112.0689329",
    "address": "305, East Thomas Road, Phoenix, AZ, 85012",
    "city": "Phoenix, AZ",
    "country": "USA"
  },
  "US|2300 Hennepin Ave S, USA": {
    "latitude": "44.9597698",
    "longitude": "-93.2940483",
    "address": "2300, Hennepin Avenue South, Minneapolis, Minnesota, 55405",
    "city": "Minneapolis, Minnesota",
    "country": "USA"
  },
  "US|1001 E Franklin Ave, USA": {
    "latitude": "39.7495347",
    "longitude": "-104.968689",
    "address": "East 22nd Avenue, Denver, Colorado, 80205",
    "city": "Denver, Colorado",
    "country": "USA"
  },
  "US|1900 University Ave NE, USA": {
    "latitude": "38.9320915",
    "longitude": "-76.999031",
    "address": "Michigan Avenue Northeast, Washington, District of Columbia, 20017",
    "city": "Washington, District of Columbia",
    "country": "USA"
  },
  "US|410 Cedar Ave, USA": {
    "latitude": "35.2134649",
    "longitude": "-111.6474959",
    "address": "410, West Cedar Avenue, Flagstaff, AZ, 86001",
    "city": "Flagstaff, AZ",
    "country": "USA"
  },
  "US|3118 United States, USA": {
    "latitude": "34.2721139",
    "longitude": "-109.7644475",
    "address": "Arizona, 85940",
    "city": "Arizona",
    "country": "USA"
  },
  "US|1204 County Rd 3, USA": {
    "latitude": "39.3196107",
    "longitude": "-76.4221374",
    "address": "1204, 3rd Road, Middle River, MD, 21220",
    "city": "Middle River, MD",
    "country": "USA"
  },
  "US|2805 Nicollet Ave, USA": {
    "latitude": "44.9515647",
    "longitude": "-93.2774946",
    "address": "2805, Nicollet Avenue, Minneapolis, MN, 55408",
    "city": "Minneapolis, MN",
    "country": "USA"
  },
  "US|Halal Food and Restaurants in Philadelphia, Philadelphia, USA": null,
  "US|Halal Food and Restaurants in Philadelphia, USA": null,
  "US|Philly Explorer, Philadelphia, USA": {
    "latitude": "39.9776543",
    "longitude": "-75.1739615",
    "address": "West Jefferson Street, Philadelphia, Pennsylvania, 19121",
    "city": "Philadelphia, Pennsylvania",
    "country": "USA"
  },
  "US|134 Chestnut St, USA": null,
  "US|134 Chestnut St, Philadelphia, PA 19106, Philadelphia, USA": {
    "latitude": "39.9482234",
    "longitude": "-75.1438297",
    "address": "134, Chestnut Street, Philadelphia, PA, 19106",
    "city": "Philadelphia, PA",
    "country": "USA"
  },
  "US|5260 Rodman St., USA": {
    "latitude": "39.9511373",
    "longitude": "-75.2286237",
    "address": "5260, Rodman Street, Philadelphia, PA, 19143",
    "city": "Philadelphia, PA",
    "country": "USA"
  },
  "US|of Tex’s Chicken & Burgers\" loading=\"lazy\" width=\"600\" height=\"400\" decoding=\"async\" data-nimg=\"1\" class=\"w-full h-full object-cover\" st, USA": null,
  "US|Best Halal Restaurants in Philadelphia, Philadelphia, USA": null,
  "US|Best Halal Restaurants in Philadelphia, USA": null,
  "US|js-reveal\" data-reveal-include-children=\".vp-module-intro,.vp-module-location\">, USA": null,
  "US|Visit Philadelphia, Philadelphia, USA": {
    "latitude": "35.8789626",
    "longitude": "-90.7026124",
    "address": "Jonesboro, Arkansas, 72401",
    "city": "Jonesboro, Arkansas",
    "country": "USA"
  },
  "US|Saad's Halal Restaurant, Philadelphia, USA": {
    "latitude": "39.9550211",
    "longitude": "-75.2118953",
    "address": "4500, Walnut Street, Philadelphia, PA, 19139",
    "city": "Philadelphia, PA",
    "country": "USA"
  },
  "US|CheckMyHalal, Philadelphia, USA": {
    "latitude": "39.9776543",
    "longitude": "-75.1739615",
    "address": "West Jefferson Street, Philadelphia, Pennsylvania, 19121",
    "city": "Philadelphia, Pennsylvania",
    "country": "USA"
  },
  "US|1754 S Hicks St, Philadelphia, PA, 19145, US, USA": {
    "latitude": "39.9284462",
    "longitude": "-75.171266",
    "address": "1754, South Hicks Street, Philadelphia, PA, 19145",
    "city": "Philadelphia, PA",
    "country": "USA"
  },
  "US|4500 Walnut St, USA": {
    "latitude": "34.0203253",
    "longitude": "-117.8659441",
    "address": "California, 91789",
    "city": "California",
    "country": "USA"
  },
  "US|3967 W Ford Rd #87, USA": null,
  "US|Tent Halal Food, Philadelphia, USA": null,
  "US|Tent Halal Food, USA": {
    "latitude": "32.7490589",
    "longitude": "-117.0873612",
    "address": "50th Street, San Diego, California, 92105",
    "city": "San Diego, California",
    "country": "USA"
  },
  "US|1016 Race St, USA": {
    "latitude": "39.9553587",
    "longitude": "-75.1565868",
    "address": "1016, Race Street, Philadelphia, Pennsylvania, 19103",
    "city": "Philadelphia, Pennsylvania",
    "country": "USA"
  },
  "US|2550 Grant Ave Suite 320, USA": null,
  "US|The Halal Guys, Philadelphia, USA": {
    "latitude": "40.0026897",
    "longitude": "-75.2250909",
    "address": "City Avenue, Philadelphia, Pennsylvania, 19004",
    "city": "Philadelphia, Pennsylvania",
    "country": "USA"
  },
  "US|Welcome to Fancy Halal Grill, Philadelphia, USA": null,
  "US|Welcome to Fancy Halal Grill, USA": null,
  "US|Halal Restaurants in Philadelphia, Pennsylvania, Philadelphia, USA": {
    "latitude": "39.9550211",
    "longitude": "-75.2118953",
    "address": "4500, Walnut Street, Philadelphia, PA, 19139",
    "city": "Philadelphia, PA",
    "country": "USA"
  },
  "US|Philadelphia, PA, Philadelphia, USA": {
    "latitude": "40.0364729",
    "longitude": "-75.2187086",
    "address": "6234, Ridge Avenue, Philadelphia, PA, 19427",
    "city": "Philadelphia, PA",
    "country": "USA"
  },
  "US|on Main Street., USA": {
    "latitude": "42.9826004",
    "longitude": "-76.3403237",
    "address": "West Main Street, Marcellus, New York, 13108",
    "city": "Marcellus, New York",
    "country": "USA"
  },
  "US|31 Franklin St, USA": {
    "latitude": "35.4920559",
    "longitude": "-93.8599129",
    "address": "Ozark, Arkansas, 72949",
    "city": "Ozark, Arkansas",
    "country": "USA"
  },
  "US|CheckMyHalal, Washington, USA": {
    "latitude": "45.5583175",
    "longitude": "-122.9218439",
    "address": "5615, Northeast Huffman Street, Hillsboro, OR, 97124",
    "city": "Hillsboro, OR",
    "country": "USA"
  },
  "US|is the long-standing halal Peruvian rotisserie anchor. Rockville MD on Rockville Pike adds Pakistani and Indian halal grocery and dining for, USA": null,
  "US|Dukem, Washington, USA": {
    "latitude": "45.5583175",
    "longitude": "-122.9218439",
    "address": "5615, Northeast Huffman Street, Hillsboro, OR, 97124",
    "city": "Hillsboro, OR",
    "country": "USA"
  },
  "US|1205 28th St NW, USA": {
    "latitude": "38.9054822",
    "longitude": "-77.0568735",
    "address": "1205, 28th Street Northwest, Washington, DC, 20007",
    "city": "Washington, DC",
    "country": "USA"
  },
  "US|1331 Connecticut Ave NW, Washington, DC 20036 Phone:(202) 438-7646 Restaurant Hours: Mon-Sat:10:30 AM – 04:00 AM Sun:10:30 AM –, USA": null,
  "US|Shahs Halal Food, Washington, USA": {
    "latitude": "38.9081346",
    "longitude": "-77.042299",
    "address": "1331, Connecticut Avenue Northwest, Washington, DC, 20036",
    "city": "Washington, DC",
    "country": "USA"
  },
  "US|Best Halal Food in Washington, Washington, USA": {
    "latitude": "38.9081346",
    "longitude": "-77.042299",
    "address": "1331, Connecticut Avenue Northwest, Washington, DC, 20036",
    "city": "Washington, DC",
    "country": "USA"
  },
  "US|Kw74hQDByNKzHf_HKR8QRA\":{\"__typename\":\"BusinessLocation\",\"encid\":\"Kw74hQDByNKzHf_HKR8QRA\",&quot, USA": null,
  "US|July's Most Popular Halal Restaurants in Washington, Washington, USA": null,
  "US|July's Most Popular Halal Restaurants in Washington, USA": null,
  "US|4 Victoria Place, Washington NE37 2SW England, USA": null,
  "US|Star Tandoori, Washington, USA": null,
  "US|Star Tandoori, USA": null,
  "US|414 H St Ne, USA": {
    "latitude": "40.8213589",
    "longitude": "-73.9473012",
    "address": "414, West 141st Street, New York, NY, 10031",
    "city": "New York, NY",
    "country": "USA"
  },
  "US|50 Massachusetts Ave-l016, USA": {
    "latitude": "38.9471618",
    "longitude": "-77.0986903",
    "address": "Massachusetts Avenue Northwest, Washington, District of Columbia, 20016",
    "city": "Washington, District of Columbia",
    "country": "USA"
  },
  "US|20855 108th Ave SE, USA": {
    "latitude": "38.8441368",
    "longitude": "-76.9921813",
    "address": "Alabama Avenue Southeast, Washington, District of Columbia, 20032",
    "city": "Washington, District of Columbia",
    "country": "USA"
  },
  "US|The Halal Guys, Washington, USA": {
    "latitude": "38.8975706",
    "longitude": "-77.0065491",
    "address": "50, Massachusetts Avenue Northwest, Washington, DC, 20001",
    "city": "Washington, DC",
    "country": "USA"
  },
  "US|Thai 65 Bellevue, Washington, USA": {
    "latitude": "38.884565",
    "longitude": "-76.9966804",
    "address": "653, Pennsylvania Avenue Southeast, Washington, District of Columbia, 20003",
    "city": "Washington, District of Columbia",
    "country": "USA"
  },
  "US|Taste of Yemen, Washington, USA": {
    "latitude": "47.3824174",
    "longitude": "-122.2308573",
    "address": "124, Central Avenue North, Kent, WA, 98032",
    "city": "Kent, WA",
    "country": "USA"
  },
  "US|3502 12th St NE, Washington, District of Columbia, United States, USA": {
    "latitude": "38.9258508",
    "longitude": "-76.9905663",
    "address": "12th Street Northeast, Washington, District of Columbia, 20017",
    "city": "Washington, District of Columbia",
    "country": "USA"
  },
  "US|Charlotte Charm, Charlotte, USA": {
    "latitude": "35.2272086",
    "longitude": "-80.8430827",
    "address": "North Carolina",
    "city": "North Carolina",
    "country": "USA"
  },
  "US|Al-Basha Halal Grill, Charlotte, USA": null,
  "US|Al-Basha Halal Grill, USA": {
    "latitude": "25.78819",
    "longitude": "-80.1315888",
    "address": "1533, Washington Avenue, Miami Beach, FL, 33139",
    "city": "Miami Beach, FL",
    "country": "USA"
  },
  "US|4832 Central Ave C, Charlotte, NC 28205, USA": {
    "latitude": "35.2114995",
    "longitude": "-80.7616765",
    "address": "4832, Central Avenue, Charlotte, NC, 28205",
    "city": "Charlotte, NC",
    "country": "USA"
  },
  "US|Restaurant Guru, Charlotte, USA": {
    "latitude": "38.4799336",
    "longitude": "-107.8756304",
    "address": "448, East Main Street, Montrose, Colorado, 81401",
    "city": "Montrose, Colorado",
    "country": "USA"
  },
  "US|Quran Mualim, Charlotte, USA": null,
  "US|Quran Mualim, USA": null,
  "US|Halal Restaurants in Charlotte, North Carolina, Charlotte, USA": {
    "latitude": "35.1372495",
    "longitude": "-80.9192253",
    "address": "9300, Arrowpoint Boulevard, Charlotte, North Carolina, 28273",
    "city": "Charlotte, North Carolina",
    "country": "USA"
  },
  "US|Charlotte, NC, Charlotte, USA": {
    "latitude": "35.1398697",
    "longitude": "-80.7337387",
    "address": "2010, Galleria Boulevard, Charlotte, NC, 28270",
    "city": "Charlotte, NC",
    "country": "USA"
  },
  "US|is a good location because they share parking with other shops in the area so parking is not limited. I ordered first and paid after I finis, USA": null,
  "US|Halal Food in Charlotte, Charlotte, USA": null,
  "US|Halal Food in Charlotte, USA": {
    "latitude": "28.4621921",
    "longitude": "-81.4660271",
    "address": "6227, International Drive, Orlando, FL, 32819",
    "city": "Orlando, FL",
    "country": "USA"
  },
  "US|Serengeti Kitchen, Charlotte, USA": {
    "latitude": "26.966617",
    "longitude": "-82.0789875",
    "address": "4265, Tamiami Trail, Port Charlotte, FL, 33980",
    "city": "Port Charlotte, FL",
    "country": "USA"
  },
  "US|350 E McCollough Dr, USA": {
    "latitude": "30.307008",
    "longitude": "-87.6717883",
    "address": "350, Cypress Bend Dr, Gulf Shores, AL, 36542",
    "city": "Gulf Shores, AL",
    "country": "USA"
  },
  "US|4044 Connection Point Blvd, USA": null,
  "US|Halal Street Food, Charlotte, USA": {
    "latitude": "35.2456416",
    "longitude": "-80.8333895",
    "address": "701, Keswick Ave, Charlotte, NC, 28206",
    "city": "Charlotte, NC",
    "country": "USA"
  },
  "US|7308 E Independence Blvd, USA": {
    "latitude": "35.7239127",
    "longitude": "-91.6362856",
    "address": "1255, Batesville Blvd, Southside, AR, 72501",
    "city": "Southside, AR",
    "country": "USA"
  },
  "US|CheckMyHalal, Charlotte, USA": {
    "latitude": "26.9013269",
    "longitude": "-81.9156799",
    "address": "Florida",
    "city": "Florida",
    "country": "USA"
  },
  "US|latitude\" content=\"35.337893\">, USA": null,
  "US|USA, Charlotte, USA": {
    "latitude": "35.1398697",
    "longitude": "-80.7337387",
    "address": "2010, Galleria Boulevard, Charlotte, NC, 28270",
    "city": "Charlotte, NC",
    "country": "USA"
  },
  "US|Map\"\n              />, USA": {
    "latitude": "42.9183931",
    "longitude": "-85.8492439",
    "address": "Georgetown Charter Township, Michigan, 49428",
    "city": "Georgetown Charter Township, Michigan",
    "country": "USA"
  },
  "US|11320 N Tryon St, Charlotte, North Carolina, United States, USA": {
    "latitude": "35.3107104",
    "longitude": "-80.745231",
    "address": "North Tryon Street, Charlotte, North Carolina, 28223",
    "city": "Charlotte, North Carolina",
    "country": "USA"
  },
  "US|CheckMyHalal, Denver, USA": {
    "latitude": "39.7392364",
    "longitude": "-104.984862",
    "address": "Colorado",
    "city": "Colorado",
    "country": "USA"
  },
  "US|= 'https://www.thebesttoronto.com/';\r\n        }, false );, USA": null,
  "US|Uncover Denver, Denver, USA": {
    "latitude": "39.7392364",
    "longitude": "-104.984862",
    "address": "Colorado",
    "city": "Colorado",
    "country": "USA"
  },
  "US|Denver, Denver, USA": {
    "latitude": "39.7392897",
    "longitude": "-104.9971721",
    "address": "1450, Speer Boulevard, Denver, CO, 80204",
    "city": "Denver, CO",
    "country": "USA"
  },
  "US|Community-Reported Halal Restaurants in Denver, CO, Denver, USA": null,
  "US|Community-Reported Halal Restaurants in Denver, CO, USA": null,
  "US|8241 E Northfield Blvd, USA": {
    "latitude": "39.786015",
    "longitude": "-104.8925176",
    "address": "8241, East Northfield Boulevard, Denver, Colorado, 80266",
    "city": "Denver, Colorado",
    "country": "USA"
  },
  "US|1475 California Street 20th Floor, Denver, CO 80202, USA": {
    "latitude": "39.7441177",
    "longitude": "-104.9939205",
    "address": "1475, California Street, Denver, CO, 80202",
    "city": "Denver, CO",
    "country": "USA"
  },
  "US|13160 E Mississippi Ave, Aurora, CO 80012, USA": {
    "latitude": "39.6960214",
    "longitude": "-104.8371721",
    "address": "13160, East Mississippi Avenue, Aurora, CO, 80012",
    "city": "Aurora, CO",
    "country": "USA"
  },
  "US|Crazy Hungry Asians of Colorado, Denver, USA": {
    "latitude": "39.7395565",
    "longitude": "-104.9995567",
    "address": "924, West Colfax Avenue, Denver, CO, 80204",
    "city": "Denver, CO",
    "country": "USA"
  },
  "US|Colorado Muslims, Denver, USA": {
    "latitude": "39.7392364",
    "longitude": "-104.984862",
    "address": "Colorado",
    "city": "Colorado",
    "country": "USA"
  },
  "US|Samir restaurant & bakery, Denver, USA": {
    "latitude": "39.667777",
    "longitude": "-104.8642103",
    "address": "2680, South Havana Street, Aurora, CO, 80014",
    "city": "Aurora, CO",
    "country": "USA"
  },
  "US|Denver, CO, Denver, USA": {
    "latitude": "39.7392897",
    "longitude": "-104.9971721",
    "address": "1450, Speer Boulevard, Denver, CO, 80204",
    "city": "Denver, CO",
    "country": "USA"
  },
  "US|Barakah Halal Market, Denver, USA": {
    "latitude": "39.6962251",
    "longitude": "-104.8687342",
    "address": "10200, East Mississippi Avenue, Aurora, CO, 80012",
    "city": "Aurora, CO",
    "country": "USA"
  },
  "US|970 S Oneida St #3a, USA": {
    "latitude": "39.6988927",
    "longitude": "-104.9073037",
    "address": "970, South Oneida Street, Denver, Colorado, 80224",
    "city": "Denver, Colorado",
    "country": "USA"
  },
  "US|2318 S Colorado Blvd, USA": {
    "latitude": "39.6871117",
    "longitude": "-104.940895",
    "address": "South Colorado Boulevard, Denver, Colorado, 80222",
    "city": "Denver, Colorado",
    "country": "USA"
  },
  "US|7449 E Iliff Ave, USA": {
    "latitude": "39.6749817",
    "longitude": "-104.900736",
    "address": "East Iliff Avenue, Holly Hills, Colorado, 80231",
    "city": "Holly Hills, Colorado",
    "country": "USA"
  },
  "US|10315 E Iliff Ave, USA": {
    "latitude": "39.6749817",
    "longitude": "-104.900736",
    "address": "East Iliff Avenue, Holly Hills, Colorado, 80231",
    "city": "Holly Hills, Colorado",
    "country": "USA"
  },
  "US|8430 N Federal Blvd, USA": null,
  "US|Atly, Denver, USA": {
    "latitude": "39.7392897",
    "longitude": "-104.9971721",
    "address": "1450, Speer Boulevard, Denver, CO, 80204",
    "city": "Denver, CO",
    "country": "USA"
  },
  "US|12590 Southwest Broadway Street, Beaverton, Oregon 97005, USA": {
    "latitude": "45.4873199",
    "longitude": "-122.8055925",
    "address": "12590, Southwest Broadway Street, Beaverton, Oregon, 97005",
    "city": "Beaverton, Oregon",
    "country": "USA"
  },
  "US|Trip101, Portland, USA": {
    "latitude": "45.4970249",
    "longitude": "-122.5799571",
    "address": "Southeast Rhine Street, Portland, Oregon, 98215",
    "city": "Portland, Oregon",
    "country": "USA"
  },
  "US|15158 Bangy Road, USA": {
    "latitude": "45.4162266",
    "longitude": "-122.7417037",
    "address": "15158, Bangy Road, Lake Oswego, OR, 97035",
    "city": "Lake Oswego, OR",
    "country": "USA"
  },
  "US|Ryans Halal kitchen LLC, Portland, USA": null,
  "US|Ryans Halal kitchen LLC, USA": null,
  "US|12590 SW Broadway St, USA": {
    "latitude": "33.4618267",
    "longitude": "-86.8131483",
    "address": "Carr Avenue, Homewood, Alabama, 35209",
    "city": "Homewood, Alabama",
    "country": "USA"
  },
  "US|before ordering. We checked 49 major restaurant chains for halal availability in United States., USA": null,
  "US|CheckMyHalal, Portland, USA": {
    "latitude": "45.4970249",
    "longitude": "-122.5799571",
    "address": "Southeast Rhine Street, Portland, Oregon, 98215",
    "city": "Portland, Oregon",
    "country": "USA"
  },
  "US|Discover Halal Food in Portland, Portland, USA": {
    "latitude": "47.221364",
    "longitude": "-122.4087642",
    "address": "3918, Portland Ave E, Tacoma, WA, 98404",
    "city": "Tacoma, WA",
    "country": "USA"
  },
  "US|8005 SE Stark St, USA": {
    "latitude": "40.8204233",
    "longitude": "-81.3910486",
    "address": "2120, Fulton Road Northwest, Canton, OH, 44709",
    "city": "Canton, OH",
    "country": "USA"
  },
  "US|1012 Sw Morrison St, USA": {
    "latitude": "33.660944743928084",
    "longitude": "-84.02330863886687",
    "address": "1012, Dogwood Drive SW, Conyers, GA, 30012",
    "city": "Conyers, GA",
    "country": "USA"
  },
  "US|Where can I find halal Uyghur restaurant in Portland &#x1f60a, Portland, USA": null,
  "US|Where can I find halal Uyghur restaurant in Portland &#x1f60a, USA": null,
  "US|Halal Eats- Portland, OR, Portland, USA": {
    "latitude": "45.5127075",
    "longitude": "-122.6480873",
    "address": "1722, Southeast Madison Street, Portland, OR, 97214",
    "city": "Portland, OR",
    "country": "USA"
  },
  "US|Portland, OR, Portland, USA": {
    "latitude": "45.48194",
    "longitude": "-122.5754876",
    "address": "8509, Southeast Foster Road, Portland, OR, 97266",
    "city": "Portland, OR",
    "country": "USA"
  },
  "US|Catering, Photo Shoots, USA": {
    "latitude": "34.2683458",
    "longitude": "-119.2483663",
    "address": "3301, East Main Street, Ventura, CA, 93003-0990",
    "city": "Ventura, CA",
    "country": "USA"
  },
  "US|TWISTED MEATS, Portland, USA": {
    "latitude": "34.1868281",
    "longitude": "-118.9093114",
    "address": "West Hillcrest Drive, Thousand Oaks, California, 91320",
    "city": "Thousand Oaks, California",
    "country": "USA"
  },
  "US|IndyMeat Wrap and Over Rice, Portland, USA": null,
  "US|IndyMeat Wrap and Over Rice, USA": null,
  "US|14088 E Mississippi Ave, USA": {
    "latitude": "39.6958215",
    "longitude": "-104.824116",
    "address": "14088, East Mississippi Avenue, Aurora, CO, 80012",
    "city": "Aurora, CO",
    "country": "USA"
  },
  "US|623 E Tremont Ave, USA": {
    "latitude": "40.8462051",
    "longitude": "-73.8924732",
    "address": "623, East Tremont Avenue, New York, New York, 10457",
    "city": "New York, New York",
    "country": "USA"
  },
  "US|VegasVibin', Las Vegas, USA": {
    "latitude": "36.1439123",
    "longitude": "-115.241856",
    "address": "2550, South Rainbow Boulevard, Las Vegas, NV, 89146",
    "city": "Las Vegas, NV",
    "country": "USA"
  },
  "US|CheckMyHalal, Las Vegas, USA": {
    "latitude": "36.1439123",
    "longitude": "-115.241856",
    "address": "2550, South Rainbow Boulevard, Las Vegas, NV, 89146",
    "city": "Las Vegas, NV",
    "country": "USA"
  },
  "US|505 Fremont Street, USA": {
    "latitude": "37.7905109",
    "longitude": "-122.3972429",
    "address": "50, Fremont Street, San Francisco, CA, 94015",
    "city": "San Francisco, CA",
    "country": "USA"
  },
  "US|3615 S Las Vegas Blvd #101, USA": null,
  "US|Istanbul Mediterranean, Las Vegas, USA": null,
  "US|Istanbul Mediterranean, USA": {
    "latitude": "40.0542576",
    "longitude": "-82.9160166",
    "address": "Worth Avenue, Columbus, Ohio, 43230",
    "city": "Columbus, Ohio",
    "country": "USA"
  },
  "US|Turkish Restaurant Menu, Las Vegas, USA": null,
  "US|Turkish Restaurant Menu, USA": {
    "latitude": "33.5379654",
    "longitude": "-82.1278868",
    "address": "North Belair Road, Evans, Georgia, 30809",
    "city": "Evans, Georgia",
    "country": "USA"
  },
  "US|Jerusalem Mediterranean Chef’s Table, Las Vegas, USA": null,
  "US|Jerusalem Mediterranean Chef’s Table, USA": null,
  "US|4860 W Desert Inn Rd Suite 9, USA": {
    "latitude": "36.5625268",
    "longitude": "-121.9151305",
    "address": "24815, Carpenter Rd, Carmel, CA, 93923",
    "city": "Carmel, CA",
    "country": "USA"
  },