[
  {
    "name": "'t Vonder",
    "address": "14 Binnenpad, Giethoorn, 8355BP",
    "latitude": "52.7268278",
    "longitude": "6.0897731",
    "city": "Giethoorn",
    "country": "Netherlands",
    "halalStatus": "options",
    "cuisine": "",
    "sourceUrl": "https://www.openstreetmap.org/node/7108078101",
    "sourceQuote": "OpenStreetMap diet:halal=yes",
    "verifiedMethod": "web-source",
    "source": "osm"
  },
  {
    "name": "% Arabica",
    "address": "7 Everit Street, Brooklyn, NY, 11201",
    "latitude": "40.7024086",
    "longitude": "-73.99413659999999",
    "city": "Brooklyn, NY",
    "country": "USA",
    "halalStatus": "full",
    "cuisine": "",
    "sourceUrl": "https://www.zabihah.com/restaurants/08dd2504-6b31-4e29-821a-00018405f7d5/arabica-brooklyn-ny",
    "sourceQuote": "Zabihah listing — halal restaurant",
    "verifiedMethod": "web-source",
    "source": "zabihah"
  },
  {
    "name": "+ROBERT CATERING SERVICES PTE. LTD.",
    "address": "5 KAKI BUKIT ROAD 2 #04-08 CITY WAREHOUSE 417839",
    "latitude": "1.3366",
    "longitude": "103.8984",
    "city": "Singapore",
    "country": "Singapore",
    "halalStatus": "full",
    "cuisine": "Catering Company",
    "sourceUrl": "https://halal.muis.gov.sg/halal/establishments?id=FPGN21030001505",
    "sourceQuote": "MUIS halal certified (FPGN21030001505)",
    "verifiedMethod": "web-source",
    "source": "muis"
  },
  {
    "name": "$5 WESTERN",
    "address": "354 CLEMENTI AVENUE 2 MR 2, Chang Cheng Mee Wah. Wufu #01-157 CLEMENTI AVENUE 2 SHOPPING CENTRE 120354",
    "latitude": "1.3135",
    "longitude": "103.7709",
    "city": "Singapore",
    "country": "Singapore",
    "halalStatus": "full",
    "cuisine": "Hawker",
    "sourceUrl": "https://halal.muis.gov.sg/halal/establishments?id=EEHK25120000014",
    "sourceQuote": "MUIS halal certified (EEHK25120000014)",
    "verifiedMethod": "web-source",
    "source": "muis"
  },
  {
    "name": "$5 WESTERN (MR1) @BGAIN Eating House 121 Hougang",
    "address": "121 HOUGANG AVENUE 1 #01-1358 BGAIN 121 Eating House, MR1 530121",
    "latitude": "1.3538",
    "longitude": "103.8869",
    "city": "Singapore",
    "country": "Singapore",
    "halalStatus": "full",
    "cuisine": "Hawker",
    "sourceUrl": "https://halal.muis.gov.sg/halal/establishments?id=EEHK20250000456",
    "sourceQuote": "MUIS halal certified (EEHK20250000456)",
    "verifiedMethod": "web-source",
    "source": "muis"
  },
  {
    "name": "$5 WESTERN (S6) @ WU FU KALLANG HEIGHTS",
    "address": "5 UPPER BOON KENG ROAD #01-01 KALLANG HEIGHTS, Stall 6 380005",
    "latitude": "1.3127",
    "longitude": "103.8725",
    "city": "Singapore",
    "country": "Singapore",
    "halalStatus": "full",
    "cuisine": "Hawker",
    "sourceUrl": "https://halal.muis.gov.sg/halal/establishments?id=EEHK20230001159",
    "sourceQuote": "MUIS halal certified (EEHK20230001159)",
    "verifiedMethod": "web-source",
    "source": "muis"
  },
  {
    "name": "$5 Western(S5)@ HZB Canteen Wave 9",
    "address": "71 WOODLANDS INDUSTRIAL PARK E9 #01-04 WAVE9, STALL 5 757048",
    "latitude": "1.4485",
    "longitude": "103.7974",
    "city": "Singapore",
    "country": "Singapore",
    "halalStatus": "full",
    "cuisine": "Hawker",
    "sourceUrl": "https://halal.muis.gov.sg/halal/establishments?id=EEHK20240000455",
    "sourceQuote": "MUIS halal certified (EEHK20240000455)",
    "verifiedMethod": "web-source",
    "source": "muis"
  },
  {
    "name": "1001 Nights",
    "address": "11 Rua João Villaret, Lisboa, 1000-182",
    "latitude": "38.7451033",
    "longitude": "-9.1405396",
    "city": "Lisboa",
    "country": "Portugal",
    "halalStatus": "options",
    "cuisine": "persian",
    "sourceUrl": "https://www.openstreetmap.org/node/8321839453",
    "sourceQuote": "OpenStreetMap diet:halal=yes",
    "verifiedMethod": "web-source",
    "source": "osm"
  },
  {
    "name": "123burger",
    "address": "4150 Fayetteville Road, Raleigh, NC, 27603",
    "latitude": "35.7236523",
    "longitude": "-78.65280469999999",
    "city": "Raleigh, NC",
    "country": "USA",
    "halalStatus": "full",
    "cuisine": "",
    "sourceUrl": "https://www.zabihah.com/restaurants/192b7ccd-0fd9-4139-835a-9790eed2a703/123burger-raleigh-nc",
    "sourceQuote": "Zabihah listing — halal restaurant",
    "verifiedMethod": "web-source",
    "source": "zabihah"
  },
  {
    "name": "13 Kitchen",
    "address": "9012 TAMPINES STREET 93 #01-157 TAMPINES INDUSTRIAL PARK A RONG CHENG F&B, MR9 528845",
    "latitude": "1.3409",
    "longitude": "103.9437",
    "city": "Singapore",
    "country": "Singapore",
    "halalStatus": "full",
    "cuisine": "Hawker",
    "sourceUrl": "https://halal.muis.gov.sg/halal/establishments?id=EEHK20250000788",
    "sourceQuote": "MUIS halal certified (EEHK20250000788)",
    "verifiedMethod": "web-source",
    "source": "muis"
  },
  {
    "name": "13 Miles",
    "address": "749/751 NORTH BRIDGE ROAD #01 198717",
    "latitude": "1.3033",
    "longitude": "103.8592",
    "city": "Singapore",
    "country": "Singapore",
    "halalStatus": "full",
    "cuisine": "Restaurant",
    "sourceUrl": "https://halal.muis.gov.sg/halal/establishments?id=EERT20250000318",
    "sourceQuote": "MUIS halal certified (EERT20250000318)",
    "verifiedMethod": "web-source",
    "source": "muis"
  },
  {
    "name": "13 MILES",
    "address": "596B SEMBAWANG ROAD #01-00 SEMBAWANG SPRINGS ESTATE 758455",
    "latitude": "1.4409",
    "longitude": "103.8249",
    "city": "Singapore",
    "country": "Singapore",
    "halalStatus": "full",
    "cuisine": "Restaurant",
    "sourceUrl": "https://halal.muis.gov.sg/halal/establishments?id=EERN22010013435",
    "sourceQuote": "MUIS halal certified (EERN22010013435)",
    "verifiedMethod": "web-source",
    "source": "muis"
  },
  {
    "name": "149 Cafe @ TechnipFMC (Mngd By The Wok People)",
    "address": "149 GUL CIRCLE 629605",
    "latitude": "1.3211",
    "longitude": "103.6721",
    "city": "Singapore",
    "country": "Singapore",
    "halalStatus": "full",
    "cuisine": "Staff Canteen",
    "sourceUrl": "https://halal.muis.gov.sg/halal/establishments?id=EEFN21100012548",
    "sourceQuote": "MUIS halal certified (EEFN21100012548)",
    "verifiedMethod": "web-source",
    "source": "muis"
  },
  {
    "name": "156 Japanese Korean (S5)@Coffee & Tea Yishun",
    "address": "156 YISHUN STREET 11 #01-122, Stall 5 760156",
    "latitude": "1.4319",
    "longitude": "103.8336",
    "city": "Singapore",
    "country": "Singapore",
    "halalStatus": "full",
    "cuisine": "Hawker",
    "sourceUrl": "https://halal.muis.gov.sg/halal/establishments?id=EEHK20230000210",
    "sourceQuote": "MUIS halal certified (EEHK20230000210)",
    "verifiedMethod": "web-source",
    "source": "muis"
  },
  {
    "name": "1915 Lanzhou Beef Noodles Halal",
    "address": "265 Swanston Street, Melbourne, Victoria, 3000",
    "latitude": "-37.811988",
    "longitude": "144.9646919",
    "city": "Melbourne, Victoria",
    "country": "Australia",
    "halalStatus": "full",
    "cuisine": "",
    "sourceUrl": "https://www.zabihah.com/restaurants/f45ffbe2-8c20-4e28-9958-e4fc13934c2a/1915-lanzhou-beef-noodles-halal-melbourne-victoria",
    "sourceQuote": "Zabihah listing — halal restaurant",
    "verifiedMethod": "web-source",
    "source": "zabihah"
  },
  {
    "name": "1919 Master Lanzhou Halal Beef Noodles",
    "address": "1169 Pascoe Vale Road, Broadmeadows, Victoria, 3047",
    "latitude": "-37.6789189",
    "longitude": "144.9196139",
    "city": "Broadmeadows, Victoria",
    "country": "Australia",
    "halalStatus": "full",
    "cuisine": "",
    "sourceUrl": "https://www.zabihah.com/restaurants/a77d360a-5d50-4cb6-908b-aa39dccb980f/1919-master-lanzhou-halal-beef-noodles-broadmeadows-victoria",
    "sourceQuote": "Zabihah listing — halal restaurant",
    "verifiedMethod": "web-source",
    "source": "zabihah"
  },
  {
    "name": "1983 A Taste of Nanyang",
    "address": "70 STAMFORD ROAD #01-21 SINGAPORE MANAGEMENT UNIVERSITY 178901",
    "latitude": "1.2967",
    "longitude": "103.8501",
    "city": "Singapore",
    "country": "Singapore",
    "halalStatus": "full",
    "cuisine": "Restaurant",
    "sourceUrl": "https://halal.muis.gov.sg/halal/establishments?id=EERT20220001021",
    "sourceQuote": "MUIS halal certified (EERT20220001021)",
    "verifiedMethod": "web-source",
    "source": "muis"
  },
  {
    "name": "1983 Coffee & Toast",
    "address": "2 SIMEI STREET 3 #01-09/10 CHANGI GENERAL HOSPITAL 529889",
    "latitude": "1.3407",
    "longitude": "103.9494",
    "city": "Singapore",
    "country": "Singapore",
    "halalStatus": "full",
    "cuisine": "Restaurant",
    "sourceUrl": "https://halal.muis.gov.sg/halal/establishments?id=EERX21050012347",
    "sourceQuote": "MUIS halal certified (EERX21050012347)",
    "verifiedMethod": "web-source",
    "source": "muis"
  },
  {
    "name": "1A CRISPY PUFFS",
    "address": "3015 BEDOK NORTH STREET 5 #02-09 SHIMEI EAST KITCHEN 486350",
    "latitude": "1.3368",
    "longitude": "103.9474",
    "city": "Singapore",
    "country": "Singapore",
    "halalStatus": "full",
    "cuisine": "Central Kitchen",
    "sourceUrl": "https://halal.muis.gov.sg/halal/establishments?id=FPCN22020001663",
    "sourceQuote": "MUIS halal certified (FPCN22020001663)",
    "verifiedMethod": "web-source",
    "source": "muis"
  },
  {
    "name": "1A Heritage",
    "address": "209 New Upper Changi Road, Singapore, SG, 460209",
    "latitude": "1.3247647",
    "longitude": "103.93103049999999",
    "city": "Singapore, SG",
    "country": "Singapore",
    "halalStatus": "full",
    "cuisine": "",
    "sourceUrl": "https://www.zabihah.com/restaurants/6ffe9d16-ad95-4544-8e82-1b09489df2ae/1a-heritage-singapore-sg",
    "sourceQuote": "Zabihah listing — halal restaurant",
    "verifiedMethod": "web-source",
    "source": "zabihah"
  },
  {
    "name": "1A Heritage",
    "address": "53 ANG MO KIO AVENUE 3 #B2-34 AMK HUB 569933",
    "latitude": "1.3692",
    "longitude": "103.8485",
    "city": "Singapore",
    "country": "Singapore",
    "halalStatus": "full",
    "cuisine": "Snack Bar / Bakery",
    "sourceUrl": "https://halal.muis.gov.sg/halal/establishments?id=EEBN22020013106",
    "sourceQuote": "MUIS halal certified (EEBN22020013106)",
    "verifiedMethod": "web-source",
    "source": "muis"
  },
  {
    "name": "1A Heritage",
    "address": "391 ORCHARD ROAD TAKASHIMAYA SHOPPING CENTRE 238872",
    "latitude": "1.3024",
    "longitude": "103.8347",
    "city": "Singapore",
    "country": "Singapore",
    "halalStatus": "full",
    "cuisine": "Snack Bar / Bakery",
    "sourceUrl": "https://halal.muis.gov.sg/halal/establishments?id=EEBX22020013105",
    "sourceQuote": "MUIS halal certified (EEBX22020013105)",
    "verifiedMethod": "web-source",
    "source": "muis"
  },
  {
    "name": "1A Heritage",
    "address": "449 CLEMENTI AVENUE 3 #01-211, Stall 11 120449",
    "latitude": "1.3134",
    "longitude": "103.7649",
    "city": "Singapore",
    "country": "Singapore",
    "halalStatus": "full",
    "cuisine": "Hawker",
    "sourceUrl": "https://halal.muis.gov.sg/halal/establishments?id=EEHK20240000218",
    "sourceQuote": "MUIS halal certified (EEHK20240000218)",
    "verifiedMethod": "web-source",
    "source": "muis"
  },
  {
    "name": "1A Heritage",
    "address": "167 WOODLANDS STREET 11 #01-07 Foodhub, Stall 12 730167",
    "latitude": "1.4336",
    "longitude": "103.7759",
    "city": "Singapore",
    "country": "Singapore",
    "halalStatus": "full",
    "cuisine": "Hawker",
    "sourceUrl": "https://halal.muis.gov.sg/halal/establishments?id=EEHK20250000681",
    "sourceQuote": "MUIS halal certified (EEHK20250000681)",
    "verifiedMethod": "web-source",
    "source": "muis"
  },
  {
    "name": "1A Heritage",
    "address": "209 NEW UPPER CHANGI ROAD #01-633, Stall 12 460209",
    "latitude": "1.3247",
    "longitude": "103.9311",
    "city": "Singapore",
    "country": "Singapore",
    "halalStatus": "full",
    "cuisine": "Hawker",
    "sourceUrl": "https://halal.muis.gov.sg/halal/establishments?id=EEHN22020013189",
    "sourceQuote": "MUIS halal certified (EEHN22020013189)",
    "verifiedMethod": "web-source",
    "source": "muis"
  },
  {
    "name": "1M Kitchen @ Grand Hyatt",
    "address": "10 SCOTTS ROAD #1M GRAND HYATT SINGAPORE, 1M Kitchen for Straits Kitchen 228211",
    "latitude": "1.3065",
    "longitude": "103.8341",
    "city": "Singapore",
    "country": "Singapore",
    "halalStatus": "full",
    "cuisine": "Central Kitchen",
    "sourceUrl": "https://halal.muis.gov.sg/halal/establishments?id=FPCK20240000740",
    "sourceQuote": "MUIS halal certified (FPCK20240000740)",
    "verifiedMethod": "web-source",
    "source": "muis"
  },
  {
    "name": "2 Foodies",
    "address": "348 Elizabeth Drive, Mount Pritchard, New South Wales, 2170",
    "latitude": "-33.9031892",
    "longitude": "150.8966295",
    "city": "Mount Pritchard, New South Wales",
    "country": "Australia",
    "halalStatus": "full",
    "cuisine": "",
    "sourceUrl": "https://www.zabihah.com/restaurants/9b726a24-9477-4f94-b7b8-e36b9d9f8418/2-foodies-mount-pritchard-new-south-wales",
    "sourceQuote": "Zabihah listing — halal restaurant",
    "verifiedMethod": "web-source",
    "source": "zabihah"
  },
  {
    "name": "203° Fahrenheit Coffee Co",
    "address": "11901 Northeast Village Plaza, Kirkland, WA, 98034",
    "latitude": "47.7123679",
    "longitude": "-122.1804678",
    "city": "Kirkland, WA",
    "country": "USA",
    "halalStatus": "full",
    "cuisine": "",
    "sourceUrl": "https://www.zabihah.com/restaurants/b0c3a888-f3fd-44e6-8cbc-2ff6e1092ee7/203-fahrenheit-coffee-co-kirkland-wa",
    "sourceQuote": "Zabihah listing — halal restaurant",
    "verifiedMethod": "web-source",
    "source": "zabihah"
  },
  {
    "name": "21 On Rajah",
    "address": "1 JALAN RAJAH #01 329133",
    "latitude": "1.327",
    "longitude": "103.8474",
    "city": "Singapore",
    "country": "Singapore",
    "halalStatus": "full",
    "cuisine": "Restaurant",
    "sourceUrl": "https://halal.muis.gov.sg/halal/establishments?id=EERN21060012456",
    "sourceQuote": "MUIS halal certified (EERN21060012456)",
    "verifiedMethod": "web-source",
    "source": "muis"
  },
  {
    "name": "28 MCC NASI AYAM",
    "address": "2 JOO CHIAT ROAD MR05 #01-1127 Chew And Chat Food Court 420002",
    "latitude": "1.3156",
    "longitude": "103.899",
    "city": "Singapore",
    "country": "Singapore",
    "halalStatus": "full",
    "cuisine": "Hawker",
    "sourceUrl": "https://halal.muis.gov.sg/halal/establishments?id=EEHK20250000687",
    "sourceQuote": "MUIS halal certified (EEHK20250000687)",
    "verifiedMethod": "web-source",
    "source": "muis"
  },
  {
    "name": "2nd Wife Ristorante",
    "address": "47 Via Savorgnana, Udine, 33100",
    "latitude": "46.0602782",
    "longitude": "13.2378839",
    "city": "Udine",
    "country": "Italy",
    "halalStatus": "full",
    "cuisine": "",
    "sourceUrl": "https://www.openstreetmap.org/node/3749001559",
    "sourceQuote": "OpenStreetMap diet:halal=only",
    "verifiedMethod": "web-source",
    "source": "osm"
  },
  {
    "name": "3 Embers Culinary Craft Pte Ltd",
    "address": "2 SENOKO SOUTH ROAD #06-01 758096",
    "latitude": "1.4593",
    "longitude": "103.8049",
    "city": "Singapore",
    "country": "Singapore",
    "halalStatus": "full",
    "cuisine": "Catering Company",
    "sourceUrl": "https://halal.muis.gov.sg/halal/establishments?id=FPCA26060000037",
    "sourceQuote": "MUIS halal certified (FPCA26060000037)",
    "verifiedMethod": "web-source",
    "source": "muis"
  },
  {
    "name": "3 EMBERS CULINARY CRAFT PTE. LTD.",
    "address": "1 TURF CLUB AVENUE #2M SINGAPORE RACECOURSE 738078",
    "latitude": "1.4223",
    "longitude": "103.7609",
    "city": "Singapore",
    "country": "Singapore",
    "halalStatus": "full",
    "cuisine": "Catering Company",
    "sourceUrl": "https://halal.muis.gov.sg/halal/establishments?id=FPCA20230001121",
    "sourceQuote": "MUIS halal certified (FPCA20230001121)",
    "verifiedMethod": "web-source",
    "source": "muis"
  },
  {
    "name": "3 EMBERS CULINARY CRAFT PTE. LTD.",
    "address": "1 RAFFLES BOULEVARD #04-00 SUNTEC CONVENTION CENTRE 039593",
    "latitude": "1.2935",
    "longitude": "103.8573",
    "city": "Singapore",
    "country": "Singapore",
    "halalStatus": "full",
    "cuisine": "Catering Company",
    "sourceUrl": "https://halal.muis.gov.sg/halal/establishments?id=FPCA20240000203",
    "sourceQuote": "MUIS halal certified (FPCA20240000203)",
    "verifiedMethod": "web-source",
    "source": "muis"
  },
  {
    "name": "406 WESTERN (S6) @ WU FU TAMPINES ST 41",
    "address": "406 TAMPINES STREET 41 #01-07 SUN PLAZA GREEN, Stall 6 520406",
    "latitude": "1.3578",
    "longitude": "103.9458",
    "city": "Singapore",
    "country": "Singapore",
    "halalStatus": "full",
    "cuisine": "Hawker",
    "sourceUrl": "https://halal.muis.gov.sg/halal/establishments?id=EEHK20240001225",
    "sourceQuote": "MUIS halal certified (EEHK20240001225)",
    "verifiedMethod": "web-source",
    "source": "muis"
  },
  {
    "name": "4FINGERS CRISPY CHICKEN",
    "address": "225 JALAN KAYU 799449",
    "latitude": "1.3959",
    "longitude": "103.8728",
    "city": "Singapore",
    "country": "Singapore",
    "halalStatus": "full",
    "cuisine": "Snack Bar / Bakery",
    "sourceUrl": "https://halal.muis.gov.sg/halal/establishments?id=EEBN21070012391",
    "sourceQuote": "MUIS halal certified (EEBN21070012391)",
    "verifiedMethod": "web-source",
    "source": "muis"
  },
  {
    "name": "4FINGERS CRISPY CHICKEN",
    "address": "56 NEW UPPER CHANGI ROAD #01-1316 461056",
    "latitude": "1.325",
    "longitude": "103.9411",
    "city": "Singapore",
    "country": "Singapore",
    "halalStatus": "full",
    "cuisine": "Snack Bar / Bakery",
    "sourceUrl": "https://halal.muis.gov.sg/halal/establishments?id=EEBN21120013062",
    "sourceQuote": "MUIS halal certified (EEBN21120013062)",
    "verifiedMethod": "web-source",
    "source": "muis"
  },
  {
    "name": "4FINGERS CRISPY CHICKEN",
    "address": "2 MAJU AVENUE MR2 SERANGOON GARDEN ESTATE 556680",
    "latitude": "1.3646",
    "longitude": "103.8657",
    "city": "Singapore",
    "country": "Singapore",
    "halalStatus": "full",
    "cuisine": "Hawker",
    "sourceUrl": "https://halal.muis.gov.sg/halal/establishments?id=EEHK26010000034",
    "sourceQuote": "MUIS halal certified (EEHK26010000034)",
    "verifiedMethod": "web-source",
    "source": "muis"
  },
  {
    "name": "4FINGERS CRISPY CHICKEN",
    "address": "302 Tiong Bahru Road #01-105 Tiong Bahru Plaza 168732",
    "latitude": "1.2864",
    "longitude": "103.8273",
    "city": "Singapore",
    "country": "Singapore",
    "halalStatus": "full",
    "cuisine": "Restaurant",
    "sourceUrl": "https://halal.muis.gov.sg/halal/establishments?id=EERN21070012583",
    "sourceQuote": "MUIS halal certified (EERN21070012583)",
    "verifiedMethod": "web-source",
    "source": "muis"
  },
  {
    "name": "4FINGERS CRISPY CHICKEN",
    "address": "277 ORCHARD ROAD #01-04/05 ORCHARD GATEWAY 238858",
    "latitude": "1.3005",
    "longitude": "103.8395",
    "city": "Singapore",
    "country": "Singapore",
    "halalStatus": "full",
    "cuisine": "Restaurant",
    "sourceUrl": "https://halal.muis.gov.sg/halal/establishments?id=EERN21070012584",
    "sourceQuote": "MUIS halal certified (EERN21070012584)",
    "verifiedMethod": "web-source",
    "source": "muis"
  },
  {
    "name": "4FINGERS CRISPY CHICKEN",
    "address": "1 WOODLANDS SQUARE #01-38/39 CAUSEWAY POINT 738099",
    "latitude": "1.436",
    "longitude": "103.786",
    "city": "Singapore",
    "country": "Singapore",
    "halalStatus": "full",
    "cuisine": "Restaurant",
    "sourceUrl": "https://halal.muis.gov.sg/halal/establishments?id=EERN21070012586",
    "sourceQuote": "MUIS halal certified (EERN21070012586)",
    "verifiedMethod": "web-source",
    "source": "muis"
  },
  {
    "name": "4FINGERS CRISPY CHICKEN",
    "address": "9 BISHAN PLACE #01-32 JUNCTION 8 SHOPPING CENTRE 579837",
    "latitude": "1.3503",
    "longitude": "103.8486",
    "city": "Singapore",
    "country": "Singapore",
    "halalStatus": "full",
    "cuisine": "Restaurant",
    "sourceUrl": "https://halal.muis.gov.sg/halal/establishments?id=EERN21070012627",
    "sourceQuote": "MUIS halal certified (EERN21070012627)",
    "verifiedMethod": "web-source",
    "source": "muis"
  },
  {
    "name": "4FINGERS CRISPY CHICKEN",
    "address": "60 PAYA LEBAR ROAD #01-89, #01-90 PAYA LEBAR SQUARE 409051",
    "latitude": "1.3188",
    "longitude": "103.8926",
    "city": "Singapore",
    "country": "Singapore",
    "halalStatus": "full",
    "cuisine": "Restaurant",
    "sourceUrl": "https://halal.muis.gov.sg/halal/establishments?id=EERT20220000104",
    "sourceQuote": "MUIS halal certified (EERT20220000104)",
    "verifiedMethod": "web-source",
    "source": "muis"
  },
  {
    "name": "4FINGERS CRISPY CHICKEN",
    "address": "418 NORTHSHORE DRIVE #01-09/10/12 NORTHSHORE PLAZA II 820418",
    "latitude": "1.418",
    "longitude": "103.9013",
    "city": "Singapore",
    "country": "Singapore",
    "halalStatus": "full",
    "cuisine": "Restaurant",
    "sourceUrl": "https://halal.muis.gov.sg/halal/establishments?id=EERT20220000481",
    "sourceQuote": "MUIS halal certified (EERT20220000481)",
    "verifiedMethod": "web-source",
    "source": "muis"
  },
  {
    "name": "4FINGERS CRISPY CHICKEN",
    "address": "1 HARBOURFRONT WALK #02-120 VIVO CITY 098585",
    "latitude": "1.2642",
    "longitude": "103.8224",
    "city": "Singapore",
    "country": "Singapore",
    "halalStatus": "full",
    "cuisine": "Restaurant",
    "sourceUrl": "https://halal.muis.gov.sg/halal/establishments?id=EERT20230000162",
    "sourceQuote": "MUIS halal certified (EERT20230000162)",
    "verifiedMethod": "web-source",
    "source": "muis"
  },
  {
    "name": "4FINGERS CRISPY CHICKEN",
    "address": "10 TAMPINES CENTRAL 1 #01-39/40/K3/K4 TAMPINES ONE 529536",
    "latitude": "1.3543",
    "longitude": "103.9451",
    "city": "Singapore",
    "country": "Singapore",
    "halalStatus": "full",
    "cuisine": "Restaurant",
    "sourceUrl": "https://halal.muis.gov.sg/halal/establishments?id=EERT20240000434",
    "sourceQuote": "MUIS halal certified (EERT20240000434)",
    "verifiedMethod": "web-source",
    "source": "muis"
  },
  {
    "name": "4FINGERS CRISPY CHICKEN",
    "address": "1 JURONG WEST CENTRAL 2 #02-42 JURONG POINT 648886",
    "latitude": "1.3396",
    "longitude": "103.7067",
    "city": "Singapore",
    "country": "Singapore",
    "halalStatus": "full",
    "cuisine": "Restaurant",
    "sourceUrl": "https://halal.muis.gov.sg/halal/establishments?id=EERT20240001250",
    "sourceQuote": "MUIS halal certified (EERT20240001250)",
    "verifiedMethod": "web-source",
    "source": "muis"
  },
  {
    "name": "4FINGERS CRISPY CHICKEN",
    "address": "17 PETIR ROAD #B1-65A HILLION MALL 678278",
    "latitude": "1.3784",
    "longitude": "103.7631",
    "city": "Singapore",
    "country": "Singapore",
    "halalStatus": "full",
    "cuisine": "Restaurant",
    "sourceUrl": "https://halal.muis.gov.sg/halal/establishments?id=EERT20250000879",
    "sourceQuote": "MUIS halal certified (EERT20250000879)",
    "verifiedMethod": "web-source",
    "source": "muis"
  },
  {
    "name": "4FINGERS CRISPY CHICKEN",
    "address": "50 JURONG GATEWAY ROAD #01-15A, #01-15 JEM 608549",
    "latitude": "1.3328",
    "longitude": "103.7433",
    "city": "Singapore",
    "country": "Singapore",
    "halalStatus": "full",
    "cuisine": "Restaurant",
    "sourceUrl": "https://halal.muis.gov.sg/halal/establishments?id=EERT25100000059",
    "sourceQuote": "MUIS halal certified (EERT25100000059)",
    "verifiedMethod": "web-source",
    "source": "muis"
  },
  {
    "name": "4FINGERS CRISPY CHICKEN",
    "address": "4 BUKIT BATOK STREET 41 #01-14/15 LE QUEST 657991",
    "latitude": "1.3559",
    "longitude": "103.7411",
    "city": "Singapore",
    "country": "Singapore",
    "halalStatus": "full",
    "cuisine": "Restaurant",
    "sourceUrl": "https://halal.muis.gov.sg/halal/establishments?id=EERT26040000039",
    "sourceQuote": "MUIS halal certified (EERT26040000039)",
    "verifiedMethod": "web-source",
    "source": "muis"
  },
  {
    "name": "4FINGERS CRISPY CHICKEN",
    "address": "23 SERANGOON CENTRAL #B2-50/51 NEX 556083",
    "latitude": "1.3507",
    "longitude": "103.8719",
    "city": "Singapore",
    "country": "Singapore",
    "halalStatus": "full",
    "cuisine": "Restaurant",
    "sourceUrl": "https://halal.muis.gov.sg/halal/establishments?id=EERT26040000040",
    "sourceQuote": "MUIS halal certified (EERT26040000040)",
    "verifiedMethod": "web-source",
    "source": "muis"
  },
  {
    "name": "4FINGERS CRISPY CHICKEN",
    "address": "65 AIRPORT BOULEVARD #B2-02 CHANGI AIRPORT TERMINAL 3 819663",
    "latitude": "1.3553",
    "longitude": "103.9858",
    "city": "Singapore",
    "country": "Singapore",
    "halalStatus": "full",
    "cuisine": "Restaurant",
    "sourceUrl": "https://halal.muis.gov.sg/halal/establishments?id=EERX21070012609",
    "sourceQuote": "MUIS halal certified (EERX21070012609)",
    "verifiedMethod": "web-source",
    "source": "muis"
  },
  {
    "name": "4FINGERS CRISPY CHICKEN",
    "address": "1 YISHUN AVENUE 9 #01-03 NEE SOON EAST COMMUNITY CLUB 768893",
    "latitude": "1.4309",
    "longitude": "103.8385",
    "city": "Singapore",
    "country": "Singapore",
    "halalStatus": "full",
    "cuisine": "Restaurant",
    "sourceUrl": "https://halal.muis.gov.sg/halal/establishments?id=EESB20220000052",
    "sourceQuote": "MUIS halal certified (EESB20220000052)",
    "verifiedMethod": "web-source",
    "source": "muis"
  },
  {
    "name": "4FINGERS CRISPY CHICKEN",
    "address": "601 BALESTIER ROAD 329903",
    "latitude": "1.3263",
    "longitude": "103.8434",
    "city": "Singapore",
    "country": "Singapore",
    "halalStatus": "full",
    "cuisine": "Snack Bar / Bakery",
    "sourceUrl": "https://halal.muis.gov.sg/halal/establishments?id=EESB20220000818",
    "sourceQuote": "MUIS halal certified (EESB20220000818)",
    "verifiedMethod": "web-source",
    "source": "muis"
  },
  {
    "name": "4FINGERS CRISPY CHICKEN",
    "address": "988 UPPER SERANGOON ROAD #01-35 STARS OF KOVAN 534733",
    "latitude": "1.3615",
    "longitude": "103.8872",
    "city": "Singapore",
    "country": "Singapore",
    "halalStatus": "full",
    "cuisine": "Snack Bar / Bakery",
    "sourceUrl": "https://halal.muis.gov.sg/halal/establishments?id=EESB20240000025",
    "sourceQuote": "MUIS halal certified (EESB20240000025)",
    "verifiedMethod": "web-source",
    "source": "muis"
  },
  {
    "name": "511 Nasi Lemak",
    "address": "511 BEDOK NORTH STREET 3 stall 10 #01-41 KAKI BUKIT 511 MARKET AND FOOD CENTRE 460511",
    "latitude": "1.3332",
    "longitude": "103.9306",
    "city": "Singapore",
    "country": "Singapore",
    "halalStatus": "full",
    "cuisine": "Hawker",
    "sourceUrl": "https://halal.muis.gov.sg/halal/establishments?id=EEHK26010000045",
    "sourceQuote": "MUIS halal certified (EEHK26010000045)",
    "verifiedMethod": "web-source",
    "source": "muis"
  },
  {
    "name": "54 BAKERY CAFE",
    "address": "2 VENTURE DRIVE #02-46 VISION EXCHANGE 608526",
    "latitude": "1.3302",
    "longitude": "103.7446",
    "city": "Singapore",
    "country": "Singapore",
    "halalStatus": "full",
    "cuisine": "Restaurant",
    "sourceUrl": "https://halal.muis.gov.sg/halal/establishments?id=EERN21060012447",
    "sourceQuote": "MUIS halal certified (EERN21060012447)",
    "verifiedMethod": "web-source",
    "source": "muis"
  },
  {
    "name": "7 DAYS MAKAN DI PASIR RIS",
    "address": "10 PASIR RIS CENTRAL #01-08 PASIR RIS MRT STATION 519634",
    "latitude": "1.373",
    "longitude": "103.9493",
    "city": "Singapore",
    "country": "Singapore",
    "halalStatus": "full",
    "cuisine": "Snack Bar / Bakery",
    "sourceUrl": "https://halal.muis.gov.sg/halal/establishments?id=EESB20220000778",
    "sourceQuote": "MUIS halal certified (EESB20220000778)",
    "verifiedMethod": "web-source",
    "source": "muis"
  },
  {
    "name": "7 Grams Korean Fried Chicken &amp; Wings",
    "address": "40 Benningfield Road, Bull Creek, Western Australia, 6149",
    "latitude": "-32.064826499999995",
    "longitude": "115.8565342",
    "city": "Bull Creek, Western Australia",
    "country": "Australia",
    "halalStatus": "full",
    "cuisine": "",
    "sourceUrl": "https://www.zabihah.com/restaurants/45863c6e-6eec-4fb1-a9aa-ee6fe6bff485/7-grams-korean-fried-chicken-wings-bull-creek-western-australia",
    "sourceQuote": "Zabihah listing — halal restaurant",
    "verifiedMethod": "web-source",
    "source": "zabihah"
  },
  {
    "name": "7 Spices Indian Cuisine",
    "address": "10190 West Sample Road, Coral Springs, Florida, 33065",
    "latitude": "26.272084399999997",
    "longitude": "-80.2621223",
    "city": "Coral Springs, Florida",
    "country": "USA",
    "halalStatus": "full",
    "cuisine": "",
    "sourceUrl": "https://www.zabihah.com/restaurants/edba6e1b-056b-425c-a779-aed0be2b45b7/7-spices-indian-cuisine-coral-springs-florida",
    "sourceQuote": "Zabihah listing — halal restaurant",
    "verifiedMethod": "web-source",
    "source": "zabihah"
  },
  {
    "name": "786 Banana Leaf",
    "address": "306A WOODLANDS STREET 31 Stall MR3 @ Mr Teh Tarik Eating House #01-01 FUCHUN NEIGHBOURHOOD CENTRE 731306",
    "latitude": "1.4301",
    "longitude": "103.7751",
    "city": "Singapore",
    "country": "Singapore",
    "halalStatus": "full",
    "cuisine": "Hawker",
    "sourceUrl": "https://halal.muis.gov.sg/halal/establishments?id=EEHK26020000085",
    "sourceQuote": "MUIS halal certified (EEHK26020000085)",
    "verifiedMethod": "web-source",
    "source": "muis"
  },
  {
    "name": "810 Tings",
    "address": "300 East 1st Street, Flint, MI, 48502",
    "latitude": "43.0170525",
    "longitude": "-83.6871951",
    "city": "Flint, MI",
    "country": "USA",
    "halalStatus": "full",
    "cuisine": "",
    "sourceUrl": "https://www.zabihah.com/restaurants/3f2dc1a1-5703-4dad-bace-2cb574f3158b/810-tings-flint-mi",
    "sourceQuote": "Zabihah listing — halal restaurant",
    "verifiedMethod": "web-source",
    "source": "zabihah"
  },
  {
    "name": "97 NASI LEMAK",
    "address": "51 OLD AIRPORT ROAD #01-97 OLD AIRPORT ROAD HAWKERS' CENTRE 390051",
    "latitude": "1.3082",
    "longitude": "103.8858",
    "city": "Singapore",
    "country": "Singapore",
    "halalStatus": "full",
    "cuisine": "Hawker",
    "sourceUrl": "https://halal.muis.gov.sg/halal/establishments?id=EEHN21100012938",
    "sourceQuote": "MUIS halal certified (EEHN21100012938)",
    "verifiedMethod": "web-source",
    "source": "muis"
  },
  {
    "name": "97 NASI LEMAK",
    "address": "16 RAFFLES QUAY #B1-31/32 HONG LEONG BUILDING 048581",
    "latitude": "1.2814",
    "longitude": "103.8509",
    "city": "Singapore",
    "country": "Singapore",
    "halalStatus": "full",
    "cuisine": "Restaurant",
    "sourceUrl": "https://halal.muis.gov.sg/halal/establishments?id=EERT20240000165",
    "sourceQuote": "MUIS halal certified (EERT20240000165)",
    "verifiedMethod": "web-source",
    "source": "muis"
  },
  {
    "name": "97 NASI LEMAK (S33) @ ANCHORVALE VILLAGE HAWKER CENTRE",
    "address": "339 ANCHORVALE ROAD #02-33 540339",
    "latitude": "1.3968",
    "longitude": "103.8884",
    "city": "Singapore",
    "country": "Singapore",
    "halalStatus": "full",
    "cuisine": "Hawker",
    "sourceUrl": "https://halal.muis.gov.sg/halal/establishments?id=EEHK20240001042",
    "sourceQuote": "MUIS halal certified (EEHK20240001042)",
    "verifiedMethod": "web-source",
    "source": "muis"
  },
  {
    "name": "A Brothers Kebab & Pizza",
    "address": "5A Chester Hill Road",
    "latitude": "-33.883343",
    "longitude": "151.000836",
    "city": "",
    "country": "Australia",
    "halalStatus": "options",
    "cuisine": "turkish;kebab;burger;pizza",
    "sourceUrl": "https://www.openstreetmap.org/node/13784036120",
    "sourceQuote": "OpenStreetMap diet:halal=yes",
    "verifiedMethod": "web-source",
    "source": "osm"
  },
  {
    "name": "A Fartalla",
    "address": "44-46 Calle de Fray Julián Garcés, Zaragoza, Aragon, 50007",
    "latitude": "41.6298107",
    "longitude": "-0.8875938",
    "city": "Zaragoza, Aragon",
    "country": "Spain",
    "halalStatus": "full",
    "cuisine": "",
    "sourceUrl": "https://www.zabihah.com/restaurants/efb153a0-b8f6-4947-80b1-3f33e6002a17/a-fartalla-zaragoza-aragon",
    "sourceQuote": "Zabihah listing — halal restaurant",
    "verifiedMethod": "web-source",
    "source": "zabihah"
  },
  {
    "name": "A la turca",
    "address": "123 Carrer Nou de la Rambla, 08004",
    "latitude": "41.3736682",
    "longitude": "2.1688262",
    "city": "",
    "country": "Spain",
    "halalStatus": "options",
    "cuisine": "turkish",
    "sourceUrl": "https://www.openstreetmap.org/node/10780364141",
    "sourceQuote": "OpenStreetMap diet:halal=yes",
    "verifiedMethod": "web-source",
    "source": "osm"
  },
  {
    "name": "A La Turca",
    "address": "8 Calle Martínez Maldonado, Málaga, Andalucía, 29007",
    "latitude": "36.7214919",
    "longitude": "-4.4322404",
    "city": "Málaga, Andalucía",
    "country": "Spain",
    "halalStatus": "options",
    "cuisine": "",
    "sourceUrl": "https://www.zabihah.com/restaurants/cb787851-7767-11ef-95ae-6045bdeb9f57/a-la-turca-mlaga-andaluca",
    "sourceQuote": "Zabihah: partially halal",
    "verifiedMethod": "web-source",
    "source": "zabihah"
  },
  {
    "name": "A Tangerine Wok",
    "address": "21 TAMPINES AVENUE 1 Stall 3 Block 1A Foodgle @ Sprout #02-76 TEMASEK POLYTECHNIC 529757",
    "latitude": "1.3458",
    "longitude": "103.932",
    "city": "Singapore",
    "country": "Singapore",
    "halalStatus": "full",
    "cuisine": "Hawker",
    "sourceUrl": "https://halal.muis.gov.sg/halal/establishments?id=EEHK26030000029",
    "sourceQuote": "MUIS halal certified (EEHK26030000029)",
    "verifiedMethod": "web-source",
    "source": "muis"
  },
  {
    "name": "A-Po Hokkien Mee (MR1) @ The Food Market Century Square",
    "address": "2 TAMPINES CENTRAL 5 #03-19 CENTURY SQUARE, MR1 529509",
    "latitude": "1.3524",
    "longitude": "103.9438",
    "city": "Singapore",
    "country": "Singapore",
    "halalStatus": "full",
    "cuisine": "Hawker",
    "sourceUrl": "https://halal.muis.gov.sg/halal/establishments?id=EEHN22010013112",
    "sourceQuote": "MUIS halal certified (EEHN22010013112)",
    "verifiedMethod": "web-source",
    "source": "muis"
  },
  {
    "name": "A-Po Hokkien Mee (S6)@Kopitiam Northpoint City",
    "address": "930 YISHUN AVENUE 2 #B2-12, Stall 6 769098",
    "latitude": "1.4296",
    "longitude": "103.836",
    "city": "Singapore",
    "country": "Singapore",
    "halalStatus": "full",
    "cuisine": "Hawker",
    "sourceUrl": "https://halal.muis.gov.sg/halal/establishments?id=EEHK20240000221",
    "sourceQuote": "MUIS halal certified (EEHK20240000221)",
    "verifiedMethod": "web-source",
    "source": "muis"
  },
  {
    "name": "A-PO Hokkien Mee (S9)@Food Junction Lot One",
    "address": "21 CHOA CHU KANG AVENUE 4 #04-16 LOT ONE, SHOPPERS' MALL, Stall 9 689812",
    "latitude": "1.385",
    "longitude": "103.745",
    "city": "Singapore",
    "country": "Singapore",
    "halalStatus": "full",
    "cuisine": "Hawker",
    "sourceUrl": "https://halal.muis.gov.sg/halal/establishments?id=EEHK20230000110",
    "sourceQuote": "MUIS halal certified (EEHK20230000110)",
    "verifiedMethod": "web-source",
    "source": "muis"
  },
  {
    "name": "A-POH KITCHEN",
    "address": "354 CLEMENTI AVENUE 2 #01-223 CLEMENTI AVENUE 2 SHOPPING CENTRE 120354",
    "latitude": "1.3135",
    "longitude": "103.7709",
    "city": "Singapore",
    "country": "Singapore",
    "halalStatus": "full",
    "cuisine": "Restaurant",
    "sourceUrl": "https://halal.muis.gov.sg/halal/establishments?id=EERT26030000038",
    "sourceQuote": "MUIS halal certified (EERT26030000038)",
    "verifiedMethod": "web-source",
    "source": "muis"
  },
  {
    "name": "A&W",
    "address": "63 JURONG WEST CENTRAL 3 #03-42-47 /K3-K4, JURONG POINT 648331",
    "latitude": "1.3393",
    "longitude": "103.7053",
    "city": "Singapore",
    "country": "Singapore",
    "halalStatus": "full",
    "cuisine": "Restaurant",
    "sourceUrl": "https://halal.muis.gov.sg/halal/establishments?id=EERN21110013209",
    "sourceQuote": "MUIS halal certified (EERN21110013209)",
    "verifiedMethod": "web-source",
    "source": "muis"
  },
  {
    "name": "A&W",
    "address": "78 AIRPORT BOULEVARD #B2-209 819666",
    "latitude": "1.3601",
    "longitude": "103.9895",
    "city": "Singapore",
    "country": "Singapore",
    "halalStatus": "full",
    "cuisine": "Restaurant",
    "sourceUrl": "https://halal.muis.gov.sg/halal/establishments?id=EERN21110013210",
    "sourceQuote": "MUIS halal certified (EERN21110013210)",
    "verifiedMethod": "web-source",
    "source": "muis"
  },
  {
    "name": "A&W",
    "address": "53 ANG MO KIO AVENUE 3 #B1-47/48/ 51/51A AMK HUB 569933",
    "latitude": "1.3692",
    "longitude": "103.8485",
    "city": "Singapore",
    "country": "Singapore",
    "halalStatus": "full",
    "cuisine": "Restaurant",
    "sourceUrl": "https://halal.muis.gov.sg/halal/establishments?id=EERN21110013211",
    "sourceQuote": "MUIS halal certified (EERN21110013211)",
    "verifiedMethod": "web-source",
    "source": "muis"
  },
  {
    "name": "A&W",
    "address": "133 CANBERRA VIEW #01-04/26/27 CANBERRA PLAZA 750133",
    "latitude": "1.4435",
    "longitude": "103.8303",
    "city": "Singapore",
    "country": "Singapore",
    "halalStatus": "full",
    "cuisine": "Restaurant",
    "sourceUrl": "https://halal.muis.gov.sg/halal/establishments?id=EERN21110013212",
    "sourceQuote": "MUIS halal certified (EERN21110013212)",
    "verifiedMethod": "web-source",
    "source": "muis"
  },
  {
    "name": "A&W",
    "address": "418 NORTHSHORE DRIVE #01-01/02/03 NORTHSHORE PLAZA II 820418",
    "latitude": "1.418",
    "longitude": "103.9013",
    "city": "Singapore",
    "country": "Singapore",
    "halalStatus": "full",
    "cuisine": "Restaurant",
    "sourceUrl": "https://halal.muis.gov.sg/halal/establishments?id=EERN22030013539",
    "sourceQuote": "MUIS halal certified (EERN22030013539)",
    "verifiedMethod": "web-source",
    "source": "muis"
  },
  {
    "name": "A&W",
    "address": "678A WOODLANDS AVENUE 6 #02-01/02/03 ADMIRALTY PLACE 731678",
    "latitude": "1.4404",
    "longitude": "103.8016",
    "city": "Singapore",
    "country": "Singapore",
    "halalStatus": "full",
    "cuisine": "Restaurant",
    "sourceUrl": "https://halal.muis.gov.sg/halal/establishments?id=EERT20230000266",
    "sourceQuote": "MUIS halal certified (EERT20230000266)",
    "verifiedMethod": "web-source",
    "source": "muis"
  },
  {
    "name": "A&W",
    "address": "11 BIDADARI PARK DRIVE #01-40 THE WOODLEIGH MALL 367803",
    "latitude": "1.3387",
    "longitude": "103.8717",
    "city": "Singapore",
    "country": "Singapore",
    "halalStatus": "full",
    "cuisine": "Restaurant",
    "sourceUrl": "https://halal.muis.gov.sg/halal/establishments?id=EERT20230000777",
    "sourceQuote": "MUIS halal certified (EERT20230000777)",
    "verifiedMethod": "web-source",
    "source": "muis"
  },
  {
    "name": "A&W",
    "address": "339 ANCHORVALE ROAD #01-15/16/26 540339",
    "latitude": "1.3968",
    "longitude": "103.8884",
    "city": "Singapore",
    "country": "Singapore",
    "halalStatus": "full",
    "cuisine": "Restaurant",
    "sourceUrl": "https://halal.muis.gov.sg/halal/establishments?id=EERT20240000703",
    "sourceQuote": "MUIS halal certified (EERT20240000703)",
    "verifiedMethod": "web-source",
    "source": "muis"
  },
  {
    "name": "A&W",
    "address": "1 HARBOURFRONT WALK #B2-43/58 VIVO CITY 098585",
    "latitude": "1.2642",
    "longitude": "103.8224",
    "city": "Singapore",
    "country": "Singapore",
    "halalStatus": "full",
    "cuisine": "Restaurant",
    "sourceUrl": "https://halal.muis.gov.sg/halal/establishments?id=EERT25100000110",
    "sourceQuote": "MUIS halal certified (EERT25100000110)",
    "verifiedMethod": "web-source",
    "source": "muis"
  },
  {
    "name": "A&W",
    "address": "300 TAMPINES AVENUE 5 #01-07 INCOME AT TAMPINES JUNCTION 529653",
    "latitude": "1.3523",
    "longitude": "103.9419",
    "city": "Singapore",
    "country": "Singapore",
    "halalStatus": "full",
    "cuisine": "Restaurant",
    "sourceUrl": "https://halal.muis.gov.sg/halal/establishments?id=EERT26030000022",
    "sourceQuote": "MUIS halal certified (EERT26030000022)",
    "verifiedMethod": "web-source",
    "source": "muis"
  },
  {
    "name": "A5 Wagyu Burger Gyumon Ginza",
    "address": "1階, Chuo City, Tokyo, 104-0061",
    "latitude": "35.6694378",
    "longitude": "139.7650715",
    "city": "Chuo City, Tokyo",
    "country": "Japan",
    "halalStatus": "full",
    "cuisine": "",
    "sourceUrl": "https://www.zabihah.com/restaurants/05dcac5d-0cd3-4410-a314-34ca2b645404/a5-wagyu-burger-gyumon-ginza-chuo-city-tokyo",
    "sourceQuote": "Zabihah listing — halal restaurant",
    "verifiedMethod": "web-source",
    "source": "zabihah"
  },
  {
    "name": "Aban",
    "address": "9527 Westheimer Road, Houston, TX, 77063",
    "latitude": "29.7362315",
    "longitude": "-95.53415869999999",
    "city": "Houston, TX",
    "country": "USA",
    "halalStatus": "full",
    "cuisine": "",
    "sourceUrl": "https://www.zabihah.com/restaurants/85e9d775-5b4f-458f-bacb-d00c06f2054d/aban-houston-tx",
    "sourceQuote": "Zabihah listing — halal restaurant",
    "verifiedMethod": "web-source",
    "source": "zabihah"
  },
  {
    "name": "Abang 991 Nasi Padang",
    "address": "991 BUANGKOK LINK MR5, KOUFU #02-21 BUANGKOK SQUARE 530991",
    "latitude": "1.3843",
    "longitude": "103.8816",
    "city": "Singapore",
    "country": "Singapore",
    "halalStatus": "full",
    "cuisine": "Hawker",
    "sourceUrl": "https://halal.muis.gov.sg/halal/establishments?id=EEHK26010000067",
    "sourceQuote": "MUIS halal certified (EEHK26010000067)",
    "verifiedMethod": "web-source",
    "source": "muis"
  },
  {
    "name": "Abang 991 Nasi Padang",
    "address": "1 JOO KOON CIRCLE Stall 04, Kopitiam #03-25 FAIRPRICE HUB 629117",
    "latitude": "1.3257",
    "longitude": "103.6783",
    "city": "Singapore",
    "country": "Singapore",
    "halalStatus": "full",
    "cuisine": "Hawker",
    "sourceUrl": "https://halal.muis.gov.sg/halal/establishments?id=EEHK26010000068",
    "sourceQuote": "MUIS halal certified (EEHK26010000068)",
    "verifiedMethod": "web-source",
    "source": "muis"
  },
  {
    "name": "ABANG GEMUK",
    "address": "8A ADMIRALTY STREET #07-14 FOOD XCHANGE @ ADMIRALTY 757437",
    "latitude": "1.463",
    "longitude": "103.8144",
    "city": "Singapore",
    "country": "Singapore",
    "halalStatus": "full",
    "cuisine": "Central Kitchen",
    "sourceUrl": "https://halal.muis.gov.sg/halal/establishments?id=FPCK20230000704",
    "sourceQuote": "MUIS halal certified (FPCK20230000704)",
    "verifiedMethod": "web-source",
    "source": "muis"
  },
  {
    "name": "ABANG GEMUK (S1) @ FoodHub 496 Jurong West",
    "address": "496 JURONG WEST STREET 41 #01-84, Stall 1 640496",
    "latitude": "1.35",
    "longitude": "103.7238",
    "city": "Singapore",
    "country": "Singapore",
    "halalStatus": "full",
    "cuisine": "Hawker",
    "sourceUrl": "https://halal.muis.gov.sg/halal/establishments?id=EEHK20230000707",
    "sourceQuote": "MUIS halal certified (EEHK20230000707)",
    "verifiedMethod": "web-source",
    "source": "muis"
  },
  {
    "name": "Abang Gemuk (S1) @ FoodHub Aljunied",
    "address": "119 ALJUNIED AVENUE 2 #01-54, Stall 1 380119",
    "latitude": "1.3196",
    "longitude": "103.8864",
    "city": "Singapore",
    "country": "Singapore",
    "halalStatus": "full",
    "cuisine": "Hawker",
    "sourceUrl": "https://halal.muis.gov.sg/halal/establishments?id=EEHK20230000709",
    "sourceQuote": "MUIS halal certified (EEHK20230000709)",
    "verifiedMethod": "web-source",
    "source": "muis"
  },
  {
    "name": "ABANG GEMUK (S10) @ FOODHUB 547 SEGAR ROAD",
    "address": "547 SEGAR ROAD #01-01 SEGAR VALE, (Stall 10) 670547",
    "latitude": "1.3882",
    "longitude": "103.7696",
    "city": "Singapore",
    "country": "Singapore",
    "halalStatus": "full",
    "cuisine": "Hawker",
    "sourceUrl": "https://halal.muis.gov.sg/halal/establishments?id=EEHK20230000706",
    "sourceQuote": "MUIS halal certified (EEHK20230000706)",
    "verifiedMethod": "web-source",
    "source": "muis"
  },
  {
    "name": "ABANG GEMUK (S12) @ FoodHub 48 Toh Guan",
    "address": "48 TOH GUAN ROAD EAST #01-124/125/126/127/128/129 ENTERPRISE HUB, Stall 12 608586",
    "latitude": "1.3368",
    "longitude": "103.7544",
    "city": "Singapore",
    "country": "Singapore",
    "halalStatus": "full",
    "cuisine": "Hawker",
    "sourceUrl": "https://halal.muis.gov.sg/halal/establishments?id=EEHK20230000708",
    "sourceQuote": "MUIS halal certified (EEHK20230000708)",
    "verifiedMethod": "web-source",
    "source": "muis"
  },
  {
    "name": "ABANG GEMUK (S2) @ COFFEESHOP 506 BUKIT BATOK",
    "address": "506 BUKIT BATOK STREET 52 #01-91 HILLGROVE GARDENS, STALL 2 650506",
    "latitude": "1.3522",
    "longitude": "103.7547",
    "city": "Singapore",
    "country": "Singapore",
    "halalStatus": "full",
    "cuisine": "Hawker",
    "sourceUrl": "https://halal.muis.gov.sg/halal/establishments?id=EEHK20230000705",
    "sourceQuote": "MUIS halal certified (EEHK20230000705)",
    "verifiedMethod": "web-source",
    "source": "muis"
  },
  {
    "name": "Abang Gemuk (S3) @Food Paradise Sengkang",
    "address": "279 SENGKANG EAST AVENUE #01-01 COMPASSVALE ANCILLA, Stall 3 540279",
    "latitude": "1.3862",
    "longitude": "103.893",
    "city": "Singapore",
    "country": "Singapore",
    "halalStatus": "full",
    "cuisine": "Hawker",
    "sourceUrl": "https://halal.muis.gov.sg/halal/establishments?id=EEHK20230000710",
    "sourceQuote": "MUIS halal certified (EEHK20230000710)",
    "verifiedMethod": "web-source",
    "source": "muis"
  },
  {
    "name": "Abang Gemuk (S4) @ Soon Huat FoodCenter 233 Toa Payoh",
    "address": "233 LORONG 8 TOA PAYOH #01-268 TOA PAYOH EIGHT, Stall 4 310233",
    "latitude": "1.3383",
    "longitude": "103.8585",
    "city": "Singapore",
    "country": "Singapore",
    "halalStatus": "full",
    "cuisine": "Hawker",
    "sourceUrl": "https://halal.muis.gov.sg/halal/establishments?id=EEHK20230000712",
    "sourceQuote": "MUIS halal certified (EEHK20230000712)",
    "verifiedMethod": "web-source",
    "source": "muis"
  },
  {
    "name": "ABANG GEMUK (S9) @ O2 CAFE 134 BUKIT BATOK",
    "address": "134 BUKIT BATOK WEST AVENUE 6 #01-463, STALL 9 650134",
    "latitude": "1.3516",
    "longitude": "103.7445",
    "city": "Singapore",
    "country": "Singapore",
    "halalStatus": "full",
    "cuisine": "Hawker",
    "sourceUrl": "https://halal.muis.gov.sg/halal/establishments?id=EEHK20230000711",
    "sourceQuote": "MUIS halal certified (EEHK20230000711)",
    "verifiedMethod": "web-source",
    "source": "muis"
  },
  {
    "name": "Abang Nasi Goreng (S1) @ Kampung Admiralty",
    "address": "676 WOODLANDS DRIVE 71 #02-40, Stall 1 730676",
    "latitude": "1.4398",
    "longitude": "103.8007",
    "city": "Singapore",
    "country": "Singapore",
    "halalStatus": "full",
    "cuisine": "Hawker",
    "sourceUrl": "https://halal.muis.gov.sg/halal/establishments?id=EEHK20240000121",
    "sourceQuote": "MUIS halal certified (EEHK20240000121)",
    "verifiedMethod": "web-source",
    "source": "muis"
  },
  {
    "name": "ABANG RECIPES",
    "address": "604 SEMBAWANG ROAD #B1-08/09 SEMBAWANG SHOPPING CENTRE 758459",
    "latitude": "1.4418",
    "longitude": "103.8248",
    "city": "Singapore",
    "country": "Singapore",
    "halalStatus": "full",
    "cuisine": "Restaurant",
    "sourceUrl": "https://halal.muis.gov.sg/halal/establishments?id=EERX21030012188",
    "sourceQuote": "MUIS halal certified (EERX21030012188)",
    "verifiedMethod": "web-source",
    "source": "muis"
  },
  {
    "name": "Abaseen",
    "address": "858 Leeds Road, Bradford, West Yorkshire, BD3 8EZ",
    "latitude": "53.7922345",
    "longitude": "-1.7255592",
    "city": "Bradford, West Yorkshire",
    "country": "UK",
    "halalStatus": "full",
    "cuisine": "",
    "sourceUrl": "https://www.zabihah.com/restaurants/cae29acf-7767-11ef-95ae-6045bdeb9f57/abaseen-bradford-west-yorkshire",
    "sourceQuote": "Zabihah listing — halal restaurant",
    "verifiedMethod": "web-source",
    "source": "zabihah"
  },
  {
    "name": "Abaseen Peshawari Chapal Kebabs",
    "address": "16 Willow Street, Bradford, West Yorkshire, BD8 9",
    "latitude": "53.800075",
    "longitude": "-1.787037",
    "city": "Bradford, West Yorkshire",
    "country": "UK",
    "halalStatus": "full",
    "cuisine": "",
    "sourceUrl": "https://www.zabihah.com/restaurants/ca8ee5fe-7767-11ef-95ae-6045bdeb9f57/abaseen-peshawari-chapal-kebabs-bradford-west-yorkshire",
    "sourceQuote": "Zabihah listing — halal restaurant",
    "verifiedMethod": "web-source",
    "source": "zabihah"
  },
  {
    "name": "ABC VEGETARIAN FOOD PTE. LTD.",
    "address": "8A ADMIRALTY STREET #07-41 FOOD XCHANGE @ ADMIRALTY 757437",
    "latitude": "1.463",
    "longitude": "103.8144",
    "city": "Singapore",
    "country": "Singapore",
    "halalStatus": "full",
    "cuisine": "Catering Company",
    "sourceUrl": "https://halal.muis.gov.sg/halal/establishments?id=FPCA20220000739",
    "sourceQuote": "MUIS halal certified (FPCA20220000739)",
    "verifiedMethod": "web-source",
    "source": "muis"
  },
  {
    "name": "Abdullah Restaurant",
    "address": "Main Street, Krabi, Southern Thailand, 81000",
    "latitude": "8.1191811",
    "longitude": "99.1013498",
    "city": "Krabi, Southern Thailand",
    "country": "Thailand",
    "halalStatus": "full",
    "cuisine": "",
    "sourceUrl": "https://www.zabihah.com/restaurants/ca57a099-7767-11ef-95ae-6045bdeb9f57/abdullah-krabi-southern-thailand",
    "sourceQuote": "Zabihah listing — halal restaurant",
    "verifiedMethod": "web-source",
    "source": "zabihah"
  },
  {
    "name": "Abi's Luzern Kebab",
    "address": "13 Theaterstrasse",
    "latitude": "47.049848",
    "longitude": "8.3069697",
    "city": "",
    "country": "Switzerland",
    "halalStatus": "options",
    "cuisine": "kebab",
    "sourceUrl": "https://www.openstreetmap.org/node/11804249665",
    "sourceQuote": "OpenStreetMap diet:halal=yes",
    "verifiedMethod": "web-source",
    "source": "osm"
  },
  {
    "name": "Abode Thai Cuisine",
    "address": "349 Bay Street, Brighton-Le-Sands, New South Wales, 2216",
    "latitude": "-33.9607737",
    "longitude": "151.15533259999998",
    "city": "Brighton-Le-Sands, New South Wales",
    "country": "Australia",
    "halalStatus": "full",
    "cuisine": "",
    "sourceUrl": "https://www.zabihah.com/restaurants/e7650dce-524d-4451-87ac-ffecc38812c6/abode-thai-cuisine-brighton-le-sands-new-south-wales",
    "sourceQuote": "Zabihah listing — halal restaurant",
    "verifiedMethod": "web-source",
    "source": "zabihah"
  },
  {
    "name": "ABR HOLDINGS LIMITED",
    "address": "41 TAMPINES STREET 92 #04-03 ABR Building 528881",
    "latitude": "1.3381",
    "longitude": "103.9417",
    "city": "Singapore",
    "country": "Singapore",
    "halalStatus": "full",
    "cuisine": "Central Kitchen",
    "sourceUrl": "https://halal.muis.gov.sg/halal/establishments?id=FPCK20220000665",
    "sourceQuote": "MUIS halal certified (FPCK20220000665)",
    "verifiedMethod": "web-source",
    "source": "muis"
  },
  {
    "name": "Abu Omar Halal - Allen, TX",
    "address": "210 Central Expy S #78, Allen, Texas, 75013",
    "latitude": "33.099608499999995",
    "longitude": "-96.6800312",
    "city": "Allen, Texas",
    "country": "USA",
    "halalStatus": "full",
    "cuisine": "",
    "sourceUrl": "https://www.atly.com/location/Abu-Omar-Halal---Allen-TX",
    "sourceQuote": "Atly bathroom guide: Bathrooms include \"},{\"text_type\":\"bold\",\"text\":\"bidets\"},{\"text_type\":\"text\",\"text\":\" and a \"},{\"text_type\":\"bold\",\"text\":\"built-in wudu area\"},{\"text_type\":\"text\",\"text\":\". They also feature a \"},{\"tex",
    "verifiedMethod": "web-source",
    "source": "unknown"
  },
  {
    "name": "Abu Zayd Arabian Grill &amp; Steakhouse",
    "address": "412 Coventry Road, Small Heath, Birmingham, West Midlands, B10 0UF",
    "latitude": "52.4708699",
    "longitude": "-1.8613098",
    "city": "Birmingham, West Midlands",
    "country": "UK",
    "halalStatus": "full",
    "cuisine": "",
    "sourceUrl": "https://www.zabihah.com/restaurants/c9dccd9a-7767-11ef-95ae-6045bdeb9f57/abu-zayd-arabian-steakhouse-birmingham-west-midlands",
    "sourceQuote": "Zabihah listing — halal restaurant",
    "verifiedMethod": "web-source",
    "source": "zabihah"
  },
  {
    "name": "Ace Western (MR2)@Foodgle Hub ITE College West",
    "address": "1 CHOA CHU KANG GROVE #03-05 ITE COLLEGE WEST, MR2 (PART OF) 688236",
    "latitude": "1.3751",
    "longitude": "103.7523",
    "city": "Singapore",
    "country": "Singapore",
    "halalStatus": "full",
    "cuisine": "Hawker",
    "sourceUrl": "https://halal.muis.gov.sg/halal/establishments?id=EEHK20230000029",
    "sourceQuote": "MUIS halal certified (EEHK20230000029)",
    "verifiedMethod": "web-source",
    "source": "muis"
  },
  {
    "name": "Ach@s Kebab",
    "address": "1 Calle Estrella, Murcia, Murcia, 30003",
    "latitude": "37.9829612",
    "longitude": "-1.125727",
    "city": "Murcia, Murcia",
    "country": "Spain",
    "halalStatus": "full",
    "cuisine": "",
    "sourceUrl": "https://www.zabihah.com/restaurants/99b65fb7-46b4-486b-85c6-7e03460a6aaa/achs-kebab-murcia-murcia",
    "sourceQuote": "Zabihah listing — halal restaurant",
    "verifiedMethod": "web-source",
    "source": "zabihah"
  },
  {
    "name": "Achachi International Market",
    "address": "2024 South Milledge Avenue, Athens, GA, 30605",
    "latitude": "33.9250911",
    "longitude": "-83.3789027",
    "city": "Athens, GA",
    "country": "USA",
    "halalStatus": "full",
    "cuisine": "",
    "sourceUrl": "https://www.zabihah.com/restaurants/cbeb0a80-7767-11ef-95ae-6045bdeb9f57/achachi-international-market-athens-ga",
    "sourceQuote": "Zabihah listing — halal restaurant",
    "verifiedMethod": "web-source",
    "source": "zabihah"
  },
  {
    "name": "Adam Chicken",
    "address": "503 WEST COAST DRIVE #01-28 Ayer Rajah Food Centre 120503",
    "latitude": "1.3118",
    "longitude": "103.7598",
    "city": "Singapore",
    "country": "Singapore",
    "halalStatus": "full",
    "cuisine": "Hawker",
    "sourceUrl": "https://halal.muis.gov.sg/halal/establishments?id=EEHN22020013198",
    "sourceQuote": "MUIS halal certified (EEHN22020013198)",
    "verifiedMethod": "web-source",
    "source": "muis"
  },
  {
    "name": "Adam Palace",
    "address": "",
    "latitude": "52.3756883",
    "longitude": "4.8987461",
    "city": "",
    "country": "Netherlands",
    "halalStatus": "options",
    "cuisine": "syrian",
    "sourceUrl": "https://www.openstreetmap.org/node/8986645358",
    "sourceQuote": "OpenStreetMap diet:halal=yes",
    "verifiedMethod": "web-source",
    "source": "osm"
  },
  {
    "name": "ADAM ROAD MEE SOTO",
    "address": "30 RAFFLES PLACE #B1-08/09 CIMB PLAZA 048622",
    "latitude": "1.2842",
    "longitude": "103.852",
    "city": "Singapore",
    "country": "Singapore",
    "halalStatus": "full",
    "cuisine": "Restaurant",
    "sourceUrl": "https://halal.muis.gov.sg/halal/establishments?id=EERT26010000032",
    "sourceQuote": "MUIS halal certified (EERT26010000032)",
    "verifiedMethod": "web-source",
    "source": "muis"
  },
  {
    "name": "Adega Gaucha Brazilian Steakhouse",
    "address": "1100 Crystal Clear Lane, Belle Isle, FL, 32809",
    "latitude": "28.4484686",
    "longitude": "-81.4007125",
    "city": "Belle Isle, FL",
    "country": "USA",
    "halalStatus": "full",
    "cuisine": "",
    "sourceUrl": "https://www.zabihah.com/restaurants/08dd8f35-6857-4fb3-8c60-9163ef26d412/adega-gaucha-brazilian-steakhouse-belle-isle-fl",
    "sourceQuote": "Zabihah listing — halal restaurant",
    "verifiedMethod": "web-source",
    "source": "zabihah"
  },
  {
    "name": "Adega Gaucha Brazilian Steakhouse",
    "address": "7804 West Irlo Bronson Memorial Highway, Four Corners, FL, 34747",
    "latitude": "28.3394462",
    "longitude": "-81.6004288",
    "city": "Four Corners, FL",
    "country": "USA",
    "halalStatus": "full",
    "cuisine": "",
    "sourceUrl": "https://www.zabihah.com/restaurants/08dd8f36-4c84-4b84-816f-5b788c7104fb/adega-gaucha-brazilian-steakhouse-four-corners-fl",
    "sourceQuote": "Zabihah listing — halal restaurant",
    "verifiedMethod": "web-source",
    "source": "zabihah"
  },
  {
    "name": "Adega Gaucha Brazilian Steakhouse",
    "address": "240 S Federal Hwy, Deerfield Beach, FL, 33441",
    "latitude": "26.3149086",
    "longitude": "-80.0891666",
    "city": "Deerfield Beach, FL",
    "country": "USA",
    "halalStatus": "full",
    "cuisine": "",
    "sourceUrl": "https://www.zabihah.com/restaurants/08dd8f36-c970-4d7a-8795-8614f22b022d/adega-gaucha-brazilian-steakhouse-deerfield-beach-fl",
    "sourceQuote": "Zabihah listing — halal restaurant",
    "verifiedMethod": "web-source",
    "source": "zabihah"
  },
  {
    "name": "ADHIK ELITE EATS PTE. LTD.",
    "address": "171 KAMPONG AMPAT #04-17 KA FOODLINK 368330",
    "latitude": "1.3358",
    "longitude": "103.8827",
    "city": "Singapore",
    "country": "Singapore",
    "halalStatus": "full",
    "cuisine": "Catering Company",
    "sourceUrl": "https://halal.muis.gov.sg/halal/establishments?id=FPCA20250000343",
    "sourceQuote": "MUIS halal certified (FPCA20250000343)",
    "verifiedMethod": "web-source",
    "source": "muis"
  },
  {
    "name": "adim",
    "address": "",
    "latitude": "48.2302091",
    "longitude": "16.3707907",
    "city": "",
    "country": "Austria",
    "halalStatus": "options",
    "cuisine": "kebab",
    "sourceUrl": "https://www.openstreetmap.org/node/6148340772",
    "sourceQuote": "OpenStreetMap diet:halal=yes",
    "verifiedMethod": "web-source",
    "source": "osm"
  },
  {
    "name": "Adria Gyros &amp; Kebab",
    "address": "32 Kerepesi út, Budapest, Central Hungary, 1143",
    "latitude": "47.5006209",
    "longitude": "19.1102114",
    "city": "Budapest, Central Hungary",
    "country": "Hungary",
    "halalStatus": "full",
    "cuisine": "",
    "sourceUrl": "https://www.zabihah.com/restaurants/cad617c9-7767-11ef-95ae-6045bdeb9f57/adria-gyros-kebab-budapest-central-hungary",
    "sourceQuote": "Zabihah listing — halal restaurant",
    "verifiedMethod": "web-source",
    "source": "zabihah"
  },
  {
    "name": "AFC Kebab",
    "address": "10 Piazza XX Settembre, Forlì, 47121",
    "latitude": "44.2215548",
    "longitude": "12.0427826",
    "city": "Forlì",
    "country": "Italy",
    "halalStatus": "options",
    "cuisine": "kebab",
    "sourceUrl": "https://www.openstreetmap.org/node/4766470509",
    "sourceQuote": "OpenStreetMap diet:halal=yes",
    "verifiedMethod": "web-source",
    "source": "osm"
  },
  {
    "name": "Affogato",
    "address": "1457 London Road, Croydon, Greater London, SW16 4AQ",
    "latitude": "51.4100004",
    "longitude": "-0.12260709999999998",
    "city": "Croydon, Greater London",
    "country": "UK",
    "halalStatus": "full",
    "cuisine": "",
    "sourceUrl": "https://www.zabihah.com/restaurants/a3f285af-a497-4cca-8e19-e95cb15b60b2/affogato-croydon-greater-london",
    "sourceQuote": "Zabihah listing — halal restaurant",
    "verifiedMethod": "web-source",
    "source": "zabihah"
  },
  {
    "name": "Affy&#x27;s Premium Grill",
    "address": "2283 Argentia Road, Mississauga, ON, L5N 5Z2",
    "latitude": "43.5985603",
    "longitude": "-79.7471771",
    "city": "Mississauga, ON",
    "country": "Canada",
    "halalStatus": "full",
    "cuisine": "",
    "sourceUrl": "https://www.zabihah.com/restaurants/cad2a65c-7767-11ef-95ae-6045bdeb9f57/affys-premium-mississauga-on",
    "sourceQuote": "Zabihah listing — halal restaurant",
    "verifiedMethod": "web-source",
    "source": "zabihah"
  },
  {
    "name": "AFG Restaurant",
    "address": "318 Lincoln Road, Christchurch, 8024",
    "latitude": "-43.5433046",
    "longitude": "172.6125709",
    "city": "Christchurch",
    "country": "New Zealand",
    "halalStatus": "options",
    "cuisine": "asian",
    "sourceUrl": "https://www.openstreetmap.org/way/235061485",
    "sourceQuote": "OpenStreetMap diet:halal=yes",
    "verifiedMethod": "web-source",
    "source": "osm"
  },
  {
    "name": "Afghan Bistro",
    "address": "8081 Alban Rd, Springfield, VA, 22150",
    "latitude": "38.737467",
    "longitude": "-77.1931996",
    "city": "Springfield, VA",
    "country": "USA",
    "halalStatus": "full",
    "cuisine": "",
    "sourceUrl": "https://www.zabihah.com/restaurants/d56dbbf7-0ed3-4917-8551-4b1a2c7b227f/afghan-springfield-va",
    "sourceQuote": "Zabihah listing — halal restaurant",
    "verifiedMethod": "web-source",
    "source": "zabihah"
  },
  {
    "name": "Afghan Burger",
    "address": "7 Sint-Gummarusstraat, Antwerpen, 2060",
    "latitude": "51.2247841",
    "longitude": "4.4195854",
    "city": "Antwerpen",
    "country": "Belgium",
    "halalStatus": "options",
    "cuisine": "kebab;afghan;burger;chicken",
    "sourceUrl": "https://www.openstreetmap.org/node/6816082613",
    "sourceQuote": "OpenStreetMap diet:halal=yes",
    "verifiedMethod": "web-source",
    "source": "osm"
  },
  {
    "name": "Afghan Cuisine &amp; Charcoal Kebab House",
    "address": "216 Days Road, Ferryden Park, South Australia, 5010",
    "latitude": "-34.865907",
    "longitude": "138.565321",
    "city": "Ferryden Park, South Australia",
    "country": "Australia",
    "halalStatus": "full",
    "cuisine": "",
    "sourceUrl": "https://www.zabihah.com/restaurants/cb0ed031-7767-11ef-95ae-6045bdeb9f57/afghan-cuisine-charcoal-kebab-ferryden-park-south-australia",
    "sourceQuote": "Zabihah listing — halal restaurant",
    "verifiedMethod": "web-source",
    "source": "zabihah"
  },
  {
    "name": "Afghan Grand Market",
    "address": "323 West Main Street, Charlottesville, VA, 22903",
    "latitude": "38.030736",
    "longitude": "-78.486065",
    "city": "Charlottesville, VA",
    "country": "USA",
    "halalStatus": "full",
    "cuisine": "",
    "sourceUrl": "https://www.zabihah.com/restaurants/ca6b9e86-7767-11ef-95ae-6045bdeb9f57/afghan-grand-market-charlottesville-va",
    "sourceQuote": "Zabihah listing — halal restaurant",
    "verifiedMethod": "web-source",
    "source": "zabihah"
  },
  {
    "name": "Afghan Kabob",
    "address": "400 Emmet St N, Charlottesville, VA, 22903",
    "latitude": "38.0437129",
    "longitude": "-78.50495389999999",
    "city": "Charlottesville, VA",
    "country": "USA",
    "halalStatus": "full",
    "cuisine": "",
    "sourceUrl": "https://www.zabihah.com/restaurants/1641c08c-ce7b-4811-83e6-db77fbb3fcfc/afghan-kabob-charlottesville-va",
    "sourceQuote": "Zabihah listing — halal restaurant",
    "verifiedMethod": "web-source",
    "source": "zabihah"
  },
  {
    "name": "Afghan Kebob Cuisine",
    "address": "2298 Islington Avenue, Etobicoke, ON, M9W",
    "latitude": "43.7155171",
    "longitude": "-79.5553879",
    "city": "Etobicoke, ON",
    "country": "Canada",
    "halalStatus": "full",
    "cuisine": "",
    "sourceUrl": "https://www.zabihah.com/restaurants/ca30b06f-7767-11ef-95ae-6045bdeb9f57/afghan-kebob-cuisine-etobicoke-on",
    "sourceQuote": "Zabihah listing — halal restaurant",
    "verifiedMethod": "web-source",
    "source": "zabihah"
  },
  {
    "name": "Afghan Natural",
    "address": "790Saint Joseph High Street, Hamrun, Southern Region",
    "latitude": "35.8864084",
    "longitude": "14.4930261",
    "city": "Hamrun, Southern Region",
    "country": "MT",
    "halalStatus": "full",
    "cuisine": "",
    "sourceUrl": "https://www.zabihah.com/restaurants/e2970780-06ad-40ec-ba2a-a3f7a26e8d5c/afghan-natural-hamrun-southern-region",
    "sourceQuote": "Zabihah listing — halal restaurant",
    "verifiedMethod": "web-source",
    "source": "zabihah"
  },
  {
    "name": "Afghan Turkish Restaurant",
    "address": "243 Stoney Stanton Road, Coventry, Warwickshire, CV1 4FT",
    "latitude": "52.418198399999994",
    "longitude": "-1.499496",
    "city": "Coventry, Warwickshire",
    "country": "UK",
    "halalStatus": "full",
    "cuisine": "",
    "sourceUrl": "https://www.zabihah.com/restaurants/a02f02de-bda9-4f0c-919d-f598c90e8d82/afghan-turkish-coventry-warwickshire",
    "sourceQuote": "Zabihah listing — halal restaurant",
    "verifiedMethod": "web-source",
    "source": "zabihah"
  },
  {
    "name": "Afghani Charcoal Kebab House",
    "address": "34 Trickett Street, Surfers Paradise, Queensland, 4217",
    "latitude": "-28.0040823",
    "longitude": "153.42927469999998",
    "city": "Surfers Paradise, Queensland",
    "country": "Australia",
    "halalStatus": "full",
    "cuisine": "",
    "sourceUrl": "https://www.zabihah.com/restaurants/10485484-cc24-4c43-8811-340adb92378c/afghani-charcoal-kebab-surfers-paradise-queensland",
    "sourceQuote": "Zabihah listing — halal restaurant",
    "verifiedMethod": "web-source",
    "source": "zabihah"
  },
  {
    "name": "Afiyet",
    "address": "40 Böckmannstraße, Hamburg, Hamburg, 20099",
    "latitude": "53.5541118",
    "longitude": "10.0162349",
    "city": "Hamburg, Hamburg",
    "country": "Germany",
    "halalStatus": "full",
    "cuisine": "",
    "sourceUrl": "https://www.zabihah.com/restaurants/ca09d05f-7767-11ef-95ae-6045bdeb9f57/afiyet-hamburg-hamburg",
    "sourceQuote": "Zabihah listing — halal restaurant",
    "verifiedMethod": "web-source",
    "source": "zabihah"
  },
  {
    "name": "AGOR WESTERN",
    "address": "100 BUKIT TIMAH ROAD #01-28 KK WOMEN'S AND CHILDREN'S HOSPITAL, Stall 10 229899",
    "latitude": "1.3105",
    "longitude": "103.8467",
    "city": "Singapore",
    "country": "Singapore",
    "halalStatus": "full",
    "cuisine": "Hawker",
    "sourceUrl": "https://halal.muis.gov.sg/halal/establishments?id=EEHK20240000704",
    "sourceQuote": "MUIS halal certified (EEHK20240000704)",
    "verifiedMethod": "web-source",
    "source": "muis"
  },
  {
    "name": "Agra Indian Takeaway",
    "address": "Nettleham Field Shopping Centre, Wolsey Way, Lincoln, Lincolnshire, LN2 4SX",
    "latitude": "53.2454655",
    "longitude": "-0.507861",
    "city": "Lincoln, Lincolnshire",
    "country": "UK",
    "halalStatus": "full",
    "cuisine": "",
    "sourceUrl": "https://www.zabihah.com/restaurants/ca3ac9bc-7767-11ef-95ae-6045bdeb9f57/agra-indian-takeaway-lincoln-lincolnshire",
    "sourceQuote": "Zabihah listing — halal restaurant",
    "verifiedMethod": "web-source",
    "source": "zabihah"
  },
  {
    "name": "Ah B Bakery",
    "address": "151 LORONG CHUAN #01-19 NEW TECH PARK 556741",
    "latitude": "1.352",
    "longitude": "103.8607",
    "city": "Singapore",
    "country": "Singapore",
    "halalStatus": "full",
    "cuisine": "Snack Bar / Bakery",
    "sourceUrl": "https://halal.muis.gov.sg/halal/establishments?id=EESB20240001280",
    "sourceQuote": "MUIS halal certified (EESB20240001280)",
    "verifiedMethod": "web-source",
    "source": "muis"
  },
  {
    "name": "Ah B Bakery",
    "address": "651 JURONG WEST STREET 61 01-04 MULTI STOREY CAR PARK 640651",
    "latitude": "1.3371",
    "longitude": "103.6972",
    "city": "Singapore",
    "country": "Singapore",
    "halalStatus": "full",
    "cuisine": "Snack Bar / Bakery",
    "sourceUrl": "https://halal.muis.gov.sg/halal/establishments?id=EESB20250000756",
    "sourceQuote": "MUIS halal certified (EESB20250000756)",
    "verifiedMethod": "web-source",
    "source": "muis"
  },
  {
    "name": "AH B BAKERY(S10) @ KEDAI KOPI 376 BT BATOK",
    "address": "376 BUKIT BATOK STREET 31 #01-126, STALL 10 650376",
    "latitude": "1.3583",
    "longitude": "103.7496",
    "city": "Singapore",
    "country": "Singapore",
    "halalStatus": "full",
    "cuisine": "Hawker",
    "sourceUrl": "https://halal.muis.gov.sg/halal/establishments?id=EEHK20230001243",
    "sourceQuote": "MUIS halal certified (EEHK20230001243)",
    "verifiedMethod": "web-source",
    "source": "muis"
  },
  {
    "name": "AH MAH COOKS PTE. LTD.",
    "address": "20 BUKIT BATOK CRESCENT #11-01 ENTERPRISE CENTRE 658080",
    "latitude": "1.3386",
    "longitude": "103.7571",
    "city": "Singapore",
    "country": "Singapore",
    "halalStatus": "full",
    "cuisine": "Catering Company",
    "sourceUrl": "https://halal.muis.gov.sg/halal/establishments?id=FPCA20230000819",
    "sourceQuote": "MUIS halal certified (FPCA20230000819)",
    "verifiedMethod": "web-source",
    "source": "muis"
  },
  {
    "name": "AH TAS MUFFINS (S28) @ Serangoon Garden & Market Food Centre",
    "address": "49A SERANGOON GARDEN WAY #01-28 555945",
    "latitude": "1.3629",
    "longitude": "103.8664",
    "city": "Singapore",
    "country": "Singapore",
    "halalStatus": "full",
    "cuisine": "Hawker",
    "sourceUrl": "https://halal.muis.gov.sg/halal/establishments?id=EEHK20230001302",
    "sourceQuote": "MUIS halal certified (EEHK20230001302)",
    "verifiedMethod": "web-source",
    "source": "muis"
  },
  {
    "name": "Ah-Mad Roddee",
    "address": "Rama IX Road, Bangkok, Central Thailand, 10240",
    "latitude": "13.7466467",
    "longitude": "100.6067887",
    "city": "Bangkok, Central Thailand",
    "country": "Thailand",
    "halalStatus": "full",
    "cuisine": "",
    "sourceUrl": "https://www.zabihah.com/restaurants/cad64943-7767-11ef-95ae-6045bdeb9f57/ah-mad-roddee-bangkok-central-thailand",
    "sourceQuote": "Zabihah listing — halal restaurant",
    "verifiedMethod": "web-source",
    "source": "zabihah"
  },
  {
    "name": "AiPaPa Hot Burger",
    "address": "18495 Colima Road, 8, Rowland Heights, CA, 91748",
    "latitude": "33.9883872",
    "longitude": "-117.9015601",
    "city": "Rowland Heights, CA",
    "country": "USA",
    "halalStatus": "full",
    "cuisine": "",
    "sourceUrl": "https://www.zabihah.com/restaurants/f2497f8b-c4ca-49e7-9470-55d80cf4a703/aipapa-hot-burger-rowland-heights-ca",
    "sourceQuote": "Zabihah listing — halal restaurant",
    "verifiedMethod": "web-source",
    "source": "zabihah"
  },
  {
    "name": "Airport Bar 21",
    "address": "",
    "latitude": "50.4695772",
    "longitude": "4.4720227",
    "city": "",
    "country": "Belgium",
    "halalStatus": "options",
    "cuisine": "",
    "sourceUrl": "https://www.openstreetmap.org/node/6466260686",
    "sourceQuote": "OpenStreetMap diet:halal=yes",
    "verifiedMethod": "web-source",
    "source": "osm"
  },
  {
    "name": "Aishwarya Kitchen (S2) @ Adi Foods",
    "address": "180 WOODLANDS INDUSTRIAL PARK E5 #01-01 WOODLANDS AUTO HUB, STALL 2 757512",
    "latitude": "1.452",
    "longitude": "103.7927",
    "city": "Singapore",
    "country": "Singapore",
    "halalStatus": "full",
    "cuisine": "Hawker",
    "sourceUrl": "https://halal.muis.gov.sg/halal/establishments?id=EEHN21100012688",
    "sourceQuote": "MUIS halal certified (EEHN21100012688)",
    "verifiedMethod": "web-source",
    "source": "muis"
  },
  {
    "name": "AJ DELIGHTS",
    "address": "1 FUSIONOPOLIS WAY #B1-22 CONNEXIS 138632",
    "latitude": "1.2994",
    "longitude": "103.7876",
    "city": "Singapore",
    "country": "Singapore",
    "halalStatus": "full",
    "cuisine": "Restaurant",
    "sourceUrl": "https://halal.muis.gov.sg/halal/establishments?id=EERT20230000920",
    "sourceQuote": "MUIS halal certified (EERT20230000920)",
    "verifiedMethod": "web-source",
    "source": "muis"
  },
  {
    "name": "AJ Delights (S82 & 83) @ Alexandra Village Food Centre",
    "address": "120 BUKIT MERAH LANE 1 #01-82/83 Alexandra Village Food Centre, STALL 82/83 150120",
    "latitude": "1.2863",
    "longitude": "103.8045",
    "city": "Singapore",
    "country": "Singapore",
    "halalStatus": "full",
    "cuisine": "Hawker",
    "sourceUrl": "https://halal.muis.gov.sg/halal/establishments?id=EEHN21120013019",
    "sourceQuote": "MUIS halal certified (EEHN21120013019)",
    "verifiedMethod": "web-source",
    "source": "muis"
  },
  {
    "name": "AJ Delights Snacks",
    "address": "339 ANCHORVALE ROAD #B1-02 ANCHORVALE VILLAGE 540339",
    "latitude": "1.3968",
    "longitude": "103.8884",
    "city": "Singapore",
    "country": "Singapore",
    "halalStatus": "full",
    "cuisine": "Snack Bar / Bakery",
    "sourceUrl": "https://halal.muis.gov.sg/halal/establishments?id=EESB20250000250",
    "sourceQuote": "MUIS halal certified (EESB20250000250)",
    "verifiedMethod": "web-source",
    "source": "muis"
  },
  {
    "name": "Akbar Durbar Indian Takeaway",
    "address": "51 - 61 Hobson Street",
    "latitude": "-36.8476416",
    "longitude": "174.761646",
    "city": "",
    "country": "New Zealand",
    "halalStatus": "options",
    "cuisine": "",
    "sourceUrl": "https://www.openstreetmap.org/node/12487391032",
    "sourceQuote": "OpenStreetMap diet:halal=yes",
    "verifiedMethod": "web-source",
    "source": "osm"
  },
  {
    "name": "Aker Sweets",
    "address": "8633 North 56th Street, Unit 15, Temple Terrace, FL, 33617",
    "latitude": "28.0275568",
    "longitude": "-82.3923372",
    "city": "Temple Terrace, FL",
    "country": "USA",
    "halalStatus": "full",
    "cuisine": "",
    "sourceUrl": "https://www.zabihah.com/restaurants/21740219-17fd-4e66-99ec-ec4f2b67189e/aker-sweets-temple-terrace-fl",
    "sourceQuote": "Zabihah listing — halal restaurant",
    "verifiedMethod": "web-source",
    "source": "zabihah"
  },
  {
    "name": "Akko-Restaurant",
    "address": "52 Pankstraße, Berlin, Berlin, 13357",
    "latitude": "52.551949",
    "longitude": "13.3812166",
    "city": "Berlin, Berlin",
    "country": "Germany",
    "halalStatus": "full",
    "cuisine": "",
    "sourceUrl": "https://www.zabihah.com/restaurants/cadced75-7767-11ef-95ae-6045bdeb9f57/akko-berlin-berlin",
    "sourceQuote": "Zabihah listing — halal restaurant",
    "verifiedMethod": "web-source",
    "source": "zabihah"
  },
  {
    "name": "Al Afrose Restaurant",
    "address": "421 RIVER VALLEY ROAD 248320",
    "latitude": "1.2951",
    "longitude": "103.8296",
    "city": "Singapore",
    "country": "Singapore",
    "halalStatus": "full",
    "cuisine": "Restaurant",
    "sourceUrl": "https://halal.muis.gov.sg/halal/establishments?id=EERT26050000036",
    "sourceQuote": "MUIS halal certified (EERT26050000036)",
    "verifiedMethod": "web-source",
    "source": "muis"
  },
  {
    "name": "Al Ameen Eating House",
    "address": "2 Cheong Chin Nam Road, Singapore, SG, 599727",
    "latitude": "1.34235",
    "longitude": "103.77534",
    "city": "Singapore, SG",
    "country": "Singapore",
    "halalStatus": "full",
    "cuisine": "",
    "sourceUrl": "https://www.zabihah.com/restaurants/c9fc8b9a-7767-11ef-95ae-6045bdeb9f57/al-ameen-eating-singapore-sg",
    "sourceQuote": "Zabihah listing — halal restaurant",
    "verifiedMethod": "web-source",
    "source": "zabihah"
  },
  {
    "name": "Al Amira",
    "address": "2 Rietstraat, Oostende, 8400",
    "latitude": "51.2188095",
    "longitude": "2.9105338",
    "city": "Oostende",
    "country": "Belgium",
    "halalStatus": "options",
    "cuisine": "moroccan;lebanese;arab",
    "sourceUrl": "https://www.openstreetmap.org/way/1052981449",
    "sourceQuote": "OpenStreetMap diet:halal=yes",
    "verifiedMethod": "web-source",
    "source": "osm"
  },
  {
    "name": "Al Bahía Badr",
    "address": "3 Calle de Lavapiés, Madrid, Comunidad de Madrid, 28012",
    "latitude": "40.4120322",
    "longitude": "-3.7030474",
    "city": "Madrid, Comunidad de Madrid",
    "country": "Spain",
    "halalStatus": "full",
    "cuisine": "",
    "sourceUrl": "https://www.zabihah.com/restaurants/cbde6d76-7767-11ef-95ae-6045bdeb9f57/al-baha-badr-madrid-comunidad-de-madrid",
    "sourceQuote": "Zabihah listing — halal restaurant",
    "verifiedMethod": "web-source",
    "source": "zabihah"
  },
  {
    "name": "Al Baqara Halal Foods",
    "address": "122 Lübecker Straße, Hamburg, Hamburg, 22087",
    "latitude": "53.5628021",
    "longitude": "10.0333616",
    "city": "Hamburg, Hamburg",
    "country": "Germany",
    "halalStatus": "full",
    "cuisine": "",
    "sourceUrl": "https://www.zabihah.com/restaurants/cb8c9f8d-7767-11ef-95ae-6045bdeb9f57/al-baqara-halal-foods-hamburg-hamburg",
    "sourceQuote": "Zabihah listing — halal restaurant",
    "verifiedMethod": "web-source",
    "source": "zabihah"
  },
  {
    "name": "Al Baraka",
    "address": "",
    "latitude": "53.2337587",
    "longitude": "6.5394771",
    "city": "",
    "country": "Netherlands",
    "halalStatus": "options",
    "cuisine": "sandwich;moroccan",
    "sourceUrl": "https://www.openstreetmap.org/node/11025544344",
    "sourceQuote": "OpenStreetMap diet:halal=yes",
    "verifiedMethod": "web-source",
    "source": "osm"
  },
  {
    "name": "Al Baraka Grill",
    "address": "4110 Central Ave NE suite 210, Columbia Heights, Minnesota, 55421",
    "latitude": "45.0437188",
    "longitude": "-93.2477354",
    "city": "Columbia Heights, Minnesota",
    "country": "USA",
    "halalStatus": "full",
    "cuisine": "",
    "sourceUrl": "https://www.atly.com/location/AlBarakaGrill",
    "sourceQuote": "Atly bathroom guide: with clean floors throughout. Restrooms include a bidet , adding a useful feature. Halal Offers 100% halal meat and chicken",
    "verifiedMethod": "web-source",
    "source": "unknown"
  },
  {
    "name": "Al Baraka Kebab",
    "address": "3 Calle Bolos, Murcia, Murcia, 30005",
    "latitude": "37.985203",
    "longitude": "-1.1385861",
    "city": "Murcia, Murcia",
    "country": "Spain",
    "halalStatus": "full",
    "cuisine": "",
    "sourceUrl": "https://www.zabihah.com/restaurants/9424042e-bfbb-4eff-8189-acaed28a4888/al-baraka-kebab-murcia-murcia",
    "sourceQuote": "Zabihah listing — halal restaurant",
    "verifiedMethod": "web-source",
    "source": "zabihah"
  },
  {
    "name": "Al Casbah",
    "address": "3 Kings Hedges, Cambridge, Cambridgeshire, PE27 3XS",
    "latitude": "52.336207",
    "longitude": "-0.07653",
    "city": "Cambridge, Cambridgeshire",
    "country": "UK",
    "halalStatus": "full",
    "cuisine": "",
    "sourceUrl": "https://www.zabihah.com/restaurants/ca217f8b-7767-11ef-95ae-6045bdeb9f57/al-casbah-cambridge-cambridgeshire",
    "sourceQuote": "Zabihah listing — halal restaurant",
    "verifiedMethod": "web-source",
    "source": "zabihah"
  },
  {
    "name": "Al Chiosco da Morena",
    "address": "61 Corso Giuseppe Mazzini, Ancona, 60121",
    "latitude": "43.6185362",
    "longitude": "13.5125386",
    "city": "Ancona",
    "country": "Italy",
    "halalStatus": "options",
    "cuisine": "seafood",
    "sourceUrl": "https://www.openstreetmap.org/node/1316682984",
    "sourceQuote": "OpenStreetMap diet:halal=yes",
    "verifiedMethod": "web-source",
    "source": "osm"
  },
  {
    "name": "Al Fayrooz",
    "address": "8 Universitätsring, Wien, Vienna, 1010",
    "latitude": "48.2122214",
    "longitude": "16.3617716",
    "city": "Wien, Vienna",
    "country": "Austria",
    "halalStatus": "full",
    "cuisine": "",
    "sourceUrl": "https://www.zabihah.com/restaurants/ca207a46-7767-11ef-95ae-6045bdeb9f57/al-fayrooz-wien-vienna",
    "sourceQuote": "Zabihah listing — halal restaurant",
    "verifiedMethod": "web-source",
    "source": "zabihah"
  },
  {
    "name": "AL FRESCO HOLDINGS PTE LTD",
    "address": "1550 BEDOK NORTH AVENUE 4 #04-12 489950",
    "latitude": "1.3372",
    "longitude": "103.944",
    "city": "Singapore",
    "country": "Singapore",
    "halalStatus": "full",
    "cuisine": "Central Kitchen",
    "sourceUrl": "https://halal.muis.gov.sg/halal/establishments?id=FPCK20230000997",
    "sourceQuote": "MUIS halal certified (FPCK20230000997)",
    "verifiedMethod": "web-source",
    "source": "muis"
  },
  {
    "name": "Al Kababi",
    "address": "22 Hempstead Turnpike, Farmingdale, NY, 11735",
    "latitude": "40.7293346",
    "longitude": "-73.4625153",
    "city": "Farmingdale, NY",
    "country": "USA",
    "halalStatus": "full",
    "cuisine": "",
    "sourceUrl": "https://www.zabihah.com/restaurants/07288afc-fbbd-44e4-9379-6d70e76d7305/al-kababi-farmingdale-ny",
    "sourceQuote": "Zabihah listing — halal restaurant",
    "verifiedMethod": "web-source",
    "source": "zabihah"
  },
  {
    "name": "Al Madina",
    "address": "",
    "latitude": "46.6847723",
    "longitude": "7.8563745",
    "city": "",
    "country": "Switzerland",
    "halalStatus": "options",
    "cuisine": "",
    "sourceUrl": "https://www.openstreetmap.org/node/5440101532",
    "sourceQuote": "OpenStreetMap diet:halal=yes",
    "verifiedMethod": "web-source",
    "source": "osm"
  },
  {
    "name": "Al Madina Famous Prata Corner",
    "address": "233 LORONG 8 TOA PAYOH #01-268 TOA PAYOH EIGHT, Stall 3 310233",
    "latitude": "1.3383",
    "longitude": "103.8585",
    "city": "Singapore",
    "country": "Singapore",
    "halalStatus": "full",
    "cuisine": "Hawker",
    "sourceUrl": "https://halal.muis.gov.sg/halal/establishments?id=EEHK20240000186",
    "sourceQuote": "MUIS halal certified (EEHK20240000186)",
    "verifiedMethod": "web-source",
    "source": "muis"
  },
  {
    "name": "Al Madina Famous Prata Corner",
    "address": "40 MARGARET DRIVE #01-05, STALL 2, FOODHUB 140040",
    "latitude": "1.2965",
    "longitude": "103.8061",
    "city": "Singapore",
    "country": "Singapore",
    "halalStatus": "full",
    "cuisine": "Hawker",
    "sourceUrl": "https://halal.muis.gov.sg/halal/establishments?id=EEHK20240000187",
    "sourceQuote": "MUIS halal certified (EEHK20240000187)",
    "verifiedMethod": "web-source",
    "source": "muis"
  },
  {
    "name": "Al Madina Famous Prata Corner",
    "address": "36 CHAI CHEE AVENUE #01-151 ANSAR GARDEN, stall 6 461036",
    "latitude": "1.3253",
    "longitude": "103.9254",
    "city": "Singapore",
    "country": "Singapore",
    "halalStatus": "full",
    "cuisine": "Hawker",
    "sourceUrl": "https://halal.muis.gov.sg/halal/establishments?id=EEHK20240000730",
    "sourceQuote": "MUIS halal certified (EEHK20240000730)",
    "verifiedMethod": "web-source",
    "source": "muis"
  },
  {
    "name": "Al Madina Famous Prata Corner",
    "address": "449 CLEMENTI AVENUE 3 #01-211, STALL 1 120449",
    "latitude": "1.3134",
    "longitude": "103.7649",
    "city": "Singapore",
    "country": "Singapore",
    "halalStatus": "full",
    "cuisine": "Hawker",
    "sourceUrl": "https://halal.muis.gov.sg/halal/establishments?id=EEHK20240001031",
    "sourceQuote": "MUIS halal certified (EEHK20240001031)",
    "verifiedMethod": "web-source",
    "source": "muis"
  },
  {
    "name": "Al Madina Famous Prata Corner",
    "address": "207 BUKIT BATOK STREET 21 #01-118 BUKIT BATOK GREEN, Stall 4 650207",
    "latitude": "1.3462",
    "longitude": "103.7494",
    "city": "Singapore",
    "country": "Singapore",
    "halalStatus": "full",
    "cuisine": "Hawker",
    "sourceUrl": "https://halal.muis.gov.sg/halal/establishments?id=EEHK20250000035",
    "sourceQuote": "MUIS halal certified (EEHK20250000035)",
    "verifiedMethod": "web-source",
    "source": "muis"
  },
  {
    "name": "Al Madina Famous Prata Corner",
    "address": "803 Keat Hong Close #01-01, Stall 4 680803",
    "latitude": "1.3742",
    "longitude": "103.7428",
    "city": "Singapore",
    "country": "Singapore",
    "halalStatus": "full",
    "cuisine": "Hawker",
    "sourceUrl": "https://halal.muis.gov.sg/halal/establishments?id=EEHK20250000036",
    "sourceQuote": "MUIS halal certified (EEHK20250000036)",
    "verifiedMethod": "web-source",
    "source": "muis"
  },
  {
    "name": "Al Madina Famous Prata Corner",
    "address": "844 TAMPINES STREET 82 #01-131 TAMPINES VILLE, STALL 7 520844",
    "latitude": "1.3521",
    "longitude": "103.9365",
    "city": "Singapore",
    "country": "Singapore",
    "halalStatus": "full",
    "cuisine": "Hawker",
    "sourceUrl": "https://halal.muis.gov.sg/halal/establishments?id=EEHK20250000270",
    "sourceQuote": "MUIS halal certified (EEHK20250000270)",
    "verifiedMethod": "web-source",
    "source": "muis"
  },
  {
    "name": "Al Madina Famous Prata Corner",
    "address": "59 NEW UPPER CHANGI ROAD #01-1248 461059",
    "latitude": "1.3241",
    "longitude": "103.9407",
    "city": "Singapore",
    "country": "Singapore",
    "halalStatus": "full",
    "cuisine": "Hawker",
    "sourceUrl": "https://halal.muis.gov.sg/halal/establishments?id=EEHK26030000075",
    "sourceQuote": "MUIS halal certified (EEHK26030000075)",
    "verifiedMethod": "web-source",
    "source": "muis"
  },
  {
    "name": "Al Madina Famous Prata Corner",
    "address": "413 BUKIT BATOK WEST AVENUE 4 #01-220, Stall 2 650413",
    "latitude": "1.3636",
    "longitude": "103.7466",
    "city": "Singapore",
    "country": "Singapore",
    "halalStatus": "full",
    "cuisine": "Hawker",
    "sourceUrl": "https://halal.muis.gov.sg/halal/establishments?id=EEHN22010013072",
    "sourceQuote": "MUIS halal certified (EEHN22010013072)",
    "verifiedMethod": "web-source",
    "source": "muis"
  },
  {
    "name": "Al Madina Famous Prata Corner",
    "address": "635C SENJA ROAD #01-01, STALL 8 673635",
    "latitude": "1.3865",
    "longitude": "103.7584",
    "city": "Singapore",
    "country": "Singapore",
    "halalStatus": "full",
    "cuisine": "Hawker",
    "sourceUrl": "https://halal.muis.gov.sg/halal/establishments?id=EEHN22010013074",
    "sourceQuote": "MUIS halal certified (EEHN22010013074)",
    "verifiedMethod": "web-source",
    "source": "muis"
  },
  {
    "name": "Al Madina Famous Prata Corner",
    "address": "257 BANGKIT ROAD #01-61 BUKIT PANJANG NEW TOWN, STALL 4 670257",
    "latitude": "1.3785",
    "longitude": "103.7732",
    "city": "Singapore",
    "country": "Singapore",
    "halalStatus": "full",
    "cuisine": "Hawker",
    "sourceUrl": "https://halal.muis.gov.sg/halal/establishments?id=EEHN22010013075",
    "sourceQuote": "MUIS halal certified (EEHN22010013075)",
    "verifiedMethod": "web-source",
    "source": "muis"
  },
  {
    "name": "Al Madina Famous Prata Corner",
    "address": "494 TAMPINES STREET 45 #01-06, Stall 5 523494",
    "latitude": "1.3631",
    "longitude": "103.9558",
    "city": "Singapore",
    "country": "Singapore",
    "halalStatus": "full",
    "cuisine": "Hawker",
    "sourceUrl": "https://halal.muis.gov.sg/halal/establishments?id=EEHN22010013077",
    "sourceQuote": "MUIS halal certified (EEHN22010013077)",
    "verifiedMethod": "web-source",
    "source": "muis"
  },
  {
    "name": "Al Madina Halal Afro-Caribbean Shop",
    "address": "51 Kettering Road, Northampton, Northamptonshire, NN1 4AJ",
    "latitude": "52.2413805",
    "longitude": "-0.8860543",
    "city": "Northampton, Northamptonshire",
    "country": "UK",
    "halalStatus": "full",
    "cuisine": "",
    "sourceUrl": "https://www.zabihah.com/restaurants/ca0e7409-7767-11ef-95ae-6045bdeb9f57/al-madina-halal-afro-caribbean-shop-northampton-northamptonshire",
    "sourceQuote": "Zabihah listing — halal restaurant",
    "verifiedMethod": "web-source",
    "source": "zabihah"
  },
  {
    "name": "Al Madina Prata Corner",
    "address": "155 BUKIT BATOK STREET 11 #01-324, Stall 12 650155",
    "latitude": "1.3479",
    "longitude": "103.7435",
    "city": "Singapore",
    "country": "Singapore",
    "halalStatus": "full",
    "cuisine": "Hawker",
    "sourceUrl": "https://halal.muis.gov.sg/halal/establishments?id=EEHN22010013071",
    "sourceQuote": "MUIS halal certified (EEHN22010013071)",
    "verifiedMethod": "web-source",
    "source": "muis"
  },
  {
    "name": "AL MAKAN",
    "address": "201D TAMPINES STREET 21 #01-1155 524201",
    "latitude": "1.3522",
    "longitude": "103.9538",
    "city": "Singapore",
    "country": "Singapore",
    "halalStatus": "full",
    "cuisine": "Restaurant",
    "sourceUrl": "https://halal.muis.gov.sg/halal/establishments?id=EERT20230001225",
    "sourceQuote": "MUIS halal certified (EERT20230001225)",
    "verifiedMethod": "web-source",
    "source": "muis"
  },
  {
    "name": "Al Manakeesh",
    "address": "8401 South Harlem Avenue, Bridgeview, IL, 60455",
    "latitude": "41.738788899999996",
    "longitude": "-87.7990068",
    "city": "Bridgeview, IL",
    "country": "USA",
    "halalStatus": "full",
    "cuisine": "",
    "sourceUrl": "https://www.zabihah.com/restaurants/d105c380-4b98-40f2-9f0b-26309f32e6c4/al-manakeesh-bridgeview-il",
    "sourceQuote": "Zabihah listing — halal restaurant",
    "verifiedMethod": "web-source",
    "source": "zabihah"
  },
  {
    "name": "Al Narjise",
    "address": "Place de Cornavin 14, Cornavin, Genève, Geneva, 1201",
    "latitude": "46.2096525",
    "longitude": "6.1433901",
    "city": "Genève, Geneva",
    "country": "Switzerland",
    "halalStatus": "full",
    "cuisine": "",
    "sourceUrl": "https://www.zabihah.com/restaurants/ca81ff94-7767-11ef-95ae-6045bdeb9f57/al-narjise-genve-geneva",
    "sourceQuote": "Zabihah listing — halal restaurant",
    "verifiedMethod": "web-source",
    "source": "zabihah"
  },
  {
    "name": "Al Safa Mandi House",
    "address": "3146 West Touhy Avenue, Chicago, IL, 60645",
    "latitude": "42.012217799999995",
    "longitude": "-87.70861440000002",
    "city": "Chicago, IL",
    "country": "USA",
    "halalStatus": "full",
    "cuisine": "",
    "sourceUrl": "https://www.zabihah.com/restaurants/93332da0-9e88-4408-a216-447df62a0ede/al-safa-mandi-chicago-il",
    "sourceQuote": "Zabihah listing — halal restaurant",
    "verifiedMethod": "web-source",
    "source": "zabihah"
  },
  {
    "name": "Al Salam Meat and Poultry",
    "address": "5531 Duarte St, Los Angeles, CA",
    "latitude": "33.99237823486328",
    "longitude": "-118.24190521240234",
    "city": "Los Angeles, CA",
    "country": "USA",
    "halalStatus": "full",
    "cuisine": "",
    "sourceUrl": "https://www.zabihah.com/restaurants/9c5c97c2-cef6-4bd6-a83b-ba73b8426203/al-salam-meat-and-poultry-los-angeles-ca",
    "sourceQuote": "Zabihah listing — halal restaurant",
    "verifiedMethod": "web-source",
    "source": "zabihah"
  },
  {
    "name": "Al Saray",
    "address": "New Phetchaburi Road, Soi Soonvija 7, Bangkok, Central Thailand, 10310",
    "latitude": "13.7720394",
    "longitude": "100.5915072",
    "city": "Bangkok, Central Thailand",
    "country": "Thailand",
    "halalStatus": "full",
    "cuisine": "",
    "sourceUrl": "https://www.zabihah.com/restaurants/cad69e11-7767-11ef-95ae-6045bdeb9f57/al-saray-bangkok-central-thailand",
    "sourceQuote": "Zabihah listing — halal restaurant",
    "verifiedMethod": "web-source",
    "source": "zabihah"
  },
  {
    "name": "Al Shami",
    "address": "2718 Guadalupe Street, Austin, TX, 78705",
    "latitude": "30.292944400000003",
    "longitude": "-97.7418294",
    "city": "Austin, TX",
    "country": "USA",
    "halalStatus": "full",
    "cuisine": "",
    "sourceUrl": "https://www.zabihah.com/restaurants/35016cef-05a7-49b4-8f67-6896ae4b3d8c/al-shami-austin-tx",
    "sourceQuote": "Zabihah listing — halal restaurant",
    "verifiedMethod": "web-source",
    "source": "zabihah"
  },
  {
    "name": "Al Sultan",
    "address": "51-52 Hertford Street, Mayfair, Greater London, W1J 7ST",
    "latitude": "51.50564",
    "longitude": "-0.1486354",
    "city": "Mayfair, Greater London",
    "country": "UK",
    "halalStatus": "full",
    "cuisine": "",
    "sourceUrl": "https://www.zabihah.com/restaurants/ca15a372-7767-11ef-95ae-6045bdeb9f57/al-sultan-mayfair-greater-london",
    "sourceQuote": "Zabihah listing — halal restaurant",
    "verifiedMethod": "web-source",
    "source": "zabihah"
  },
  {
    "name": "Al Tara",
    "address": "247 Rachadphisek Road, Din Daeng, Bangkok, 10400",
    "latitude": "13.7895326",
    "longitude": "100.5666346",
    "city": "Din Daeng, Bangkok",
    "country": "Thailand",
    "halalStatus": "full",
    "cuisine": "",
    "sourceUrl": "https://www.zabihah.com/restaurants/ca61fec6-7767-11ef-95ae-6045bdeb9f57/al-tara-din-daeng-bangkok",
    "sourceQuote": "Zabihah listing — halal restaurant",
    "verifiedMethod": "web-source",
    "source": "zabihah"
  },
  {
    "name": "Al Tasneem",
    "address": "709 North Bridge Road, Singapore, SG, 198681",
    "latitude": "1.3023797",
    "longitude": "103.8586212",
    "city": "Singapore, SG",
    "country": "Singapore",
    "halalStatus": "full",
    "cuisine": "",
    "sourceUrl": "https://www.zabihah.com/restaurants/53cced29-3aff-43ec-9845-d092fe91d94e/al-tasneem-singapore-sg",
    "sourceQuote": "Zabihah listing — halal restaurant",
    "verifiedMethod": "web-source",
    "source": "zabihah"
  },
  {
    "name": "Al Wahid Foods &amp; Zabihah Halal Meat",
    "address": "1724 Woodlawn Drive, Woodlawn, MD, 21207",
    "latitude": "39.316174",
    "longitude": "-76.7398611",
    "city": "Woodlawn, MD",
    "country": "USA",
    "halalStatus": "full",
    "cuisine": "",
    "sourceUrl": "https://www.zabihah.com/restaurants/cb59d69b-7767-11ef-95ae-6045bdeb9f57/al-wahid-foods-zabihah-halal-meat-woodlawn-md",
    "sourceQuote": "Zabihah listing — halal restaurant",
    "verifiedMethod": "web-source",
    "source": "zabihah"
  },
  {
    "name": "Al Zahra",
    "address": "4 Calle Salvador de Madariaga, Madrid, Comunidad de Madrid, 28027",
    "latitude": "40.4361937",
    "longitude": "-3.6576463",
    "city": "Madrid, Comunidad de Madrid",
    "country": "Spain",
    "halalStatus": "full",
    "cuisine": "",
    "sourceUrl": "https://www.zabihah.com/restaurants/ca2035bd-7767-11ef-95ae-6045bdeb9f57/al-zahra-madrid-comunidad-de-madrid",
    "sourceQuote": "Zabihah listing — halal restaurant",
    "verifiedMethod": "web-source",
    "source": "zabihah"
  },
  {
    "name": "Al Zaytouna Restaurant",
    "address": "17 Hörnesgasse, Wien, Vienna, 1030",
    "latitude": "48.2038075",
    "longitude": "16.3959881",
    "city": "Wien, Vienna",
    "country": "Austria",
    "halalStatus": "full",
    "cuisine": "",
    "sourceUrl": "https://www.zabihah.com/restaurants/cb573366-7767-11ef-95ae-6045bdeb9f57/al-zaytouna-wien-vienna",
    "sourceQuote": "Zabihah listing — halal restaurant",
    "verifiedMethod": "web-source",
    "source": "zabihah"
  },
  {
    "name": "AL ZOUQ FOODS & CATERER PTE. LTD.",
    "address": "727 ANG MO KIO AVENUE 6 #01-4264 560727",
    "latitude": "1.3728",
    "longitude": "103.846",
    "city": "Singapore",
    "country": "Singapore",
    "halalStatus": "full",
    "cuisine": "Restaurant",
    "sourceUrl": "https://halal.muis.gov.sg/halal/establishments?id=EERT20220000139",
    "sourceQuote": "MUIS halal certified (EERT20220000139)",
    "verifiedMethod": "web-source",
    "source": "muis"
  },
  {
    "name": "Al-Amir Markt und Grocery",
    "address": "49 Pankstraße, Berlin, Berlin, 13357",
    "latitude": "52.5515287",
    "longitude": "13.3807854",
    "city": "Berlin, Berlin",
    "country": "Germany",
    "halalStatus": "full",
    "cuisine": "",
    "sourceUrl": "https://www.zabihah.com/restaurants/cb2cb857-7767-11ef-95ae-6045bdeb9f57/al-amir-markt-und-grocery-berlin-berlin",
    "sourceQuote": "Zabihah listing — halal restaurant",
    "verifiedMethod": "web-source",
    "source": "zabihah"
  },
  {
    "name": "Al-Amir ßtterem",
    "address": "18 Petıfi Sándor utca, Budapest, Central Hungary, 1052",
    "latitude": "47.494718",
    "longitude": "19.0532919",
    "city": "Budapest, Central Hungary",
    "country": "Hungary",
    "halalStatus": "full",
    "cuisine": "",
    "sourceUrl": "https://www.zabihah.com/restaurants/cb89d904-7767-11ef-95ae-6045bdeb9f57/al-amir-tterem-budapest-central-hungary",
    "sourceQuote": "Zabihah listing — halal restaurant",
    "verifiedMethod": "web-source",
    "source": "zabihah"
  },
  {
    "name": "Al-An&#x27;am Halal Meat",
    "address": "940 12th Street, New Westminster, BC, V3M 4K6",
    "latitude": "49.2132437",
    "longitude": "-122.9376178",
    "city": "New Westminster, BC",
    "country": "Canada",
    "halalStatus": "full",
    "cuisine": "",
    "sourceUrl": "https://www.zabihah.com/restaurants/caa70dfc-7767-11ef-95ae-6045bdeb9f57/al-anam-halal-meat-new-westminster-bc",
    "sourceQuote": "Zabihah listing — halal restaurant",
    "verifiedMethod": "web-source",
    "source": "zabihah"
  },
  {
    "name": "AL-AZHAR",
    "address": "11 & 12 CHEONG CHIN NAM ROAD 599736",
    "latitude": "1.3429",
    "longitude": "103.7752",
    "city": "Singapore",
    "country": "Singapore",
    "halalStatus": "full",
    "cuisine": "Restaurant",
    "sourceUrl": "https://halal.muis.gov.sg/halal/establishments?id=EERT20240000904",
    "sourceQuote": "MUIS halal certified (EERT20240000904)",
    "verifiedMethod": "web-source",
    "source": "muis"
  },
  {
    "name": "Al-Baik",
    "address": "",
    "latitude": "41.6373618",
    "longitude": "-0.8763386",
    "city": "",
    "country": "Spain",
    "halalStatus": "options",
    "cuisine": "kebab",
    "sourceUrl": "https://www.openstreetmap.org/node/4328274865",
    "sourceQuote": "OpenStreetMap diet:halal=yes",
    "verifiedMethod": "web-source",
    "source": "osm"
  },
  {
    "name": "Al-Baraka",
    "address": "240 Carrer de València, Barcelona, Catalunya, 08007",
    "latitude": "41.3905037",
    "longitude": "2.160575",
    "city": "Barcelona, Catalunya",
    "country": "Spain",
    "halalStatus": "full",
    "cuisine": "",
    "sourceUrl": "https://www.zabihah.com/restaurants/c3c38bf1-eb16-4766-99f7-86f31a4eb085/al-baraka-barcelona-catalunya",
    "sourceQuote": "Zabihah listing — halal restaurant",
    "verifiedMethod": "web-source",
    "source": "zabihah"
  },
  {
    "name": "Al-Basha Halal Grill",
    "address": "1730 Abbey Place, Charlotte, NC, 28209",
    "latitude": "35.170647599999995",
    "longitude": "-80.8465835",
    "city": "Charlotte, NC",
    "country": "USA",
    "halalStatus": "full",
    "cuisine": "",
    "sourceUrl": "https://www.zabihah.com/restaurants/f8154000-14a3-4cde-801f-b0b4543a44e9/al-basha-halal-charlotte-nc",
    "sourceQuote": "Zabihah listing — halal restaurant",
    "verifiedMethod": "web-source",
    "source": "zabihah"
  },
  {
    "name": "Al-Fazal Döner Kebab",
    "address": "6 Calle de Antonio Mompeón Motos, Zaragoza, Aragon, 50017",
    "latitude": "41.6511334",
    "longitude": "-0.9125211000000001",
    "city": "Zaragoza, Aragon",
    "country": "Spain",
    "halalStatus": "full",
    "cuisine": "",
    "sourceUrl": "https://www.zabihah.com/restaurants/418e370f-9f79-4910-b00b-770dec59e675/al-fazal-dner-kebab-zaragoza-aragon",
    "sourceQuote": "Zabihah listing — halal restaurant",
    "verifiedMethod": "web-source",
    "source": "zabihah"
  },