{
  "US|1141 Brighton Beach Ave, USA": {
    "latitude": "40.5777565",
    "longitude": "-73.9554906",
    "address": "1141, Brighton Beach Avenue, Brooklyn, NY, 11235",
    "city": "Brooklyn, NY",
    "country": "USA"
  },
  "US|Halal Restaurants NYC, New York, USA": null,
  "US|Halal Restaurants NYC, USA": {
    "latitude": "37.5345676",
    "longitude": "-121.9651449",
    "address": "40645, Fremont Boulevard, Fremont, CA, 94538",
    "city": "Fremont, CA",
    "country": "USA"
  },
  "US|1762 Westchester Ave, The Bronx, NY 10472, USA, USA": {
    "latitude": "40.8312583",
    "longitude": "-73.8679191",
    "address": "1762, Westchester Avenue, New York, New York, 10472",
    "city": "New York, New York",
    "country": "USA"
  },
  "US|still draws crowds for its chicken and gyro platters, drizzled with their signature white sauce and a fiery red hot sauce that’s not for the, USA": null,
  "US|The Halal Times, New York, USA": null,
  "US|The Halal Times, USA": {
    "latitude": "34.7988256",
    "longitude": "-87.6778038",
    "address": "219, West Tennessee Street, Florence, AL, 35630",
    "city": "Florence, AL",
    "country": "USA"
  },
  "US|New York Street Food, New York, USA": {
    "latitude": "40.7292053",
    "longitude": "-73.9950148",
    "address": "Bleecker Street, New York, NY, 10012",
    "city": "New York, NY",
    "country": "USA"
  },
  "US|Home, New York, USA": {
    "latitude": "32.1988867",
    "longitude": "-110.8209401",
    "address": "Tucson, Arizona, 85710",
    "city": "Tucson, Arizona",
    "country": "USA"
  },
  "US|2 Zabiha Cafe in New York, NY, New York, USA": {
    "latitude": "40.7561938",
    "longitude": "-73.969411",
    "address": "217, East 51st Street, New York, New York, 10022",
    "city": "New York, New York",
    "country": "USA"
  },
  "US|Best Zabiha Restaurants in New York, New York, USA": null,
  "US|Best Zabiha Restaurants in New York, USA": null,
  "US|on West 53rd Street., USA": {
    "latitude": "47.2085921",
    "longitude": "-122.5361134",
    "address": "University Place, Washington, 98467",
    "city": "University Place, Washington",
    "country": "USA"
  },
  "US|you agree to our, USA": null,
  "US|Time Out New York, New York, USA": {
    "latitude": "40.7035986",
    "longitude": "-73.9918867",
    "address": "55, Water Street, Brooklyn, NY, 11201",
    "city": "Brooklyn, NY",
    "country": "USA"
  },
  "US|Manhattan Halal Restaurant, New York, USA": null,
  "US|Manhattan Halal Restaurant, USA": {
    "latitude": "37.5345676",
    "longitude": "-121.9651449",
    "address": "40645, Fremont Boulevard, Fremont, CA, 94538",
    "city": "Fremont, CA",
    "country": "USA"
  },
  "US|Mia Halal Food, New York, USA": {
    "latitude": "40.6851985",
    "longitude": "-73.9781047",
    "address": "Ashland Place, New York, New York, 11217",
    "city": "New York, New York",
    "country": "USA"
  },
  "US|you consent to receive offers and promotions from Zabiha Halal and Living Halal. You can unsubscribe at anytime. ©2022 Zabiha Halal, USA": null,
  "US|Zabiha Halal Restaurants, Phoenix, USA": null,
  "US|Zabiha Halal Restaurants, USA": {
    "latitude": "37.5345676",
    "longitude": "-121.9651449",
    "address": "40645, Fremont Boulevard, Fremont, CA, 94538",
    "city": "Fremont, CA",
    "country": "USA"
  },
  "US|About, Phoenix, USA": {
    "latitude": "33.6752647",
    "longitude": "-111.9798241",
    "address": "20910, North Tatum Boulevard, Phoenix, AZ, 85050-6105",
    "city": "Phoenix, AZ",
    "country": "USA"
  },
  "US|you consent to receive offers and …, USA": null,
  "US|Zabiha Halal Restaurants In, Phoenix, USA": null,
  "US|Zabiha Halal Restaurants In, USA": null,
  "US|Zabiha Restuarants, Phoenix, USA": {
    "latitude": "36.9611922",
    "longitude": "-122.0468005",
    "address": "2301, Mission Street, Santa Cruz, CA, 95061",
    "city": "Santa Cruz, CA",
    "country": "USA"
  },
  "US|CheckMyHalal, Phoenix, USA": {
    "latitude": "33.4484367",
    "longitude": "-112.074141",
    "address": "Arizona",
    "city": "Arizona",
    "country": "USA"
  },
  "US|Button -->, USA": {
    "latitude": "67.1728188",
    "longitude": "-151.7798997",
    "address": "Alaska",
    "city": "Alaska",
    "country": "USA"
  },
  "US||\\n\\nWalking into Khyber Halal Restaurant \\u0026 Catering, I was immediately captivated by the *delicious aromas* that filled the air. The d, USA": null,
  "US|Phoenix Wanderer, Phoenix, USA": {
    "latitude": "33.4484367",
    "longitude": "-112.074141",
    "address": "Arizona",
    "city": "Arizona",
    "country": "USA"
  },
  "US|updates for every halal spot in the city., USA": null,
  "US|Verified Halal Food in Phoenix, AZ, Phoenix, USA": {
    "latitude": "33.4957052",
    "longitude": "-112.1119098",
    "address": "2430, West Indian School Road, Phoenix, AZ, 85015",
    "city": "Phoenix, AZ",
    "country": "USA"
  },
  "US|1638N, 40th Street Phoenix, USA": {
    "latitude": "33.5103576",
    "longitude": "-111.9953175",
    "address": "Phoenix, Arizona, 85018",
    "city": "Phoenix, Arizona",
    "country": "USA"
  },
  "US|1638 N 40th St, Phoenix, AZ 85008\\n\\ud83c\\udf10 Order Online or Learn More: www.hilalgrill.com\\n\\nFrom aromatic curries to sizzling kebabs,, USA": null,
  "US|&#x1f525; HOT-FRESH- HALAL BBQ done RIGHT &#x2014; only at Hilal Grill, Phoenix! &#x1f357;, Phoenix, USA": null,
  "US|&#x1f525; HOT-FRESH- HALAL BBQ done RIGHT &#x2014; only at Hilal Grill, Phoenix! &#x1f357;, USA": null,
  "US|Phoenix, AZ, Phoenix, USA": {
    "latitude": "33.4484367",
    "longitude": "-112.074141",
    "address": "Arizona",
    "city": "Arizona",
    "country": "USA"
  },
  "US|has a dedicated halal butcher counter., USA": null,
  "US|Halal Food and Restaurants in Detroit, Detroit, USA": null,
  "US|Halal Food and Restaurants in Detroit, USA": null,
  "US|CheckMyHalal, Detroit, USA": {
    "latitude": "42.3641217",
    "longitude": "-83.0884919",
    "address": "2648, West Grand Boulevard, Detroit, MI, 48200",
    "city": "Detroit, MI",
    "country": "USA"
  },
  "US|6545 Orchard Lake Rd, West Bloomfield Township, MI 48322, USA, USA": null,
  "US|Prime29 Steakhouse, Detroit, USA": null,
  "US|Prime29 Steakhouse, USA": {
    "latitude": "42.542551",
    "longitude": "-83.3589297",
    "address": "West Maple Road, West Bloomfield Charter Township, Michigan, 48322",
    "city": "West Bloomfield Charter Township, Michigan",
    "country": "USA"
  },
  "US|211 W. Fort Street, Suite 1000, USA": {
    "latitude": "40.5799021",
    "longitude": "-105.0797096",
    "address": "211, West Myrtle Street, Fort Collins, CO, 80521",
    "city": "Fort Collins, CO",
    "country": "USA"
  },
  "US|Detroit, MI, Detroit, USA": {
    "latitude": "42.3641217",
    "longitude": "-83.0884919",
    "address": "2648, West Grand Boulevard, Detroit, MI, 48200",
    "city": "Detroit, MI",
    "country": "USA"
  },
  "US|Halal Food Junkie, Detroit, USA": null,
  "US|Halal Food Junkie, USA": {
    "latitude": "32.7490589",
    "longitude": "-117.0873612",
    "address": "50th Street, San Diego, California, 92105",
    "city": "San Diego, California",
    "country": "USA"
  },
  "US|on Greenfield & Rotunda\\n\\n#fyp #michigan #dough #bakery #frozen\"},\"__isNode\":\"Video\"}}],\"short_form_video_context\":{\"play_count_reduced\":\"3, USA": null,
  "US|9K views &#xb7; 16 reactions, Detroit, USA": null,
  "US|9K views &#xb7; 16 reactions, USA": null,
  "US|5.6K views &#xb7; 44 reactions, Detroit, USA": null,
  "US|5.6K views &#xb7; 44 reactions, USA": null,
  "ES|Mango Tree, Barcelona, Spain": {
    "latitude": "41.4224631",
    "longitude": "2.1945552",
    "address": "Carrer del Pont del Treball Digne, Barcelona, Catalunya, 08020",
    "city": "Barcelona, Catalunya",
    "country": "Spain"
  },
  "ES|*\" data-parsley-required=\"true\" data-parsley-minlength=\"6\" data-parsley-maxlength=\"150\" data-parsley-error-message=\"Please specify a valid e, Spain": null,
  "ES|Halal Girl About Town, Barcelona, Spain": null,
  "ES|Halal Girl About Town, Spain": null,
  "ES|Button -->, Spain": {
    "latitude": "42.7674398",
    "longitude": "-3.6515469",
    "address": "Los Altos, Castilla y León",
    "city": "Los Altos, Castilla y León",
    "country": "Spain"
  },
  "ES|\\u003C\\u002Fstrong> Carrer de Pau Claris, 70, 08010 Barcelona, Spain\\u003C\\u002Fp>\\u003Cp>\\u003Cstrong>Opening Hours\\u003C\\u002Fstrong>: Dai, Spain": null,
  "ES|HalalZilla, Barcelona, Spain": {
    "latitude": "41.3825802",
    "longitude": "2.177073",
    "address": "Catalunya",
    "city": "Catalunya",
    "country": "Spain"
  },
  "ES|AL BARAKA, Barcelona, Spain": {
    "latitude": "41.3904473",
    "longitude": "2.1605444",
    "address": "Carrer de València, Barcelona, Catalunya, 08011",
    "city": "Barcelona, Catalunya",
    "country": "Spain"
  },
  "ES|BY CROUSTY Barcelona, Barcelona, Spain": {
    "latitude": "41.3638447",
    "longitude": "2.1107719",
    "address": "6, Avinguda de Ventura Gassol, l'Hospitalet de Llobregat, Catalunya, 08901",
    "city": "l'Hospitalet de Llobregat, Catalunya",
    "country": "Spain"
  },
  "ES|Mutiar Mas, Valencia, Spain": {
    "latitude": "39.4881796",
    "longitude": "-0.4813204",
    "address": "Carretera del Aeropuerto, Manises, Comunitat Valenciana, 46940",
    "city": "Manises, Comunitat Valenciana",
    "country": "Spain"
  },
  "ES|before{content:\"\";flex-shrink:0;width:24px;height:24px;background-size:contain}.filters-panel .filters-section{width:100%}.filters-panel .fi, Spain": null,
  "ES|Restaurant Guru, Valencia, Spain": {
    "latitude": "39.1641635",
    "longitude": "-0.244928",
    "address": "Carrer del Cabanyal, Cullera, Comunitat Valenciana, 46400",
    "city": "Cullera, Comunitat Valenciana",
    "country": "Spain"
  },
  "ES|Halalfoodle, Valencia, Spain": {
    "latitude": "39.6819591",
    "longitude": "-0.7654406",
    "address": "",
    "city": "",
    "country": "Spain"
  },
  "ES|Sultan's Feast, Valencia, Spain": {
    "latitude": "39.7076339",
    "longitude": "-0.5163554",
    "address": "Olocau, Comunitat Valenciana, 46169",
    "city": "Olocau, Comunitat Valenciana",
    "country": "Spain"
  },
  "ES|KINGS CORNER &#x2022; Halal French Tacos Burger Kebab Valencia (@tacoskingscorner) &#x2022, Valencia, Spain": null,
  "ES|KINGS CORNER &#x2022; Halal French Tacos Burger Kebab Valencia (@tacoskingscorner) &#x2022, Spain": null,
  "PL|Button -->, Poland": {
    "latitude": "53.0313759",
    "longitude": "18.5881258",
    "address": "Szosa Chełmińska, Toruń, województwo kujawsko-pomorskie, 87-119",
    "city": "Toruń, województwo kujawsko-pomorskie",
    "country": "Poland"
  },
  "PL|to find nearby listings.\",\"nearby_listings_retrieving_location\":\"Retrieving location...\",\"nearby_listings_searching\":\"Searching for nearby l, Poland": null,
  "PL|IbnBattutaTravel.com, Warsaw, Poland": {
    "latitude": "52.2091426",
    "longitude": "21.009485",
    "address": "162, Aleja Niepodległości, Warszawa, województwo mazowieckie, 02-554",
    "city": "Warszawa, województwo mazowieckie",
    "country": "Poland"
  },
  "PL|Warsaw, Warsaw, Poland": {
    "latitude": "52.2333742",
    "longitude": "21.0711489",
    "address": "województwo mazowieckie",
    "city": "województwo mazowieckie",
    "country": "Poland"
  },
  "PL|and schedule, as the community has grown beyond the original Wiertnicza premises., Poland": null,
  "PL|Halal Food and Restaurants in Poland, Warsaw, Poland": {
    "latitude": "52.2074458",
    "longitude": "21.0006906",
    "address": "36, Rakowiecka, Warszawa, województwo mazowieckie, 02-532",
    "city": "Warszawa, województwo mazowieckie",
    "country": "Poland"
  },
  "PL|Krakow, Krakow, Poland": {
    "latitude": "50.0619474",
    "longitude": "19.9368564",
    "address": "województwo małopolskie",
    "city": "województwo małopolskie",
    "country": "Poland"
  },
  "PL|{\r\n        text-align: right;\r\n        position: absolute;\r\n        right: 35px;\r\n        color: #fff;\r\n        letter-spacing: 0.2px;, Poland": null,
  "PL|HalalTrip, Krakow, Poland": {
    "latitude": "50.0619474",
    "longitude": "19.9368564",
    "address": "województwo małopolskie",
    "city": "województwo małopolskie",
    "country": "Poland"
  },
  "PL|Halalfoodle, Krakow, Poland": {
    "latitude": "50.0619474",
    "longitude": "19.9368564",
    "address": "województwo małopolskie",
    "city": "województwo małopolskie",
    "country": "Poland"
  },
  "PL|before{content:\"\";flex-shrink:0;width:24px;height:24px;background-size:contain}.filters-panel .filters-section{width:100%}.filters-panel .fi, Poland": null,
  "PL|Restaurant Guru, Krakow, Poland": {
    "latitude": "50.0480536",
    "longitude": "19.9601376",
    "address": "15, Przemysłowa, Kraków, województwo małopolskie, 30-701",
    "city": "Kraków, województwo małopolskie",
    "country": "Poland"
  },
  "PL|Halal in Kraków, Krakow, Poland": {
    "latitude": "50.0604369",
    "longitude": "19.9236105",
    "address": "1, Aleja 3 Maja, Kraków, województwo małopolskie, 30-062",
    "city": "Kraków, województwo małopolskie",
    "country": "Poland"
  },
  "JP|FLIP Japan Guide, Tokyo, Japan": {
    "latitude": "35.709016",
    "longitude": "139.5801411",
    "address": "成蹊東門通り, 東京都, 180-0000",
    "city": "東京都",
    "country": "Japan"
  },
  "JP|Halal Food and Restaurants in Tokyo, Tokyo, Japan": {
    "latitude": "35.7057037",
    "longitude": "139.6484302",
    "address": "セントラルロード, 東京都, 166-0002",
    "city": "東京都",
    "country": "Japan"
  },
  "JP|access\\\",\\\"nearMeDescription\\\":\\\"Show halal spots within 5km\\\",\\\"forOwnersLink\\\":\\\"Are you a store owner?\\\",\\\"popularNowKicker\\\":\\\"Trending\\, Japan": null,
  "JP|Halal Food in Japan, Tokyo, Japan": {
    "latitude": "35.7057037",
    "longitude": "139.6484302",
    "address": "セントラルロード, 東京都, 166-0002",
    "city": "東京都",
    "country": "Japan"
  },
  "JP|Halal Food Options and Restaurants in Japan, Tokyo, Japan": null,
  "JP|Halal Food Options and Restaurants in Japan, Japan": null,
  "JP|\\u003c/b\\u003e Ayam-ya Halal Ramen Tokyo, Motoasakusa 3 Chome 10-3, Taito City, Tokyo\\u003c/p\\u003e\\u003cp data-block-key=\\\"ctv6o\\\"\\u003e\\u0, Japan": null,
  "JP|The Ultimate Guide to Halal Japanese Food in Tokyo, Tokyo, Japan": null,
  "JP|The Ultimate Guide to Halal Japanese Food in Tokyo, Japan": null,
  "JP|makes it convenient for tourists visiting the temple district., Japan": null,
  "JP|Halal Food and Restaurants in Japan, Tokyo, Japan": {
    "latitude": "35.7057037",
    "longitude": "139.6484302",
    "address": "セントラルロード, 東京都, 166-0002",
    "city": "東京都",
    "country": "Japan"
  },
  "JP|YiCgf5NH7mBP1pqUFD8f0w\":{\"__typename\":\"BusinessLocation\",\"encid\":\"YiCgf5NH7mBP1pqUFD8f0w\",&quot, Japan": null,
  "JP|The Best 10 Halal Restaurants near Tokyo Station Marunouchi, Chiyoda, 東京都, Tokyo, Japan": null,
  "JP|The Best 10 Halal Restaurants near Tokyo Station Marunouchi, Chiyoda, 東京都, Japan": null,
  "JP|Halal Food In Japan, Tokyo, Japan": {
    "latitude": "35.7057037",
    "longitude": "139.6484302",
    "address": "セントラルロード, 東京都, 166-0002",
    "city": "東京都",
    "country": "Japan"
  },
  "BR|BRAZIL Travel Tips &#x1f1e7;&#x1f1f7, Rio de Janeiro, Brazil": null,
  "BR|BRAZIL Travel Tips &#x1f1e7;&#x1f1f7, Brazil": null,
  "BR|Button -->, Brazil": {
    "latitude": "-27.019",
    "longitude": "-48.926",
    "address": "Brusque, Santa Catarina, 89112-880",
    "city": "Brusque, Santa Catarina",
    "country": "Brazil"
  },
  "BR|Halalfoodle, Rio de Janeiro, Brazil": {
    "latitude": "-22.9110137",
    "longitude": "-43.2093727",
    "address": "Rio de Janeiro",
    "city": "Rio de Janeiro",
    "country": "Brazil"
  },
  "RU|Button -->, Russia": {
    "latitude": "60.038657",
    "longitude": "30.3290934",
    "address": "8 к1, улица Есенина, Санкт-Петербург, Санкт-Петербург, 194354",
    "city": "Санкт-Петербург, Санкт-Петербург",
    "country": "Russia"
  },
  "RU|Halal Food and Restaurants in Russia, Moscow, Russia": null,
  "RU|Halal Food and Restaurants in Russia, Russia": {
    "latitude": "56.5134835",
    "longitude": "85.0314379",
    "address": "97, улица Ивана Черных, Томск, Томская область, 634062",
    "city": "Томск, Томская область",
    "country": "Russia"
  },
  "RU|with you. No need to force people to create an account in this app.Edit 2: Thanks for removing the login wall. Obviously, it makes sense to, Russia": null,
  "RU|App Store, Moscow, Russia": {
    "latitude": "55.8111398",
    "longitude": "37.8022957",
    "address": "Щёлковское шоссе (дублёр), Москва, Москва, 105215",
    "city": "Москва, Москва",
    "country": "Russia"
  },
  "RU|Moscow, Manezhnaya Square, Russia": {
    "latitude": "55.7506195",
    "longitude": "37.6115498",
    "address": "Москва, Москва, 119019",
    "city": "Москва, Москва",
    "country": "Russia"
  },
  "RU|Lva Tolstogo Street, 16, Russia": {
    "latitude": "54.1700593",
    "longitude": "45.9682515",
    "address": "16, улица Льва Толстого, Большие Березники, Мордовия, 431750",
    "city": "Большие Березники, Мордовия",
    "country": "Russia"
  },
  "RU|{\r\n        text-align: right;\r\n        position: absolute;\r\n        right: 35px;\r\n        color: #fff;\r\n        letter-spacing: 0.2px;, Russia": null,
  "RU|HalalTrip, Saint Petersburg, Russia": {
    "latitude": "59.9606739",
    "longitude": "30.1586551",
    "address": "",
    "city": "",
    "country": "Russia"
  },
  "RU|is impressive, which is great if you are coming with a big group of people., Russia": null,
  "RU|42, universe, Saint Petersburg, Russia": {
    "latitude": "59.9406782",
    "longitude": "30.2964999",
    "address": "Филологический переулок, Санкт-Петербург, Санкт-Петербург, 199034",
    "city": "Санкт-Петербург, Санкт-Петербург",
    "country": "Russia"
  },
  "RU|Saint Petersburg, Rubinshteyna Street, 4, Russia": {
    "latitude": "59.9321902",
    "longitude": "30.3464246",
    "address": "4, улица Рубинштейна, Санкт-Петербург, Санкт-Петербург, 190000",
    "city": "Санкт-Петербург, Санкт-Петербург",
    "country": "Russia"
  },
  "RU|Samiya M Ahmed, Saint Petersburg, Russia": null,
  "RU|Samiya M Ahmed, Russia": null,
  "RU|Tampa Halal Food, Saint Petersburg, Russia": null,
  "RU|Tampa Halal Food, Russia": {
    "latitude": "53.1850919",
    "longitude": "50.1028865",
    "address": "61, Садовая улица, Самара, Самарская область, 443028",
    "city": "Самара, Самарская область",
    "country": "Russia"
  },
  "RU|CheckMyHalal, Saint Petersburg, Russia": {
    "latitude": "59.9606739",
    "longitude": "30.1586551",
    "address": "",
    "city": "",
    "country": "Russia"
  },
  "RU|of Salem's Fresh Eats\" loading=\"lazy\" width=\"600\" height=\"400\" decoding=\"async\" data-nimg=\"1\" class=\"w-full h-full object-cover\" style=, Russia": null,
  "RU|Best Halal Restaurants in St. Petersburg, Saint Petersburg, Russia": null,
  "RU|Best Halal Restaurants in St. Petersburg, Russia": null,
  "UA|Button -->, Ukraine": {
    "latitude": "48.9209869",
    "longitude": "24.7131839",
    "address": "вулиця Леся Курбаса, Івано-Франківськ, Івано-Франківська область, 76010",
    "city": "Івано-Франківськ, Івано-Франківська область",
    "country": "Ukraine"
  },
  "UA|to find nearby listings.\",\"nearby_listings_retrieving_location\":\"Retrieving location...\",\"nearby_listings_searching\":\"Searching for nearby l, Ukraine": null,
  "UA|IbnBattutaTravel.com, Kyiv, Ukraine": {
    "latitude": "50.4279373",
    "longitude": "30.5409808",
    "address": "1, площа Лесі Українки, Київ, 01196",
    "city": "Київ",
    "country": "Ukraine"
  },
  "UA|Halalfoodle, Kyiv, Ukraine": {
    "latitude": "50.4500336",
    "longitude": "30.5241361",
    "address": "",
    "city": "",
    "country": "Ukraine"
  },
  "UA|Spinzer Restaurant, Kyiv, Ukraine": {
    "latitude": "50.500493",
    "longitude": "30.5005745",
    "address": "вулиця Героїв полку «Азов», Київ, 04205",
    "city": "Київ",
    "country": "Ukraine"
  },
  "UA|Halal Food in Ukraine 2026, Kyiv, Ukraine": {
    "latitude": "50.3959726",
    "longitude": "30.5007416",
    "address": "Васильківська вулиця, Київ, 03040",
    "city": "Київ",
    "country": "Ukraine"
  }
}
