[
  {
    "name": "Kabana",
    "address": "167 Lygon Street, Carlton, 3053",
    "latitude": "-37.8017966",
    "longitude": "144.9665445",
    "city": "Carlton",
    "country": "Australia",
    "halalStatus": "full",
    "cuisine": "Afghan",
    "sourceUrl": "https://www.openstreetmap.org/node/457815910",
    "sourceQuote": "OpenStreetMap diet:halal=yes",
    "verifiedMethod": "web-source",
    "source": "osm"
  },
  {
    "name": "Likya - Turkish Eatery",
    "address": "174 Rathdowne Street",
    "latitude": "-37.795314",
    "longitude": "144.971083",
    "city": "",
    "country": "Australia",
    "halalStatus": "full",
    "cuisine": "turkish",
    "sourceUrl": "https://www.openstreetmap.org/node/1064821312",
    "sourceQuote": "OpenStreetMap diet:halal=only",
    "verifiedMethod": "web-source",
    "source": "osm"
  },
  {
    "name": "Griller's Mark",
    "address": "",
    "latitude": "-37.559935",
    "longitude": "143.8583396",
    "city": "",
    "country": "Australia",
    "halalStatus": "full",
    "cuisine": "",
    "sourceUrl": "https://www.openstreetmap.org/node/1594018604",
    "sourceQuote": "OpenStreetMap diet:halal=yes",
    "verifiedMethod": "web-source",
    "source": "osm"
  },
  {
    "name": "Oscar's",
    "address": "3 Hill End Road, Doonside",
    "latitude": "-33.7632591",
    "longitude": "150.869679",
    "city": "Doonside",
    "country": "Australia",
    "halalStatus": "full",
    "cuisine": "kebab",
    "sourceUrl": "https://www.openstreetmap.org/node/1670216054",
    "sourceQuote": "OpenStreetMap diet:halal=yes",
    "verifiedMethod": "web-source",
    "source": "osm"
  },
  {
    "name": "Angarra Indian Restaurant",
    "address": "349 Torrens Road, Kilkenny, SA, 5009",
    "latitude": "-34.880985",
    "longitude": "138.5575348",
    "city": "Kilkenny, SA",
    "country": "Australia",
    "halalStatus": "full",
    "cuisine": "indian",
    "sourceUrl": "https://www.openstreetmap.org/node/2285376235",
    "sourceQuote": "OpenStreetMap diet:halal=yes",
    "verifiedMethod": "web-source",
    "source": "osm"
  },
  {
    "name": "Ho Ho's Canteen",
    "address": "13 Royal Parade",
    "latitude": "-37.7974144",
    "longitude": "144.9584924",
    "city": "",
    "country": "Australia",
    "halalStatus": "full",
    "cuisine": "lebanese;cake;sandwich;coffee_shop;juice",
    "sourceUrl": "https://www.openstreetmap.org/node/2353039687",
    "sourceQuote": "OpenStreetMap diet:halal=yes",
    "verifiedMethod": "web-source",
    "source": "osm"
  },
  {
    "name": "Coco Cozy",
    "address": "44 Musk Avenue, 4059",
    "latitude": "-27.4539309",
    "longitude": "153.013801",
    "city": "",
    "country": "Australia",
    "halalStatus": "full",
    "cuisine": "coffee_shop",
    "sourceUrl": "https://www.openstreetmap.org/node/2744074663",
    "sourceQuote": "OpenStreetMap diet:halal=yes",
    "verifiedMethod": "web-source",
    "source": "osm"
  },
  {
    "name": "Chase Docklands",
    "address": "50 Newquay Promenade",
    "latitude": "-37.8148552",
    "longitude": "144.9415241",
    "city": "",
    "country": "Australia",
    "halalStatus": "full",
    "cuisine": "middle_eastern",
    "sourceUrl": "https://www.openstreetmap.org/node/3375918893",
    "sourceQuote": "OpenStreetMap diet:halal=yes",
    "verifiedMethod": "web-source",
    "source": "osm"
  },
  {
    "name": "The Glass House Cafe",
    "address": "",
    "latitude": "-35.2819706",
    "longitude": "149.1338324",
    "city": "",
    "country": "Australia",
    "halalStatus": "full",
    "cuisine": "coffee_shop",
    "sourceUrl": "https://www.openstreetmap.org/node/4071115983",
    "sourceQuote": "OpenStreetMap diet:halal=yes",
    "verifiedMethod": "web-source",
    "source": "osm"
  },
  {
    "name": "It's Time for Thai",
    "address": "",
    "latitude": "-33.882012",
    "longitude": "151.2042771",
    "city": "",
    "country": "Australia",
    "halalStatus": "full",
    "cuisine": "thai",
    "sourceUrl": "https://www.openstreetmap.org/node/4993367221",
    "sourceQuote": "OpenStreetMap diet:halal=yes",
    "verifiedMethod": "web-source",
    "source": "osm"
  },
  {
    "name": "Docklands Den",
    "address": "5 Rakaia Way, Docklands, VIC, 3008",
    "latitude": "-37.8140951",
    "longitude": "144.9403455",
    "city": "Docklands, VIC",
    "country": "Australia",
    "halalStatus": "full",
    "cuisine": "",
    "sourceUrl": "https://www.openstreetmap.org/node/5565502254",
    "sourceQuote": "OpenStreetMap diet:halal=yes",
    "verifiedMethod": "web-source",
    "source": "osm"
  },
  {
    "name": "Zambeekas Char Grilled Chicken",
    "address": "7 Chester Hill Road",
    "latitude": "-33.8834021",
    "longitude": "151.0007983",
    "city": "",
    "country": "Australia",
    "halalStatus": "full",
    "cuisine": "chicken;salad;fries;burger",
    "sourceUrl": "https://www.openstreetmap.org/node/5767009562",
    "sourceQuote": "OpenStreetMap diet:halal=yes",
    "verifiedMethod": "web-source",
    "source": "osm"
  },
  {
    "name": "Rockdale Halal Chickens",
    "address": "",
    "latitude": "-33.9519307",
    "longitude": "151.1360582",
    "city": "",
    "country": "Australia",
    "halalStatus": "full",
    "cuisine": "chicken",
    "sourceUrl": "https://www.openstreetmap.org/node/5826201265",
    "sourceQuote": "OpenStreetMap diet:halal=yes",
    "verifiedMethod": "web-source",
    "source": "osm"
  },
  {
    "name": "Masitta",
    "address": "51 Plenty Road",
    "latitude": "-37.7498698",
    "longitude": "145.0030954",
    "city": "",
    "country": "Australia",
    "halalStatus": "full",
    "cuisine": "korean;fried_chicken",
    "sourceUrl": "https://www.openstreetmap.org/node/6017394217",
    "sourceQuote": "OpenStreetMap diet:halal=yes",
    "verifiedMethod": "web-source",
    "source": "osm"
  },
  {
    "name": "Mofo Burgers",
    "address": "100 Leicester Street, Carlton, VIC, 3053",
    "latitude": "-37.8036835",
    "longitude": "144.9606121",
    "city": "Carlton, VIC",
    "country": "Australia",
    "halalStatus": "full",
    "cuisine": "burger;coffee_shop;juice",
    "sourceUrl": "https://www.openstreetmap.org/node/6231355885",
    "sourceQuote": "OpenStreetMap diet:halal=yes",
    "verifiedMethod": "web-source",
    "source": "osm"
  },
  {
    "name": "Made in Italy Sydney CBD",
    "address": "37 York Lane",
    "latitude": "-33.8663263",
    "longitude": "151.2053926",
    "city": "",
    "country": "Australia",
    "halalStatus": "full",
    "cuisine": "pizza;italian;pasta",
    "sourceUrl": "https://www.openstreetmap.org/node/6477383657",
    "sourceQuote": "OpenStreetMap diet:halal=yes",
    "verifiedMethod": "web-source",
    "source": "osm"
  },
  {
    "name": "Ogalo",
    "address": "",
    "latitude": "-33.9090909",
    "longitude": "151.2236645",
    "city": "",
    "country": "Australia",
    "halalStatus": "full",
    "cuisine": "portuguese",
    "sourceUrl": "https://www.openstreetmap.org/node/6548736881",
    "sourceQuote": "OpenStreetMap diet:halal=yes",
    "verifiedMethod": "web-source",
    "source": "osm"
  },
  {
    "name": "Baba's Kebabs",
    "address": "",
    "latitude": "-33.9132001",
    "longitude": "151.2244777",
    "city": "",
    "country": "Australia",
    "halalStatus": "full",
    "cuisine": "kebab",
    "sourceUrl": "https://www.openstreetmap.org/node/6585657479",
    "sourceQuote": "OpenStreetMap diet:halal=yes",
    "verifiedMethod": "web-source",
    "source": "osm"
  },
  {
    "name": "Piccolo Me",
    "address": "",
    "latitude": "-33.8159387",
    "longitude": "151.0055163",
    "city": "",
    "country": "Australia",
    "halalStatus": "full",
    "cuisine": "",
    "sourceUrl": "https://www.openstreetmap.org/node/6775869868",
    "sourceQuote": "OpenStreetMap diet:halal=yes",
    "verifiedMethod": "web-source",
    "source": "osm"
  },
  {
    "name": "Stonehouse Bar & Cafe",
    "address": "12 Pioneer Street",
    "latitude": "-35.1652728",
    "longitude": "149.1324099",
    "city": "",
    "country": "Australia",
    "halalStatus": "full",
    "cuisine": "western;breakfast;lunch;dinner;pub;grill;pizza;liquor",
    "sourceUrl": "https://www.openstreetmap.org/node/8813063626",
    "sourceQuote": "OpenStreetMap diet:halal=yes",
    "verifiedMethod": "web-source",
    "source": "osm"
  },
  {
    "name": "Kebabs & Pizza on Queen",
    "address": "192 Queen Street, Campbelltown",
    "latitude": "-34.0671557",
    "longitude": "150.8141041",
    "city": "Campbelltown",
    "country": "Australia",
    "halalStatus": "full",
    "cuisine": "",
    "sourceUrl": "https://www.openstreetmap.org/node/9369125007",
    "sourceQuote": "OpenStreetMap diet:halal=yes",
    "verifiedMethod": "web-source",
    "source": "osm"
  },
  {
    "name": "Maharaha Karahi",
    "address": "98 Cahors Road, Padstow, NSW, 2211",
    "latitude": "-33.9499032",
    "longitude": "151.0302676",
    "city": "Padstow, NSW",
    "country": "Australia",
    "halalStatus": "full",
    "cuisine": "indian;pakistani",
    "sourceUrl": "https://www.openstreetmap.org/node/9427960258",
    "sourceQuote": "OpenStreetMap diet:halal=yes",
    "verifiedMethod": "web-source",
    "source": "osm"
  },
  {
    "name": "Charnwood Turkish Pide",
    "address": "55 Charnwood Place, Charnwood, ACT, 2615",
    "latitude": "-35.2047604",
    "longitude": "149.0342846",
    "city": "Charnwood, ACT",
    "country": "Australia",
    "halalStatus": "full",
    "cuisine": "turkish",
    "sourceUrl": "https://www.openstreetmap.org/node/9459526860",
    "sourceQuote": "OpenStreetMap diet:halal=yes",
    "verifiedMethod": "web-source",
    "source": "osm"
  },
  {
    "name": "Burger Hero",
    "address": "31 Mort Street",
    "latitude": "-35.2742369",
    "longitude": "149.1310794",
    "city": "",
    "country": "Australia",
    "halalStatus": "full",
    "cuisine": "burger;coffee_shop;fish_and_chips;international",
    "sourceUrl": "https://www.openstreetmap.org/node/10023374858",
    "sourceQuote": "OpenStreetMap diet:halal=yes",
    "verifiedMethod": "web-source",
    "source": "osm"
  },
  {
    "name": "Grill'd",
    "address": "",
    "latitude": "-27.4691356",
    "longitude": "153.0263513",
    "city": "",
    "country": "Australia",
    "halalStatus": "full",
    "cuisine": "burger",
    "sourceUrl": "https://www.openstreetmap.org/node/10069533124",
    "sourceQuote": "OpenStreetMap diet:halal=yes",
    "verifiedMethod": "web-source",
    "source": "osm"
  },
  {
    "name": "Marrybrown",
    "address": "",
    "latitude": "-37.8534735",
    "longitude": "145.1498059",
    "city": "",
    "country": "Australia",
    "halalStatus": "full",
    "cuisine": "malaysian;chicken;burger",
    "sourceUrl": "https://www.openstreetmap.org/node/10237557109",
    "sourceQuote": "OpenStreetMap diet:halal=yes",
    "verifiedMethod": "web-source",
    "source": "osm"
  },
  {
    "name": "Ho Ho's Xpress (Level 1)",
    "address": "11 Monash Road",
    "latitude": "-37.7987131",
    "longitude": "144.9635507",
    "city": "",
    "country": "Australia",
    "halalStatus": "full",
    "cuisine": "salad;lebanese;coffee_shop;regional;sandwich;pizza;juice",
    "sourceUrl": "https://www.openstreetmap.org/node/10718454415",
    "sourceQuote": "OpenStreetMap diet:halal=yes",
    "verifiedMethod": "web-source",
    "source": "osm"
  },
  {
    "name": "Brothers Kebab",
    "address": "398 Burwood Road",
    "latitude": "-33.9186783",
    "longitude": "151.0888824",
    "city": "",
    "country": "Australia",
    "halalStatus": "full",
    "cuisine": "turkish;kebab",
    "sourceUrl": "https://www.openstreetmap.org/node/10983333272",
    "sourceQuote": "OpenStreetMap diet:halal=yes",
    "verifiedMethod": "web-source",
    "source": "osm"
  },
  {
    "name": "Marrybrown",
    "address": "",
    "latitude": "-37.8101966",
    "longitude": "144.9638986",
    "city": "",
    "country": "Australia",
    "halalStatus": "full",
    "cuisine": "malaysian;chicken;burger",
    "sourceUrl": "https://www.openstreetmap.org/node/11104114003",
    "sourceQuote": "OpenStreetMap diet:halal=yes",
    "verifiedMethod": "web-source",
    "source": "osm"
  },
  {
    "name": "Kyrenia - Gyros in Kebabs",
    "address": "",
    "latitude": "-33.9522787",
    "longitude": "151.0511215",
    "city": "",
    "country": "Australia",
    "halalStatus": "full",
    "cuisine": "burger;kebab",
    "sourceUrl": "https://www.openstreetmap.org/node/11135216733",
    "sourceQuote": "OpenStreetMap diet:halal=only",
    "verifiedMethod": "web-source",
    "source": "osm"
  },
  {
    "name": "Royal Stacks",
    "address": "910 Doncaster Road, Doncaster East, VIC, 3109",
    "latitude": "-37.787937",
    "longitude": "145.1499424",
    "city": "Doncaster East, VIC",
    "country": "Australia",
    "halalStatus": "full",
    "cuisine": "burger",
    "sourceUrl": "https://www.openstreetmap.org/node/11145701654",
    "sourceQuote": "OpenStreetMap diet:halal=yes",
    "verifiedMethod": "web-source",
    "source": "osm"
  },
  {
    "name": "Warung Ita",
    "address": "168-176 Haldon Street, Lakemba, NSW, 2195",
    "latitude": "-33.9231663",
    "longitude": "151.078885",
    "city": "Lakemba, NSW",
    "country": "Australia",
    "halalStatus": "full",
    "cuisine": "indonesian",
    "sourceUrl": "https://www.openstreetmap.org/node/11160023603",
    "sourceQuote": "OpenStreetMap diet:halal=yes",
    "verifiedMethod": "web-source",
    "source": "osm"
  },
  {
    "name": "Desi Hub",
    "address": "164 Haldon Street, Lakemba, NSW, 2195",
    "latitude": "-33.9229175",
    "longitude": "151.0787352",
    "city": "Lakemba, NSW",
    "country": "Australia",
    "halalStatus": "full",
    "cuisine": "indian;pakistani",
    "sourceUrl": "https://www.openstreetmap.org/node/11160042707",
    "sourceQuote": "OpenStreetMap diet:halal=yes",
    "verifiedMethod": "web-source",
    "source": "osm"
  },
  {
    "name": "Frank & Lotti",
    "address": "",
    "latitude": "-41.5226753",
    "longitude": "146.6480207",
    "city": "",
    "country": "Australia",
    "halalStatus": "full",
    "cuisine": "",
    "sourceUrl": "https://www.openstreetmap.org/node/11289889966",
    "sourceQuote": "OpenStreetMap diet:halal=yes",
    "verifiedMethod": "web-source",
    "source": "osm"
  },
  {
    "name": "Nerang Kebab & Pizza",
    "address": "6-8 Ferry Street, Nerang, QLD, 4211",
    "latitude": "-27.9900537",
    "longitude": "153.3369099",
    "city": "Nerang, QLD",
    "country": "Australia",
    "halalStatus": "full",
    "cuisine": "kebab",
    "sourceUrl": "https://www.openstreetmap.org/node/11307569767",
    "sourceQuote": "OpenStreetMap diet:halal=yes",
    "verifiedMethod": "web-source",
    "source": "osm"
  },
  {
    "name": "Monkey King Thai",
    "address": "197-215 Condamine Street, Balgowlah, NSW, 2093",
    "latitude": "-33.7936044",
    "longitude": "151.2647854",
    "city": "Balgowlah, NSW",
    "country": "Australia",
    "halalStatus": "full",
    "cuisine": "thai",
    "sourceUrl": "https://www.openstreetmap.org/node/11478933365",
    "sourceQuote": "OpenStreetMap diet:halal=yes",
    "verifiedMethod": "web-source",
    "source": "osm"
  },
  {
    "name": "Viva Kebabs and Grill",
    "address": "2 Osprey Drive, Fraser Rise, VIC, 3336",
    "latitude": "-37.7123475",
    "longitude": "144.7260812",
    "city": "Fraser Rise, VIC",
    "country": "Australia",
    "halalStatus": "full",
    "cuisine": "kebab;turkish",
    "sourceUrl": "https://www.openstreetmap.org/node/11602413781",
    "sourceQuote": "OpenStreetMap diet:halal=yes",
    "verifiedMethod": "web-source",
    "source": "osm"
  },
  {
    "name": "Halal Meats & Kebabs Canbera",
    "address": "",
    "latitude": "-35.2459944",
    "longitude": "149.0653464",
    "city": "",
    "country": "Australia",
    "halalStatus": "full",
    "cuisine": "",
    "sourceUrl": "https://www.openstreetmap.org/node/11916915425",
    "sourceQuote": "OpenStreetMap diet:halal=yes",
    "verifiedMethod": "web-source",
    "source": "osm"
  },
  {
    "name": "Ape Cafe",
    "address": "301 The Grand Parade, Sans Souci, NSW, 2219",
    "latitude": "-33.9894212",
    "longitude": "151.1464293",
    "city": "Sans Souci, NSW",
    "country": "Australia",
    "halalStatus": "full",
    "cuisine": "",
    "sourceUrl": "https://www.openstreetmap.org/node/11940921494",
    "sourceQuote": "OpenStreetMap diet:halal=yes",
    "verifiedMethod": "web-source",
    "source": "osm"
  },
  {
    "name": "Subway",
    "address": "",
    "latitude": "-33.7295892",
    "longitude": "151.1586587",
    "city": "",
    "country": "Australia",
    "halalStatus": "full",
    "cuisine": "sandwich",
    "sourceUrl": "https://www.openstreetmap.org/node/12051880251",
    "sourceQuote": "OpenStreetMap diet:halal=yes",
    "verifiedMethod": "web-source",
    "source": "osm"
  },
  {
    "name": "Fabs Kebab and Grill",
    "address": "37 Thomas Drive, Surfers Paradise, QLD, 4217",
    "latitude": "-27.9979094",
    "longitude": "153.4198122",
    "city": "Surfers Paradise, QLD",
    "country": "Australia",
    "halalStatus": "full",
    "cuisine": "kebab",
    "sourceUrl": "https://www.openstreetmap.org/node/12133305001",
    "sourceQuote": "OpenStreetMap diet:halal=yes",
    "verifiedMethod": "web-source",
    "source": "osm"
  },
  {
    "name": "Fat Pizza Stop",
    "address": "",
    "latitude": "-33.9516043",
    "longitude": "151.0178226",
    "city": "",
    "country": "Australia",
    "halalStatus": "full",
    "cuisine": "pizza",
    "sourceUrl": "https://www.openstreetmap.org/node/12170998407",
    "sourceQuote": "OpenStreetMap diet:halal=yes",
    "verifiedMethod": "web-source",
    "source": "osm"
  },
  {
    "name": "Delish Kebabs & Fish N Chips",
    "address": "",
    "latitude": "-37.592436",
    "longitude": "143.8043809",
    "city": "",
    "country": "Australia",
    "halalStatus": "full",
    "cuisine": "fish_and_chips",
    "sourceUrl": "https://www.openstreetmap.org/node/12303502435",
    "sourceQuote": "OpenStreetMap diet:halal=yes",
    "verifiedMethod": "web-source",
    "source": "osm"
  },
  {
    "name": "Chobano",
    "address": "Lidcombe",
    "latitude": "-33.8491446",
    "longitude": "151.0492974",
    "city": "Lidcombe",
    "country": "Australia",
    "halalStatus": "full",
    "cuisine": "kebab",
    "sourceUrl": "https://www.openstreetmap.org/node/12404245276",
    "sourceQuote": "OpenStreetMap diet:halal=yes",
    "verifiedMethod": "web-source",
    "source": "osm"
  },
  {
    "name": "Marrybrown",
    "address": "",
    "latitude": "-37.8102367",
    "longitude": "144.9623332",
    "city": "",
    "country": "Australia",
    "halalStatus": "full",
    "cuisine": "malaysian;chicken;burger",
    "sourceUrl": "https://www.openstreetmap.org/node/12437708003",
    "sourceQuote": "OpenStreetMap diet:halal=yes",
    "verifiedMethod": "web-source",
    "source": "osm"
  },
  {
    "name": "Anatolia Kebabs",
    "address": "32 Cavill Avenue, Surfers Paradise, QLD, 4217",
    "latitude": "-28.0018932",
    "longitude": "153.4278",
    "city": "Surfers Paradise, QLD",
    "country": "Australia",
    "halalStatus": "full",
    "cuisine": "kebab",
    "sourceUrl": "https://www.openstreetmap.org/node/12540964323",
    "sourceQuote": "OpenStreetMap diet:halal=yes",
    "verifiedMethod": "web-source",
    "source": "osm"
  },
  {
    "name": "Zaikaa",
    "address": "",
    "latitude": "-27.609295",
    "longitude": "153.111235",
    "city": "",
    "country": "Australia",
    "halalStatus": "full",
    "cuisine": "arab",
    "sourceUrl": "https://www.openstreetmap.org/node/12543253003",
    "sourceQuote": "OpenStreetMap diet:halal=yes",
    "verifiedMethod": "web-source",
    "source": "osm"
  },
  {
    "name": "Sibi’s Kebab & Pide",
    "address": "159-175 Church Street, Parramatta, NSW, 2150",
    "latitude": "-33.8170296",
    "longitude": "151.0029286",
    "city": "Parramatta, NSW",
    "country": "Australia",
    "halalStatus": "full",
    "cuisine": "kebab",
    "sourceUrl": "https://www.openstreetmap.org/node/12677447233",
    "sourceQuote": "OpenStreetMap diet:halal=yes",
    "verifiedMethod": "web-source",
    "source": "osm"
  },
  {
    "name": "Bilal",
    "address": "860 Sydney Road",
    "latitude": "-37.7563309",
    "longitude": "144.9641306",
    "city": "",
    "country": "Australia",
    "halalStatus": "full",
    "cuisine": "indian;malaysian;Singapore",
    "sourceUrl": "https://www.openstreetmap.org/node/12696002031",
    "sourceQuote": "OpenStreetMap diet:halal=yes",
    "verifiedMethod": "web-source",
    "source": "osm"
  },
  {
    "name": "Kulcha",
    "address": "",
    "latitude": "-34.425035",
    "longitude": "150.8973935",
    "city": "",
    "country": "Australia",
    "halalStatus": "full",
    "cuisine": "burger;kebab",
    "sourceUrl": "https://www.openstreetmap.org/node/13034021758",
    "sourceQuote": "OpenStreetMap diet:halal=yes",
    "verifiedMethod": "web-source",
    "source": "osm"
  },
  {
    "name": "BUFWIN",
    "address": "",
    "latitude": "-27.6079833",
    "longitude": "153.1123971",
    "city": "",
    "country": "Australia",
    "halalStatus": "full",
    "cuisine": "",
    "sourceUrl": "https://www.openstreetmap.org/node/13149256445",
    "sourceQuote": "OpenStreetMap diet:halal=yes",
    "verifiedMethod": "web-source",
    "source": "osm"
  },
  {
    "name": "Yellow Flower",
    "address": "11 Clifford Street, Suffolk Park, NSW, 2481",
    "latitude": "-28.6894988",
    "longitude": "153.608784",
    "city": "Suffolk Park, NSW",
    "country": "Australia",
    "halalStatus": "full",
    "cuisine": "indian",
    "sourceUrl": "https://www.openstreetmap.org/node/13246854035",
    "sourceQuote": "OpenStreetMap diet:halal=yes",
    "verifiedMethod": "web-source",
    "source": "osm"
  },
  {
    "name": "Tasty Punjab",
    "address": "155B Musgrave Street, Berserker, QLD, 4701",
    "latitude": "-23.3639729",
    "longitude": "150.5222825",
    "city": "Berserker, QLD",
    "country": "Australia",
    "halalStatus": "full",
    "cuisine": "indian",
    "sourceUrl": "https://www.openstreetmap.org/node/13249965920",
    "sourceQuote": "OpenStreetMap diet:halal=yes",
    "verifiedMethod": "web-source",
    "source": "osm"
  },
  {
    "name": "One Fine Kebab",
    "address": "53 Old Princes Highway",
    "latitude": "-38.0442808",
    "longitude": "145.368568",
    "city": "",
    "country": "Australia",
    "halalStatus": "full",
    "cuisine": "kebab",
    "sourceUrl": "https://www.openstreetmap.org/node/13408526672",
    "sourceQuote": "OpenStreetMap diet:halal=yes",
    "verifiedMethod": "web-source",
    "source": "osm"
  },
  {
    "name": "Loulan Halal Restaurant",
    "address": "22 Gowan Road, Sunnybank Hills, QLD, 4109",
    "latitude": "-27.5910904",
    "longitude": "153.0651844",
    "city": "Sunnybank Hills, QLD",
    "country": "Australia",
    "halalStatus": "full",
    "cuisine": "chinese",
    "sourceUrl": "https://www.openstreetmap.org/node/13541705881",
    "sourceQuote": "OpenStreetMap diet:halal=yes",
    "verifiedMethod": "web-source",
    "source": "osm"
  },
  {
    "name": "Ali Baba",
    "address": "",
    "latitude": "-33.9660799",
    "longitude": "151.1058045",
    "city": "",
    "country": "Australia",
    "halalStatus": "full",
    "cuisine": "kebab;lebanese",
    "sourceUrl": "https://www.openstreetmap.org/node/13563648262",
    "sourceQuote": "OpenStreetMap diet:halal=yes",
    "verifiedMethod": "web-source",
    "source": "osm"
  },
  {
    "name": "Lal Qila",
    "address": "505 Walter Road East, Morley, WA, 6062",
    "latitude": "-31.8944081",
    "longitude": "115.9252563",
    "city": "Morley, WA",
    "country": "Australia",
    "halalStatus": "full",
    "cuisine": "indian;pakistani",
    "sourceUrl": "https://www.openstreetmap.org/node/13594369246",
    "sourceQuote": "OpenStreetMap diet:halal=yes",
    "verifiedMethod": "web-source",
    "source": "osm"
  },
  {
    "name": "Zisti's Poultry",
    "address": "George Street, Liverpool",
    "latitude": "-33.9190525",
    "longitude": "150.9223051",
    "city": "Liverpool",
    "country": "Australia",
    "halalStatus": "full",
    "cuisine": "chicken",
    "sourceUrl": "https://www.openstreetmap.org/node/13606708752",
    "sourceQuote": "OpenStreetMap diet:halal=yes",
    "verifiedMethod": "web-source",
    "source": "osm"
  },
  {
    "name": "Ikram Kebabs",
    "address": "451 Hero Crescent, Bertram, WA, 6167",
    "latitude": "-32.2466238",
    "longitude": "115.8461134",
    "city": "Bertram, WA",
    "country": "Australia",
    "halalStatus": "full",
    "cuisine": "kebab;turkish",
    "sourceUrl": "https://www.openstreetmap.org/node/13729779516",
    "sourceQuote": "OpenStreetMap diet:halal=yes",
    "verifiedMethod": "web-source",
    "source": "osm"
  },
  {
    "name": "A Brothers Kebab & Pizza",
    "address": "5A Chester Hill Road",
    "latitude": "-33.883343",
    "longitude": "151.000836",
    "city": "",
    "country": "Australia",
    "halalStatus": "full",
    "cuisine": "turkish;kebab;burger;pizza",
    "sourceUrl": "https://www.openstreetmap.org/node/13784036120",
    "sourceQuote": "OpenStreetMap diet:halal=yes",
    "verifiedMethod": "web-source",
    "source": "osm"
  },
  {
    "name": "Turkish Master Kebab",
    "address": "",
    "latitude": "-35.4039331",
    "longitude": "149.0968374",
    "city": "",
    "country": "Australia",
    "halalStatus": "full",
    "cuisine": "turkish;pizza;kebab",
    "sourceUrl": "https://www.openstreetmap.org/node/13797623342",
    "sourceQuote": "OpenStreetMap diet:halal=yes",
    "verifiedMethod": "web-source",
    "source": "osm"
  },
  {
    "name": "Swanston Halal Food Centre",
    "address": "55 Swanston Street, Melbourne, VIC",
    "latitude": "-37.8162697",
    "longitude": "144.9667103",
    "city": "Melbourne, VIC",
    "country": "Australia",
    "halalStatus": "full",
    "cuisine": "",
    "sourceUrl": "https://www.openstreetmap.org/node/13839058586",
    "sourceQuote": "OpenStreetMap diet:halal=yes",
    "verifiedMethod": "web-source",
    "source": "osm"
  },
  {
    "name": "Saba's Falafel",
    "address": "75 Main Road, Moonah, TAS, 7009",
    "latitude": "-42.8472564",
    "longitude": "147.2959166",
    "city": "Moonah, TAS",
    "country": "Australia",
    "halalStatus": "full",
    "cuisine": "Middle Eastern",
    "sourceUrl": "https://www.openstreetmap.org/node/13860598850",
    "sourceQuote": "OpenStreetMap diet:halal=yes",
    "verifiedMethod": "web-source",
    "source": "osm"
  },
  {
    "name": "Pomona Pizza and Eats",
    "address": "80 Pomona Road, Riverside, TAS, 7250",
    "latitude": "-41.4248488",
    "longitude": "147.1015223",
    "city": "Riverside, TAS",
    "country": "Australia",
    "halalStatus": "full",
    "cuisine": "",
    "sourceUrl": "https://www.openstreetmap.org/way/543823911",
    "sourceQuote": "OpenStreetMap diet:halal=yes",
    "verifiedMethod": "web-source",
    "source": "osm"
  },
  {
    "name": "Flaming Kebabs & Grill",
    "address": "351 Somerville Road",
    "latitude": "-37.811454",
    "longitude": "144.8703569",
    "city": "",
    "country": "Australia",
    "halalStatus": "full",
    "cuisine": "turkish",
    "sourceUrl": "https://www.openstreetmap.org/way/589637085",
    "sourceQuote": "OpenStreetMap diet:halal=yes",
    "verifiedMethod": "web-source",
    "source": "osm"
  },
  {
    "name": "Pizzabox",
    "address": "",
    "latitude": "-33.9668115",
    "longitude": "151.130465",
    "city": "",
    "country": "Australia",
    "halalStatus": "full",
    "cuisine": "pizza",
    "sourceUrl": "https://www.openstreetmap.org/way/625741510",
    "sourceQuote": "OpenStreetMap diet:halal=yes",
    "verifiedMethod": "web-source",
    "source": "osm"
  },
  {
    "name": "Five Star Kebabs",
    "address": "939 High Street, Reservoir, VIC, 3073",
    "latitude": "-37.7114629",
    "longitude": "145.0080879",
    "city": "Reservoir, VIC",
    "country": "Australia",
    "halalStatus": "full",
    "cuisine": "kebab",
    "sourceUrl": "https://www.openstreetmap.org/way/990877184",
    "sourceQuote": "OpenStreetMap diet:halal=yes",
    "verifiedMethod": "web-source",
    "source": "osm"
  },
  {
    "name": "Student Pavilion",
    "address": "11 Monash Road",
    "latitude": "-37.7986369",
    "longitude": "144.9635381",
    "city": "",
    "country": "Australia",
    "halalStatus": "full",
    "cuisine": "",
    "sourceUrl": "https://www.openstreetmap.org/way/1040958757",
    "sourceQuote": "OpenStreetMap diet:halal=yes",
    "verifiedMethod": "web-source",
    "source": "osm"
  },
  {
    "name": "School Cafeteria / X Block",
    "address": "",
    "latitude": "-27.5001135",
    "longitude": "152.9855419",
    "city": "",
    "country": "Australia",
    "halalStatus": "full",
    "cuisine": "",
    "sourceUrl": "https://www.openstreetmap.org/way/1100965268",
    "sourceQuote": "OpenStreetMap diet:halal=yes",
    "verifiedMethod": "web-source",
    "source": "osm"
  },
  {
    "name": "Belco Halal Kebabs and Pizzeria",
    "address": "",
    "latitude": "-35.2374406",
    "longitude": "149.0631194",
    "city": "",
    "country": "Australia",
    "halalStatus": "full",
    "cuisine": "turkish",
    "sourceUrl": "https://www.openstreetmap.org/way/1286530134",
    "sourceQuote": "OpenStreetMap diet:halal=yes",
    "verifiedMethod": "web-source",
    "source": "osm"
  },
  {
    "name": "Halal Meats & Kebabs Canbera",
    "address": "",
    "latitude": "-35.2459868",
    "longitude": "149.0653038",
    "city": "",
    "country": "Australia",
    "halalStatus": "full",
    "cuisine": "",
    "sourceUrl": "https://www.openstreetmap.org/way/1290158057",
    "sourceQuote": "OpenStreetMap diet:halal=yes",
    "verifiedMethod": "web-source",
    "source": "osm"
  },
  {
    "name": "Hussy's Kebabs",
    "address": "Shortland Road, Callaghan, NSW, 2308",
    "latitude": "-32.8936147",
    "longitude": "151.6988079",
    "city": "Callaghan, NSW",
    "country": "Australia",
    "halalStatus": "full",
    "cuisine": "kebab",
    "sourceUrl": "https://www.openstreetmap.org/way/1342635218",
    "sourceQuote": "OpenStreetMap diet:halal=yes",
    "verifiedMethod": "web-source",
    "source": "osm"
  },
  {
    "name": "Cheezy Burger & Seafood",
    "address": "111 The Entrance Road, The Entrance, NSW, 2261",
    "latitude": "-33.3408515",
    "longitude": "151.4984439",
    "city": "The Entrance, NSW",
    "country": "Australia",
    "halalStatus": "full",
    "cuisine": "burger;seafood",
    "sourceUrl": "https://www.openstreetmap.org/way/1476381046",
    "sourceQuote": "OpenStreetMap diet:halal=yes",
    "verifiedMethod": "web-source",
    "source": "osm"
  },
  {
    "name": "Ikram Kebabs",
    "address": "20 Settlers Avenue, Baldivis, WA, 6171",
    "latitude": "-32.3331488",
    "longitude": "115.816087",
    "city": "Baldivis, WA",
    "country": "Australia",
    "halalStatus": "full",
    "cuisine": "kebab;turkish",
    "sourceUrl": "https://www.openstreetmap.org/way/1499819406",
    "sourceQuote": "OpenStreetMap diet:halal=yes",
    "verifiedMethod": "web-source",
    "source": "osm"
  },
  {
    "name": "Beach Pizza",
    "address": "41 Station Road, Manurewa",
    "latitude": "-37.0219138",
    "longitude": "174.8948155",
    "city": "Manurewa",
    "country": "New Zealand",
    "halalStatus": "full",
    "cuisine": "pizza;kebab",
    "sourceUrl": "https://www.openstreetmap.org/node/468079665",
    "sourceQuote": "OpenStreetMap diet:halal=yes",
    "verifiedMethod": "web-source",
    "source": "osm"
  },
  {
    "name": "Mexicali Fresh",
    "address": "150 Karangahape Road, Auckland Central",
    "latitude": "-36.8580703",
    "longitude": "174.7606046",
    "city": "Auckland Central",
    "country": "New Zealand",
    "halalStatus": "full",
    "cuisine": "mexican",
    "sourceUrl": "https://www.openstreetmap.org/node/993412136",
    "sourceQuote": "OpenStreetMap diet:halal=yes",
    "verifiedMethod": "web-source",
    "source": "osm"
  },
  {
    "name": "Little Turkish Cafe",
    "address": "217 Karangahape Road, Auckland Central",
    "latitude": "-36.8576226",
    "longitude": "174.7594717",
    "city": "Auckland Central",
    "country": "New Zealand",
    "halalStatus": "full",
    "cuisine": "",
    "sourceUrl": "https://www.openstreetmap.org/node/1015095964",
    "sourceQuote": "OpenStreetMap diet:halal=yes",
    "verifiedMethod": "web-source",
    "source": "osm"
  },
  {
    "name": "Sal's Pizza",
    "address": "183 Karangahape Road",
    "latitude": "-36.8577402",
    "longitude": "174.7602984",
    "city": "",
    "country": "New Zealand",
    "halalStatus": "full",
    "cuisine": "pizza",
    "sourceUrl": "https://www.openstreetmap.org/node/1735321674",
    "sourceQuote": "OpenStreetMap diet:halal=yes",
    "verifiedMethod": "web-source",
    "source": "osm"
  },
  {
    "name": "Mr. Turkish Kebab",
    "address": "R2/430 Queen Street",
    "latitude": "-36.8543073",
    "longitude": "174.7632391",
    "city": "",
    "country": "New Zealand",
    "halalStatus": "full",
    "cuisine": "kebab",
    "sourceUrl": "https://www.openstreetmap.org/node/1789448106",
    "sourceQuote": "OpenStreetMap diet:halal=only",
    "verifiedMethod": "web-source",
    "source": "osm"
  },
  {
    "name": "Starbucks",
    "address": "220 Queen Street, Auckland, 1010",
    "latitude": "-36.8492648",
    "longitude": "174.7654177",
    "city": "Auckland",
    "country": "New Zealand",
    "halalStatus": "full",
    "cuisine": "coffee_shop",
    "sourceUrl": "https://www.openstreetmap.org/node/1789448146",
    "sourceQuote": "OpenStreetMap diet:halal=yes",
    "verifiedMethod": "web-source",
    "source": "osm"
  },
  {
    "name": "Breeze Indian Restaurant",
    "address": "16 Hood Street, Hamilton",
    "latitude": "-37.790379",
    "longitude": "175.2846917",
    "city": "Hamilton",
    "country": "New Zealand",
    "halalStatus": "full",
    "cuisine": "indian",
    "sourceUrl": "https://www.openstreetmap.org/node/2506905712",
    "sourceQuote": "OpenStreetMap diet:halal=yes",
    "verifiedMethod": "web-source",
    "source": "osm"
  },
  {
    "name": "Snack Shack Turkish Kebabs",
    "address": "139 Ardmore Street",
    "latitude": "-44.6956141",
    "longitude": "169.1340544",
    "city": "",
    "country": "New Zealand",
    "halalStatus": "full",
    "cuisine": "kebab;turkish",
    "sourceUrl": "https://www.openstreetmap.org/node/2553115489",
    "sourceQuote": "OpenStreetMap diet:halal=yes",
    "verifiedMethod": "web-source",
    "source": "osm"
  },
  {
    "name": "Morteza Kebab & Bakery",
    "address": "183 Riddiford Street",
    "latitude": "-41.313938",
    "longitude": "174.7800426",
    "city": "",
    "country": "New Zealand",
    "halalStatus": "full",
    "cuisine": "arab",
    "sourceUrl": "https://www.openstreetmap.org/node/2628210875",
    "sourceQuote": "OpenStreetMap diet:halal=yes",
    "verifiedMethod": "web-source",
    "source": "osm"
  },
  {
    "name": "Kanama Kopi Kadai",
    "address": "1 Rongotai Road, Wellington, 6022",
    "latitude": "-41.3175309",
    "longitude": "174.7937929",
    "city": "Wellington",
    "country": "New Zealand",
    "halalStatus": "full",
    "cuisine": "malaysian;fusion",
    "sourceUrl": "https://www.openstreetmap.org/node/2630700413",
    "sourceQuote": "OpenStreetMap diet:halal=yes",
    "verifiedMethod": "web-source",
    "source": "osm"
  },
  {
    "name": "Mughlai Mer-curries",
    "address": "2/248",
    "latitude": "-41.2940372",
    "longitude": "174.771804",
    "city": "",
    "country": "New Zealand",
    "halalStatus": "full",
    "cuisine": "indian",
    "sourceUrl": "https://www.openstreetmap.org/node/2633068755",
    "sourceQuote": "OpenStreetMap diet:halal=yes",
    "verifiedMethod": "web-source",
    "source": "osm"
  },
  {
    "name": "Shivani Restaurant",
    "address": "1 Normandy Avenue, Melville",
    "latitude": "-37.8111903",
    "longitude": "175.2824974",
    "city": "Melville",
    "country": "New Zealand",
    "halalStatus": "full",
    "cuisine": "indian",
    "sourceUrl": "https://www.openstreetmap.org/node/2672529577",
    "sourceQuote": "OpenStreetMap diet:halal=yes",
    "verifiedMethod": "web-source",
    "source": "osm"
  },
  {
    "name": "Shaolin Kung Fu Noodle",
    "address": "636 Dominion Road",
    "latitude": "-36.8882838",
    "longitude": "174.7471931",
    "city": "",
    "country": "New Zealand",
    "halalStatus": "full",
    "cuisine": "chinese",
    "sourceUrl": "https://www.openstreetmap.org/node/3119789065",
    "sourceQuote": "OpenStreetMap diet:halal=yes",
    "verifiedMethod": "web-source",
    "source": "osm"
  },
  {
    "name": "Byte Burger",
    "address": "1/151 Lincoln Road, Auckland",
    "latitude": "-36.863813",
    "longitude": "174.6293774",
    "city": "Auckland",
    "country": "New Zealand",
    "halalStatus": "full",
    "cuisine": "burger",
    "sourceUrl": "https://www.openstreetmap.org/node/3139667407",
    "sourceQuote": "OpenStreetMap diet:halal=yes",
    "verifiedMethod": "web-source",
    "source": "osm"
  },
  {
    "name": "Subway",
    "address": "",
    "latitude": "-36.8569651",
    "longitude": "174.7591116",
    "city": "",
    "country": "New Zealand",
    "halalStatus": "full",
    "cuisine": "sandwich",
    "sourceUrl": "https://www.openstreetmap.org/node/3211976589",
    "sourceQuote": "OpenStreetMap diet:halal=yes",
    "verifiedMethod": "web-source",
    "source": "osm"
  },
  {
    "name": "Teaser",
    "address": "",
    "latitude": "-36.8486215",
    "longitude": "174.7662163",
    "city": "",
    "country": "New Zealand",
    "halalStatus": "full",
    "cuisine": "bubble_tea",
    "sourceUrl": "https://www.openstreetmap.org/node/3293568761",
    "sourceQuote": "OpenStreetMap diet:halal=yes",
    "verifiedMethod": "web-source",
    "source": "osm"
  },
  {
    "name": "Shahrzad Kebab",
    "address": "118 Hurstmere Road",
    "latitude": "-36.7861548",
    "longitude": "174.7729248",
    "city": "",
    "country": "New Zealand",
    "halalStatus": "full",
    "cuisine": "kebab",
    "sourceUrl": "https://www.openstreetmap.org/node/3431095891",
    "sourceQuote": "OpenStreetMap diet:halal=yes",
    "verifiedMethod": "web-source",
    "source": "osm"
  },
  {
    "name": "Makassar Corner",
    "address": "193 Dominion Road",
    "latitude": "-36.8749507",
    "longitude": "174.7511853",
    "city": "",
    "country": "New Zealand",
    "halalStatus": "full",
    "cuisine": "",
    "sourceUrl": "https://www.openstreetmap.org/node/3508008512",
    "sourceQuote": "OpenStreetMap diet:halal=yes",
    "verifiedMethod": "web-source",
    "source": "osm"
  },
  {
    "name": "Milano's Pizza & Grilled Chicken",
    "address": "5/726 Great South Road, Manuakau, 2104",
    "latitude": "-36.9931656",
    "longitude": "174.8860275",
    "city": "Manuakau",
    "country": "New Zealand",
    "halalStatus": "full",
    "cuisine": "chicken;pizza",
    "sourceUrl": "https://www.openstreetmap.org/node/3658338993",
    "sourceQuote": "OpenStreetMap diet:halal=yes",
    "verifiedMethod": "web-source",
    "source": "osm"
  },
  {
    "name": "Flame Pizza",
    "address": "15/123 Ormiston Road, Flat Bush, Otara, 2016",
    "latitude": "-36.964514",
    "longitude": "174.9028013",
    "city": "Flat Bush, Otara",
    "country": "New Zealand",
    "halalStatus": "full",
    "cuisine": "pizza",
    "sourceUrl": "https://www.openstreetmap.org/node/3678186673",
    "sourceQuote": "OpenStreetMap diet:halal=yes",
    "verifiedMethod": "web-source",
    "source": "osm"
  },
  {
    "name": "Jadetown Uyghur Cuisine",
    "address": "598 Dominion Road, Mount Eden",
    "latitude": "-36.8876419",
    "longitude": "174.7473862",
    "city": "Mount Eden",
    "country": "New Zealand",
    "halalStatus": "full",
    "cuisine": "uyghur",
    "sourceUrl": "https://www.openstreetmap.org/node/3719184140",
    "sourceQuote": "OpenStreetMap diet:halal=yes",
    "verifiedMethod": "web-source",
    "source": "osm"
  },
  {
    "name": "Madni Chicken",
    "address": "205 Great South Road, Auckland, 2102",
    "latitude": "-37.0231681",
    "longitude": "174.8981156",
    "city": "Auckland",
    "country": "New Zealand",
    "halalStatus": "full",
    "cuisine": "kebab",
    "sourceUrl": "https://www.openstreetmap.org/node/3733790954",
    "sourceQuote": "OpenStreetMap diet:halal=yes",
    "verifiedMethod": "web-source",
    "source": "osm"
  },
  {
    "name": "Pizza and Curry Corner",
    "address": "Mangere Town Centre Waddon Place, Mangere",
    "latitude": "-36.9704157",
    "longitude": "174.7988567",
    "city": "Mangere",
    "country": "New Zealand",
    "halalStatus": "full",
    "cuisine": "burger",
    "sourceUrl": "https://www.openstreetmap.org/node/3736730813",
    "sourceQuote": "OpenStreetMap diet:halal=yes",
    "verifiedMethod": "web-source",
    "source": "osm"
  },
  {
    "name": "Tasty Kebab",
    "address": "56 Stoddard Road, Auckland, 1041",
    "latitude": "-36.9057416",
    "longitude": "174.7305458",
    "city": "Auckland",
    "country": "New Zealand",
    "halalStatus": "full",
    "cuisine": "kebab",
    "sourceUrl": "https://www.openstreetmap.org/node/3739749821",
    "sourceQuote": "OpenStreetMap diet:halal=yes",
    "verifiedMethod": "web-source",
    "source": "osm"
  },
  {
    "name": "Bawarchi",
    "address": "519 -523 Sandringham Road, Sandrinham, 1025",
    "latitude": "-36.891628",
    "longitude": "174.7361678",
    "city": "Sandrinham",
    "country": "New Zealand",
    "halalStatus": "full",
    "cuisine": "asian;indian",
    "sourceUrl": "https://www.openstreetmap.org/node/3739756345",
    "sourceQuote": "OpenStreetMap diet:halal=yes",
    "verifiedMethod": "web-source",
    "source": "osm"
  },
  {
    "name": "Milanos Pizza & Portuguese Chicken - halal",
    "address": "154 Great South Road, Auckland, 2025",
    "latitude": "-36.9689454",
    "longitude": "174.8602712",
    "city": "Auckland",
    "country": "New Zealand",
    "halalStatus": "full",
    "cuisine": "chicken;pizza",
    "sourceUrl": "https://www.openstreetmap.org/node/3739761316",
    "sourceQuote": "OpenStreetMap diet:halal=yes",
    "verifiedMethod": "web-source",
    "source": "osm"
  },
  {
    "name": "Food4Less Supermarket",
    "address": "13 Veronica Street, Auckland, 0600",
    "latitude": "-36.9071855",
    "longitude": "174.6880799",
    "city": "Auckland",
    "country": "New Zealand",
    "halalStatus": "full",
    "cuisine": "asian;indian",
    "sourceUrl": "https://www.openstreetmap.org/node/3740699320",
    "sourceQuote": "OpenStreetMap diet:halal=yes",
    "verifiedMethod": "web-source",
    "source": "osm"
  },
  {
    "name": "Royal Kebab",
    "address": "734 Manukau Road, Auckland",
    "latitude": "-36.910295",
    "longitude": "174.7758655",
    "city": "Auckland",
    "country": "New Zealand",
    "halalStatus": "full",
    "cuisine": "kebab",
    "sourceUrl": "https://www.openstreetmap.org/node/3743497006",
    "sourceQuote": "OpenStreetMap diet:halal=yes",
    "verifiedMethod": "web-source",
    "source": "osm"
  },
  {
    "name": "Tikka 'n' Talk",
    "address": "",
    "latitude": "-36.8577632",
    "longitude": "174.7619603",
    "city": "",
    "country": "New Zealand",
    "halalStatus": "full",
    "cuisine": "indian",
    "sourceUrl": "https://www.openstreetmap.org/node/4049147937",
    "sourceQuote": "OpenStreetMap diet:halal=only",
    "verifiedMethod": "web-source",
    "source": "osm"
  },
  {
    "name": "Epsom Turkish Kebabs",
    "address": "467 Manukau Road",
    "latitude": "-36.8939869",
    "longitude": "174.7741643",
    "city": "",
    "country": "New Zealand",
    "halalStatus": "full",
    "cuisine": "turkish",
    "sourceUrl": "https://www.openstreetmap.org/node/4057751085",
    "sourceQuote": "OpenStreetMap diet:halal=yes",
    "verifiedMethod": "web-source",
    "source": "osm"
  },
  {
    "name": "Kebab Kart",
    "address": "347 Karangahape Road",
    "latitude": "-36.8577665",
    "longitude": "174.757062",
    "city": "",
    "country": "New Zealand",
    "halalStatus": "full",
    "cuisine": "kebab",
    "sourceUrl": "https://www.openstreetmap.org/node/4753906117",
    "sourceQuote": "OpenStreetMap diet:halal=only",
    "verifiedMethod": "web-source",
    "source": "osm"
  },
  {
    "name": "Uncle Man's",
    "address": "277 Karangahape Road, Auckland Central",
    "latitude": "-36.8574325",
    "longitude": "174.7581917",
    "city": "Auckland Central",
    "country": "New Zealand",
    "halalStatus": "full",
    "cuisine": "malaysian",
    "sourceUrl": "https://www.openstreetmap.org/node/4753906327",
    "sourceQuote": "OpenStreetMap diet:halal=only",
    "verifiedMethod": "web-source",
    "source": "osm"
  },
  {
    "name": "Kebab King",
    "address": "3/103 Symonds Street",
    "latitude": "-36.8581699",
    "longitude": "174.763549",
    "city": "",
    "country": "New Zealand",
    "halalStatus": "full",
    "cuisine": "kebab",
    "sourceUrl": "https://www.openstreetmap.org/node/4753906348",
    "sourceQuote": "OpenStreetMap diet:halal=yes",
    "verifiedMethod": "web-source",
    "source": "osm"
  },
  {
    "name": "Bal Ganga",
    "address": "",
    "latitude": "-36.8472837",
    "longitude": "174.7612312",
    "city": "",
    "country": "New Zealand",
    "halalStatus": "full",
    "cuisine": "indian",
    "sourceUrl": "https://www.openstreetmap.org/node/4753906391",
    "sourceQuote": "OpenStreetMap diet:halal=yes",
    "verifiedMethod": "web-source",
    "source": "osm"
  },
  {
    "name": "New Sensational Kebab & Fried Chicken",
    "address": "51D Hobson Street",
    "latitude": "-36.8473219",
    "longitude": "174.7613817",
    "city": "",
    "country": "New Zealand",
    "halalStatus": "full",
    "cuisine": "chicken",
    "sourceUrl": "https://www.openstreetmap.org/node/4753906393",
    "sourceQuote": "OpenStreetMap diet:halal=yes",
    "verifiedMethod": "web-source",
    "source": "osm"
  },
  {
    "name": "Raviz",
    "address": "",
    "latitude": "-36.8477348",
    "longitude": "174.7615878",
    "city": "",
    "country": "New Zealand",
    "halalStatus": "full",
    "cuisine": "indian",
    "sourceUrl": "https://www.openstreetmap.org/node/4753906396",
    "sourceQuote": "OpenStreetMap diet:halal=yes",
    "verifiedMethod": "web-source",
    "source": "osm"
  },
  {
    "name": "Denny's",
    "address": "",
    "latitude": "-36.8476641",
    "longitude": "174.7616185",
    "city": "",
    "country": "New Zealand",
    "halalStatus": "full",
    "cuisine": "american",
    "sourceUrl": "https://www.openstreetmap.org/node/4753906397",
    "sourceQuote": "OpenStreetMap diet:halal=yes",
    "verifiedMethod": "web-source",
    "source": "osm"
  },
  {
    "name": "Sal's Pizza",
    "address": "",
    "latitude": "-36.8463724",
    "longitude": "174.7681457",
    "city": "",
    "country": "New Zealand",
    "halalStatus": "full",
    "cuisine": "pizza",
    "sourceUrl": "https://www.openstreetmap.org/node/4769024273",
    "sourceQuote": "OpenStreetMap diet:halal=yes",
    "verifiedMethod": "web-source",
    "source": "osm"
  },
  {
    "name": "Istanbul Shawarma & Woodfire Pizza",
    "address": "14/350 Queen Street, Auckland Central",
    "latitude": "-36.8520817",
    "longitude": "174.7642918",
    "city": "Auckland Central",
    "country": "New Zealand",
    "halalStatus": "full",
    "cuisine": "shawarma;turkish",
    "sourceUrl": "https://www.openstreetmap.org/node/4769024320",
    "sourceQuote": "OpenStreetMap diet:halal=only",
    "verifiedMethod": "web-source",
    "source": "osm"
  },
  {
    "name": "McDonald's",
    "address": "32 Tahunanui Drive, Nelson, 7011",
    "latitude": "-41.2829636",
    "longitude": "173.2483414",
    "city": "Nelson",
    "country": "New Zealand",
    "halalStatus": "full",
    "cuisine": "burger",
    "sourceUrl": "https://www.openstreetmap.org/node/4794075721",
    "sourceQuote": "OpenStreetMap diet:halal=yes",
    "verifiedMethod": "web-source",
    "source": "osm"
  },
  {
    "name": "Dragon Boat Restaurant",
    "address": "",
    "latitude": "-36.8496176",
    "longitude": "174.7639296",
    "city": "",
    "country": "New Zealand",
    "halalStatus": "full",
    "cuisine": "chinese",
    "sourceUrl": "https://www.openstreetmap.org/node/4797304732",
    "sourceQuote": "OpenStreetMap diet:halal=yes",
    "verifiedMethod": "web-source",
    "source": "osm"
  },
  {
    "name": "Tandoor",
    "address": "",
    "latitude": "-36.8492359",
    "longitude": "174.7643606",
    "city": "",
    "country": "New Zealand",
    "halalStatus": "full",
    "cuisine": "indian",
    "sourceUrl": "https://www.openstreetmap.org/node/4797304733",
    "sourceQuote": "OpenStreetMap diet:halal=only",
    "verifiedMethod": "web-source",
    "source": "osm"
  },
  {
    "name": "No. 1 Handmade Lanzhou Beef Ramen",
    "address": "22 Kitchener Street",
    "latitude": "-36.849714",
    "longitude": "174.7665405",
    "city": "",
    "country": "New Zealand",
    "halalStatus": "full",
    "cuisine": "chinese",
    "sourceUrl": "https://www.openstreetmap.org/node/4814853860",
    "sourceQuote": "OpenStreetMap diet:halal=only",
    "verifiedMethod": "web-source",
    "source": "osm"
  },
  {
    "name": "Mithai Indian Vegetarian Restaurant",
    "address": "685 Sandringham Road Extension",
    "latitude": "-36.8970418",
    "longitude": "174.7332507",
    "city": "",
    "country": "New Zealand",
    "halalStatus": "full",
    "cuisine": "indian",
    "sourceUrl": "https://www.openstreetmap.org/node/4943367468",
    "sourceQuote": "OpenStreetMap diet:halal=yes",
    "verifiedMethod": "web-source",
    "source": "osm"
  },
  {
    "name": "Rocket Kebabs",
    "address": "762 New North Road",
    "latitude": "-36.8802644",
    "longitude": "174.7257402",
    "city": "",
    "country": "New Zealand",
    "halalStatus": "full",
    "cuisine": "kebab",
    "sourceUrl": "https://www.openstreetmap.org/node/4943409489",
    "sourceQuote": "OpenStreetMap diet:halal=yes",
    "verifiedMethod": "web-source",
    "source": "osm"
  },
  {
    "name": "Halal Fried Chicken",
    "address": "196 Stoddard Road",
    "latitude": "-36.9004095",
    "longitude": "174.7208428",
    "city": "",
    "country": "New Zealand",
    "halalStatus": "full",
    "cuisine": "chicken",
    "sourceUrl": "https://www.openstreetmap.org/node/4943409514",
    "sourceQuote": "OpenStreetMap diet:halal=yes",
    "verifiedMethod": "web-source",
    "source": "osm"
  },
  {
    "name": "PizzaExpress",
    "address": "207a/22 Stoddard Road, Mount Roskill",
    "latitude": "-36.9076727",
    "longitude": "174.7331134",
    "city": "Mount Roskill",
    "country": "New Zealand",
    "halalStatus": "full",
    "cuisine": "pizza",
    "sourceUrl": "https://www.openstreetmap.org/node/4956159230",
    "sourceQuote": "OpenStreetMap diet:halal=yes",
    "verifiedMethod": "web-source",
    "source": "osm"
  },
  {
    "name": "Turkish Kebab and Burger",
    "address": "1218 Great North Road",
    "latitude": "-36.8707086",
    "longitude": "174.710425",
    "city": "",
    "country": "New Zealand",
    "halalStatus": "full",
    "cuisine": "burger;kebab;turkish",
    "sourceUrl": "https://www.openstreetmap.org/node/5015955232",
    "sourceQuote": "OpenStreetMap diet:halal=yes",
    "verifiedMethod": "web-source",
    "source": "osm"
  },
  {
    "name": "Ronnies Cafe",
    "address": "",
    "latitude": "-36.8443667",
    "longitude": "174.764647",
    "city": "",
    "country": "New Zealand",
    "halalStatus": "full",
    "cuisine": "sandwich;breakfast;burger",
    "sourceUrl": "https://www.openstreetmap.org/node/5047602373",
    "sourceQuote": "OpenStreetMap diet:halal=yes",
    "verifiedMethod": "web-source",
    "source": "osm"
  },
  {
    "name": "Cafe Anatolia",
    "address": "4/26 Anzac Road",
    "latitude": "-36.7170913",
    "longitude": "174.7465752",
    "city": "",
    "country": "New Zealand",
    "halalStatus": "full",
    "cuisine": "turkish",
    "sourceUrl": "https://www.openstreetmap.org/node/5057312532",
    "sourceQuote": "OpenStreetMap diet:halal=yes",
    "verifiedMethod": "web-source",
    "source": "osm"
  },
  {
    "name": "Tanuki's Cave",
    "address": "",
    "latitude": "-36.8536109",
    "longitude": "174.7631286",
    "city": "",
    "country": "New Zealand",
    "halalStatus": "full",
    "cuisine": "yakitori",
    "sourceUrl": "https://www.openstreetmap.org/node/5153233821",
    "sourceQuote": "OpenStreetMap diet:halal=yes",
    "verifiedMethod": "web-source",
    "source": "osm"
  },
  {
    "name": "Sushi Me",
    "address": "11 Great North Road",
    "latitude": "-36.8598616",
    "longitude": "174.7523082",
    "city": "",
    "country": "New Zealand",
    "halalStatus": "full",
    "cuisine": "sushi",
    "sourceUrl": "https://www.openstreetmap.org/node/5156242247",
    "sourceQuote": "OpenStreetMap diet:halal=yes",
    "verifiedMethod": "web-source",
    "source": "osm"
  },
  {
    "name": "Turkish Kebabs",
    "address": "91 Dee Street",
    "latitude": "-46.4104196",
    "longitude": "168.3476163",
    "city": "",
    "country": "New Zealand",
    "halalStatus": "full",
    "cuisine": "kebab;turkish",
    "sourceUrl": "https://www.openstreetmap.org/node/5248090404",
    "sourceQuote": "OpenStreetMap diet:halal=yes",
    "verifiedMethod": "web-source",
    "source": "osm"
  },
  {
    "name": "Beach Pizza & Chicken N' Chips (Halal)",
    "address": "12 Hall Street, Pukekohe",
    "latitude": "-37.1994069",
    "longitude": "174.9053644",
    "city": "Pukekohe",
    "country": "New Zealand",
    "halalStatus": "full",
    "cuisine": "",
    "sourceUrl": "https://www.openstreetmap.org/node/5274600330",
    "sourceQuote": "OpenStreetMap diet:halal=yes",
    "verifiedMethod": "web-source",
    "source": "osm"
  },
  {
    "name": "St Pierre's Sushi",
    "address": "167 Karangahape Road, Auckland, 1010",
    "latitude": "-36.8577758",
    "longitude": "174.7605354",
    "city": "Auckland",
    "country": "New Zealand",
    "halalStatus": "full",
    "cuisine": "sushi",
    "sourceUrl": "https://www.openstreetmap.org/node/5375129394",
    "sourceQuote": "OpenStreetMap diet:halal=yes",
    "verifiedMethod": "web-source",
    "source": "osm"
  },
  {
    "name": "Kiwi Fish & Chips and Chicken",
    "address": "17B Wakefield Street, Auckland Central",
    "latitude": "-36.8531708",
    "longitude": "174.7644009",
    "city": "Auckland Central",
    "country": "New Zealand",
    "halalStatus": "full",
    "cuisine": "",
    "sourceUrl": "https://www.openstreetmap.org/node/5400477758",
    "sourceQuote": "OpenStreetMap diet:halal=yes",
    "verifiedMethod": "web-source",
    "source": "osm"
  },
  {
    "name": "Izmir Kebab and Grill",
    "address": "64A Federal Street, Auckland Central",
    "latitude": "-36.8480804",
    "longitude": "174.7627761",
    "city": "Auckland Central",
    "country": "New Zealand",
    "halalStatus": "full",
    "cuisine": "",
    "sourceUrl": "https://www.openstreetmap.org/node/5400478996",
    "sourceQuote": "OpenStreetMap diet:halal=yes",
    "verifiedMethod": "web-source",
    "source": "osm"
  },
  {
    "name": "Arbung Thai Street Food      - halal",
    "address": "104 Customs Street West",
    "latitude": "-36.8436443",
    "longitude": "174.7625421",
    "city": "",
    "country": "New Zealand",
    "halalStatus": "full",
    "cuisine": "thai",
    "sourceUrl": "https://www.openstreetmap.org/node/5406798027",
    "sourceQuote": "OpenStreetMap diet:halal=yes",
    "verifiedMethod": "web-source",
    "source": "osm"
  },
  {
    "name": "Beach Pizza",
    "address": "238A Great North Road, Auckland, 0610",
    "latitude": "-36.886297",
    "longitude": "174.6440885",
    "city": "Auckland",
    "country": "New Zealand",
    "halalStatus": "full",
    "cuisine": "",
    "sourceUrl": "https://www.openstreetmap.org/node/5415987137",
    "sourceQuote": "OpenStreetMap diet:halal=yes",
    "verifiedMethod": "web-source",
    "source": "osm"
  },
  {
    "name": "Shefco Pastries",
    "address": "46 Stoddard Road, Auckland, 1041",
    "latitude": "-36.9062537",
    "longitude": "174.731643",
    "city": "Auckland",
    "country": "New Zealand",
    "halalStatus": "full",
    "cuisine": "ope",
    "sourceUrl": "https://www.openstreetmap.org/node/5417530762",
    "sourceQuote": "OpenStreetMap diet:halal=yes",
    "verifiedMethod": "web-source",
    "source": "osm"
  },
  {
    "name": "Hambagu",
    "address": "483 Manukau Road, Auckland, 1023",
    "latitude": "-36.8947612",
    "longitude": "174.7739276",
    "city": "Auckland",
    "country": "New Zealand",
    "halalStatus": "full",
    "cuisine": "",
    "sourceUrl": "https://www.openstreetmap.org/node/5421571847",
    "sourceQuote": "OpenStreetMap diet:halal=yes",
    "verifiedMethod": "web-source",
    "source": "osm"
  },
  {
    "name": "Pita House",
    "address": "277A Neilson Street, Auckland",
    "latitude": "-36.9258692",
    "longitude": "174.8048783",
    "city": "Auckland",
    "country": "New Zealand",
    "halalStatus": "full",
    "cuisine": "",
    "sourceUrl": "https://www.openstreetmap.org/node/5461203819",
    "sourceQuote": "OpenStreetMap diet:halal=yes",
    "verifiedMethod": "web-source",
    "source": "osm"
  },
  {
    "name": "Yoshizawa",
    "address": "",
    "latitude": "-36.8493381",
    "longitude": "174.765862",
    "city": "",
    "country": "New Zealand",
    "halalStatus": "full",
    "cuisine": "japanese",
    "sourceUrl": "https://www.openstreetmap.org/node/5475776227",
    "sourceQuote": "OpenStreetMap diet:halal=yes",
    "verifiedMethod": "web-source",
    "source": "osm"
  },
  {
    "name": "Khanz Cafe and Bakery",
    "address": "38 East Tamaki Road, Auckland, 2025",
    "latitude": "-36.9674582",
    "longitude": "174.8605098",
    "city": "Auckland",
    "country": "New Zealand",
    "halalStatus": "full",
    "cuisine": "",
    "sourceUrl": "https://www.openstreetmap.org/node/5485876844",
    "sourceQuote": "OpenStreetMap diet:halal=yes",
    "verifiedMethod": "web-source",
    "source": "osm"
  },
  {
    "name": "Beach Pizza",
    "address": "66 Portage Road, Papatoetoe",
    "latitude": "-36.9729514",
    "longitude": "174.8403076",
    "city": "Papatoetoe",
    "country": "New Zealand",
    "halalStatus": "full",
    "cuisine": "",
    "sourceUrl": "https://www.openstreetmap.org/node/5485879719",
    "sourceQuote": "OpenStreetMap diet:halal=yes",
    "verifiedMethod": "web-source",
    "source": "osm"
  },
  {
    "name": "Sham Grill NZ",
    "address": "138 Chapel Road, Auckland, 2019",
    "latitude": "-36.967261",
    "longitude": "174.9056724",
    "city": "Auckland",
    "country": "New Zealand",
    "halalStatus": "full",
    "cuisine": "middle_eastern;arab;kebab;shawarma",
    "sourceUrl": "https://www.openstreetmap.org/node/5490427579",
    "sourceQuote": "OpenStreetMap diet:halal=yes",
    "verifiedMethod": "web-source",
    "source": "osm"
  },
  {
    "name": "Pizza Pars",
    "address": "60 George Street, Palmerston North, 4410",
    "latitude": "-40.3567313",
    "longitude": "175.6087715",
    "city": "Palmerston North",
    "country": "New Zealand",
    "halalStatus": "full",
    "cuisine": "pizza",
    "sourceUrl": "https://www.openstreetmap.org/node/5546964722",
    "sourceQuote": "OpenStreetMap diet:halal=yes",
    "verifiedMethod": "web-source",
    "source": "osm"
  },
  {
    "name": "Kapadokya",
    "address": "64 George Street, Palmerston North, 4410",
    "latitude": "-40.3567712",
    "longitude": "175.6088018",
    "city": "Palmerston North",
    "country": "New Zealand",
    "halalStatus": "full",
    "cuisine": "turkish",
    "sourceUrl": "https://www.openstreetmap.org/node/5546977606",
    "sourceQuote": "OpenStreetMap diet:halal=yes",
    "verifiedMethod": "web-source",
    "source": "osm"
  },
  {
    "name": "Erik's Fish and Chips",
    "address": "13 Earl Street",
    "latitude": "-45.0332422",
    "longitude": "168.6620823",
    "city": "",
    "country": "New Zealand",
    "halalStatus": "full",
    "cuisine": "fish_and_chips;regional",
    "sourceUrl": "https://www.openstreetmap.org/node/5573100522",
    "sourceQuote": "OpenStreetMap diet:halal=yes",
    "verifiedMethod": "web-source",
    "source": "osm"
  },
  {
    "name": "Bella Vita Restaurant",
    "address": "146 Devon Street East, New Plymouth, 4310",
    "latitude": "-39.0565281",
    "longitude": "174.0786774",
    "city": "New Plymouth",
    "country": "New Zealand",
    "halalStatus": "full",
    "cuisine": "italian;pizza;seafood",
    "sourceUrl": "https://www.openstreetmap.org/node/5610439959",
    "sourceQuote": "OpenStreetMap diet:halal=yes",
    "verifiedMethod": "web-source",
    "source": "osm"
  },
  {
    "name": "Taste of Egypt",
    "address": "475B Papanui Road, Christchurch, 8053",
    "latitude": "-43.4986707",
    "longitude": "172.6092124",
    "city": "Christchurch",
    "country": "New Zealand",
    "halalStatus": "full",
    "cuisine": "kebab",
    "sourceUrl": "https://www.openstreetmap.org/node/5912757840",
    "sourceQuote": "OpenStreetMap diet:halal=yes",
    "verifiedMethod": "web-source",
    "source": "osm"
  },
  {
    "name": "Konya Kebabs",
    "address": "72 Saint Andrew Street",
    "latitude": "-45.8717157",
    "longitude": "170.5057826",
    "city": "",
    "country": "New Zealand",
    "halalStatus": "full",
    "cuisine": "kebab;mediterranean",
    "sourceUrl": "https://www.openstreetmap.org/node/6781657485",
    "sourceQuote": "OpenStreetMap diet:halal=yes",
    "verifiedMethod": "web-source",
    "source": "osm"
  },
  {
    "name": "Good life",
    "address": "",
    "latitude": "-36.8463764",
    "longitude": "174.7681206",
    "city": "",
    "country": "New Zealand",
    "halalStatus": "full",
    "cuisine": "",
    "sourceUrl": "https://www.openstreetmap.org/node/6952885285",
    "sourceQuote": "OpenStreetMap diet:halal=yes",
    "verifiedMethod": "web-source",
    "source": "osm"
  },
  {
    "name": "Little Algiers",
    "address": "",
    "latitude": "-36.8590563",
    "longitude": "174.7533358",
    "city": "",
    "country": "New Zealand",
    "halalStatus": "full",
    "cuisine": "african;mediterranean",
    "sourceUrl": "https://www.openstreetmap.org/node/8122051600",
    "sourceQuote": "OpenStreetMap diet:halal=yes",
    "verifiedMethod": "web-source",
    "source": "osm"
  },
  {
    "name": "Downtown Kebabs",
    "address": "",
    "latitude": "-36.8436408",
    "longitude": "174.7673642",
    "city": "",
    "country": "New Zealand",
    "halalStatus": "full",
    "cuisine": "kebab",
    "sourceUrl": "https://www.openstreetmap.org/node/8127060235",
    "sourceQuote": "OpenStreetMap diet:halal=yes",
    "verifiedMethod": "web-source",
    "source": "osm"
  },
  {
    "name": "No. 7",
    "address": "",
    "latitude": "-36.8569182",
    "longitude": "174.7586678",
    "city": "",
    "country": "New Zealand",
    "halalStatus": "full",
    "cuisine": "",
    "sourceUrl": "https://www.openstreetmap.org/node/8223577458",
    "sourceQuote": "OpenStreetMap diet:halal=yes",
    "verifiedMethod": "web-source",
    "source": "osm"
  },
  {
    "name": "Lebanese Grocer",
    "address": "61/65 Pitt Street",
    "latitude": "-36.8573972",
    "longitude": "174.7588283",
    "city": "",
    "country": "New Zealand",
    "halalStatus": "full",
    "cuisine": "lebanese",
    "sourceUrl": "https://www.openstreetmap.org/node/8223577463",
    "sourceQuote": "OpenStreetMap diet:halal=yes",
    "verifiedMethod": "web-source",
    "source": "osm"
  },
  {
    "name": "Mainland Turkish Food",
    "address": "204 Hills Road",
    "latitude": "-43.5086725",
    "longitude": "172.6521762",
    "city": "",
    "country": "New Zealand",
    "halalStatus": "full",
    "cuisine": "turkish",
    "sourceUrl": "https://www.openstreetmap.org/node/9094081104",
    "sourceQuote": "OpenStreetMap diet:halal=yes",
    "verifiedMethod": "web-source",
    "source": "osm"
  },
  {
    "name": "Thai Kitchen Takeaway",
    "address": "212 Richardson Road",
    "latitude": "-36.9002551",
    "longitude": "174.7199765",
    "city": "",
    "country": "New Zealand",
    "halalStatus": "full",
    "cuisine": "thai",
    "sourceUrl": "https://www.openstreetmap.org/node/9300991090",
    "sourceQuote": "OpenStreetMap diet:halal=yes",
    "verifiedMethod": "web-source",
    "source": "osm"
  },
  {
    "name": "Pita Pit",
    "address": "",
    "latitude": "-37.005192",
    "longitude": "174.7827894",
    "city": "",
    "country": "New Zealand",
    "halalStatus": "full",
    "cuisine": "pita",
    "sourceUrl": "https://www.openstreetmap.org/node/9910617509",
    "sourceQuote": "OpenStreetMap diet:halal=yes",
    "verifiedMethod": "web-source",
    "source": "osm"
  },
  {
    "name": "The Sushi Store",
    "address": "",
    "latitude": "-36.8541922",
    "longitude": "174.7586782",
    "city": "",
    "country": "New Zealand",
    "halalStatus": "full",
    "cuisine": "sushi",
    "sourceUrl": "https://www.openstreetmap.org/node/10012449473",
    "sourceQuote": "OpenStreetMap diet:halal=yes",
    "verifiedMethod": "web-source",
    "source": "osm"
  },
  {
    "name": "Kisa",
    "address": "195 Cuba Street",
    "latitude": "-41.2947267",
    "longitude": "174.7751173",
    "city": "",
    "country": "New Zealand",
    "halalStatus": "full",
    "cuisine": "turkish",
    "sourceUrl": "https://www.openstreetmap.org/node/10580674611",
    "sourceQuote": "OpenStreetMap diet:halal=yes",
    "verifiedMethod": "web-source",
    "source": "osm"
  },
  {
    "name": "Dosa Kitchen",
    "address": "96 Oxford Terrace, Christchurch, Canterbury, 8011",
    "latitude": "-43.5339865",
    "longitude": "172.634107",
    "city": "Christchurch, Canterbury",
    "country": "New Zealand",
    "halalStatus": "full",
    "cuisine": "indian;chicken;curry;noodle",
    "sourceUrl": "https://www.openstreetmap.org/node/10673339810",
    "sourceQuote": "OpenStreetMap diet:halal=yes",
    "verifiedMethod": "web-source",
    "source": "osm"
  },
  {
    "name": "Hapsun Souvlaki",
    "address": "2/501 Wairakei Road",
    "latitude": "-43.4899325",
    "longitude": "172.5688311",
    "city": "",
    "country": "New Zealand",
    "halalStatus": "full",
    "cuisine": "arab",
    "sourceUrl": "https://www.openstreetmap.org/node/10705779608",
    "sourceQuote": "OpenStreetMap diet:halal=yes",
    "verifiedMethod": "web-source",
    "source": "osm"
  },
  {
    "name": "Aminah's Bread & Butter Bakery",
    "address": "522 Wairakei Road",
    "latitude": "-43.488999",
    "longitude": "172.5677025",
    "city": "",
    "country": "New Zealand",
    "halalStatus": "full",
    "cuisine": "asian",
    "sourceUrl": "https://www.openstreetmap.org/node/10736627183",
    "sourceQuote": "OpenStreetMap diet:halal=yes",
    "verifiedMethod": "web-source",
    "source": "osm"
  },
  {
    "name": "Harbourside Ocean Bar & Grill",
    "address": "",
    "latitude": "-36.843046",
    "longitude": "174.7669034",
    "city": "",
    "country": "New Zealand",
    "halalStatus": "full",
    "cuisine": "",
    "sourceUrl": "https://www.openstreetmap.org/node/10892579815",
    "sourceQuote": "OpenStreetMap diet:halal=yes",
    "verifiedMethod": "web-source",
    "source": "osm"
  },
  {
    "name": "Tanuki",
    "address": "319 Queen Street",
    "latitude": "-36.8536369",
    "longitude": "174.7631184",
    "city": "",
    "country": "New Zealand",
    "halalStatus": "full",
    "cuisine": "japanese",
    "sourceUrl": "https://www.openstreetmap.org/node/10988287988",
    "sourceQuote": "OpenStreetMap diet:halal=yes",
    "verifiedMethod": "web-source",
    "source": "osm"
  },
  {
    "name": "Raos Indonesian Street Food",
    "address": "433 Dominion Road",
    "latitude": "-36.8831212",
    "longitude": "174.748543",
    "city": "",
    "country": "New Zealand",
    "halalStatus": "full",
    "cuisine": "indonesian",
    "sourceUrl": "https://www.openstreetmap.org/node/11092661805",
    "sourceQuote": "OpenStreetMap diet:halal=yes",
    "verifiedMethod": "web-source",
    "source": "osm"
  },
  {
    "name": "Two Fat Indians",
    "address": "88 Cashel Street, Christchurch, Canterbury, 8011",
    "latitude": "-43.5336222",
    "longitude": "172.6344386",
    "city": "Christchurch, Canterbury",
    "country": "New Zealand",
    "halalStatus": "full",
    "cuisine": "curry;chicken;indian;juice;seafood",
    "sourceUrl": "https://www.openstreetmap.org/node/11118471396",
    "sourceQuote": "OpenStreetMap diet:halal=yes",
    "verifiedMethod": "web-source",
    "source": "osm"
  },
  {
    "name": "Wucha",
    "address": "",
    "latitude": "-36.850275",
    "longitude": "174.7657182",
    "city": "",
    "country": "New Zealand",
    "halalStatus": "full",
    "cuisine": "bubble_tea",
    "sourceUrl": "https://www.openstreetmap.org/node/11204019167",
    "sourceQuote": "OpenStreetMap diet:halal=yes",
    "verifiedMethod": "web-source",
    "source": "osm"
  },
  {
    "name": "Cosmo Coffee",
    "address": "",
    "latitude": "-36.8497722",
    "longitude": "174.7665229",
    "city": "",
    "country": "New Zealand",
    "halalStatus": "full",
    "cuisine": "coffee_shop",
    "sourceUrl": "https://www.openstreetmap.org/node/11219127390",
    "sourceQuote": "OpenStreetMap diet:halal=yes",
    "verifiedMethod": "web-source",
    "source": "osm"
  },
  {
    "name": "Sushi & Donburi",
    "address": "",
    "latitude": "-36.8508731",
    "longitude": "174.7649088",
    "city": "",
    "country": "New Zealand",
    "halalStatus": "full",
    "cuisine": "japanese",
    "sourceUrl": "https://www.openstreetmap.org/node/11221762021",
    "sourceQuote": "OpenStreetMap diet:halal=yes",
    "verifiedMethod": "web-source",
    "source": "osm"
  },
  {
    "name": "Dumpling House",
    "address": "",
    "latitude": "-36.8493254",
    "longitude": "174.7658038",
    "city": "",
    "country": "New Zealand",
    "halalStatus": "full",
    "cuisine": "chinese",
    "sourceUrl": "https://www.openstreetmap.org/node/11221827519",
    "sourceQuote": "OpenStreetMap diet:halal=yes",
    "verifiedMethod": "web-source",
    "source": "osm"
  },
  {
    "name": "East",
    "address": "",
    "latitude": "-36.8490839",
    "longitude": "174.7592156",
    "city": "",
    "country": "New Zealand",
    "halalStatus": "full",
    "cuisine": "",
    "sourceUrl": "https://www.openstreetmap.org/node/11226275414",
    "sourceQuote": "OpenStreetMap diet:halal=yes",
    "verifiedMethod": "web-source",
    "source": "osm"
  },
  {
    "name": "Kebab Time",
    "address": "",
    "latitude": "-36.8483055",
    "longitude": "174.7632785",
    "city": "",
    "country": "New Zealand",
    "halalStatus": "full",
    "cuisine": "kebab",
    "sourceUrl": "https://www.openstreetmap.org/node/11237558073",
    "sourceQuote": "OpenStreetMap diet:halal=only",
    "verifiedMethod": "web-source",
    "source": "osm"
  },
  {
    "name": "Sushipac",
    "address": "",
    "latitude": "-36.8513064",
    "longitude": "174.7650321",
    "city": "",
    "country": "New Zealand",
    "halalStatus": "full",
    "cuisine": "sushi",
    "sourceUrl": "https://www.openstreetmap.org/node/11242896437",
    "sourceQuote": "OpenStreetMap diet:halal=yes",
    "verifiedMethod": "web-source",
    "source": "osm"
  },
  {
    "name": "Sensational Chicken",
    "address": "",
    "latitude": "-36.8504055",
    "longitude": "174.7603492",
    "city": "",
    "country": "New Zealand",
    "halalStatus": "full",
    "cuisine": "kebab",
    "sourceUrl": "https://www.openstreetmap.org/node/11254392518",
    "sourceQuote": "OpenStreetMap diet:halal=only",
    "verifiedMethod": "web-source",
    "source": "osm"
  },
  {
    "name": "Tang Tea",
    "address": "",
    "latitude": "-36.851156",
    "longitude": "174.7645919",
    "city": "",
    "country": "New Zealand",
    "halalStatus": "full",
    "cuisine": "bubble_tea",
    "sourceUrl": "https://www.openstreetmap.org/node/11369934283",
    "sourceQuote": "OpenStreetMap diet:halal=yes",
    "verifiedMethod": "web-source",
    "source": "osm"
  },
  {
    "name": "Indian Spice",
    "address": "",
    "latitude": "-45.8935502",
    "longitude": "170.4983705",
    "city": "",
    "country": "New Zealand",
    "halalStatus": "full",
    "cuisine": "indian",
    "sourceUrl": "https://www.openstreetmap.org/node/11406408834",
    "sourceQuote": "OpenStreetMap diet:halal=yes",
    "verifiedMethod": "web-source",
    "source": "osm"
  },
  {
    "name": "Pasand Pizza",
    "address": "5/489 Richardson Road, Auckland, 1041",
    "latitude": "-36.9157603",
    "longitude": "174.7305829",
    "city": "Auckland",
    "country": "New Zealand",
    "halalStatus": "full",
    "cuisine": "",
    "sourceUrl": "https://www.openstreetmap.org/node/11458515288",
    "sourceQuote": "OpenStreetMap diet:halal=yes",
    "verifiedMethod": "web-source",
    "source": "osm"
  },
  {
    "name": "Kebab Plus",
    "address": "",
    "latitude": "-41.2942028",
    "longitude": "174.7830536",
    "city": "",
    "country": "New Zealand",
    "halalStatus": "full",
    "cuisine": "kebab",
    "sourceUrl": "https://www.openstreetmap.org/node/11499852347",
    "sourceQuote": "OpenStreetMap diet:halal=yes",
    "verifiedMethod": "web-source",
    "source": "osm"
  },
  {
    "name": "Turkish Kebabs of Queenstown",
    "address": "34 Shotover Street",
    "latitude": "-45.0314724",
    "longitude": "168.6599497",
    "city": "",
    "country": "New Zealand",
    "halalStatus": "full",
    "cuisine": "kebab;turkish",
    "sourceUrl": "https://www.openstreetmap.org/node/11504267269",
    "sourceQuote": "OpenStreetMap diet:halal=yes",
    "verifiedMethod": "web-source",
    "source": "osm"
  },
  {
    "name": "Fuga Japanese Brasserie",
    "address": "",
    "latitude": "-36.8485165",
    "longitude": "174.7629834",
    "city": "",
    "country": "New Zealand",
    "halalStatus": "full",
    "cuisine": "japanese",
    "sourceUrl": "https://www.openstreetmap.org/node/11590999799",
    "sourceQuote": "OpenStreetMap diet:halal=yes",
    "verifiedMethod": "web-source",
    "source": "osm"
  },
  {
    "name": "Chicking",
    "address": "14A Kitchener Road, Auckland, 1025",
    "latitude": "-36.8920807",
    "longitude": "174.7355797",
    "city": "Auckland",
    "country": "New Zealand",
    "halalStatus": "full",
    "cuisine": "",
    "sourceUrl": "https://www.openstreetmap.org/node/12082785402",
    "sourceQuote": "OpenStreetMap diet:halal=yes",
    "verifiedMethod": "web-source",
    "source": "osm"
  },
  {
    "name": "Japanese Dining You",
    "address": "21-25 Elliott Street, Auckland, 1010",
    "latitude": "-36.8501117",
    "longitude": "174.7636555",
    "city": "Auckland",
    "country": "New Zealand",
    "halalStatus": "full",
    "cuisine": "japanese",
    "sourceUrl": "https://www.openstreetmap.org/node/12195824883",
    "sourceQuote": "OpenStreetMap diet:halal=yes",
    "verifiedMethod": "web-source",
    "source": "osm"
  },
  {
    "name": "Mevlana Kebabs",
    "address": "61 Tay Street",
    "latitude": "-46.4132261",
    "longitude": "168.3510109",
    "city": "",
    "country": "New Zealand",
    "halalStatus": "full",
    "cuisine": "kebab;mediterranean",
    "sourceUrl": "https://www.openstreetmap.org/node/12306014260",
    "sourceQuote": "OpenStreetMap diet:halal=yes",
    "verifiedMethod": "web-source",
    "source": "osm"
  },
  {
    "name": "Dost Turkish Cafe",
    "address": "15 Princes Street",
    "latitude": "-45.8747811",
    "longitude": "170.5034186",
    "city": "",
    "country": "New Zealand",
    "halalStatus": "full",
    "cuisine": "kebab",
    "sourceUrl": "https://www.openstreetmap.org/node/12345179547",
    "sourceQuote": "OpenStreetMap diet:halal=yes",
    "verifiedMethod": "web-source",
    "source": "osm"
  },
  {
    "name": "Boishakhi",
    "address": "Unit H 254 Lincoln Road, Auckland",
    "latitude": "-36.8554799",
    "longitude": "174.6296396",
    "city": "Auckland",
    "country": "New Zealand",
    "halalStatus": "full",
    "cuisine": "bangalideshi",
    "sourceUrl": "https://www.openstreetmap.org/node/12445435113",
    "sourceQuote": "OpenStreetMap diet:halal=yes",
    "verifiedMethod": "web-source",
    "source": "osm"
  },
  {
    "name": "Albasha Restaurant",
    "address": "1276 Dominion Road, Auckland, 1041",
    "latitude": "-36.90428",
    "longitude": "174.7419922",
    "city": "Auckland",
    "country": "New Zealand",
    "halalStatus": "full",
    "cuisine": "middle_eastern",
    "sourceUrl": "https://www.openstreetmap.org/node/12461831353",
    "sourceQuote": "OpenStreetMap diet:halal=yes",
    "verifiedMethod": "web-source",
    "source": "osm"
  },
  {
    "name": "Flame Pizza",
    "address": "301 Lincoln Road, Henderson",
    "latitude": "-36.8526348",
    "longitude": "174.6305692",
    "city": "Henderson",
    "country": "New Zealand",
    "halalStatus": "full",
    "cuisine": "",
    "sourceUrl": "https://www.openstreetmap.org/node/12477178857",
    "sourceQuote": "OpenStreetMap diet:halal=yes",
    "verifiedMethod": "web-source",
    "source": "osm"
  },
  {
    "name": "The Rustic Pizzeria",
    "address": "2/1 Bellingham Road, Auckland",
    "latitude": "-36.9644723",
    "longitude": "174.9144742",
    "city": "Auckland",
    "country": "New Zealand",
    "halalStatus": "full",
    "cuisine": "",
    "sourceUrl": "https://www.openstreetmap.org/node/12477184679",
    "sourceQuote": "OpenStreetMap diet:halal=yes",
    "verifiedMethod": "web-source",
    "source": "osm"
  },
  {
    "name": "Flame Pizza",
    "address": "15/125 Ormiston Road, Auckland",
    "latitude": "-36.9646052",
    "longitude": "174.9052173",
    "city": "Auckland",
    "country": "New Zealand",
    "halalStatus": "full",
    "cuisine": "",
    "sourceUrl": "https://www.openstreetmap.org/node/12477202683",
    "sourceQuote": "OpenStreetMap diet:halal=yes",
    "verifiedMethod": "web-source",
    "source": "osm"
  },
  {
    "name": "Pizzas and Mocktails",
    "address": "2020 Great North Road, Avondale",
    "latitude": "-36.8980072",
    "longitude": "174.697209",
    "city": "Avondale",
    "country": "New Zealand",
    "halalStatus": "full",
    "cuisine": "",
    "sourceUrl": "https://www.openstreetmap.org/node/12477230596",
    "sourceQuote": "OpenStreetMap diet:halal=yes",
    "verifiedMethod": "web-source",
    "source": "osm"
  },
  {
    "name": "Kebab Serai",
    "address": "31 Mokoia Road, Auckalnd",
    "latitude": "-36.8114842",
    "longitude": "174.7235932",
    "city": "Auckalnd",
    "country": "New Zealand",
    "halalStatus": "full",
    "cuisine": "",
    "sourceUrl": "https://www.openstreetmap.org/node/12477453060",
    "sourceQuote": "OpenStreetMap diet:halal=yes",
    "verifiedMethod": "web-source",
    "source": "osm"
  },
  {
    "name": "Akbar Durbar Indian Takeaway",
    "address": "51 - 61 Hobson Street",
    "latitude": "-36.8476416",
    "longitude": "174.761646",
    "city": "",
    "country": "New Zealand",
    "halalStatus": "full",
    "cuisine": "",
    "sourceUrl": "https://www.openstreetmap.org/node/12487391032",
    "sourceQuote": "OpenStreetMap diet:halal=yes",
    "verifiedMethod": "web-source",
    "source": "osm"
  },
  {
    "name": "Glen Eden Kebab - Glenfield",
    "address": "407 Glenfield Road",
    "latitude": "-36.7816281",
    "longitude": "174.7215306",
    "city": "",
    "country": "New Zealand",
    "halalStatus": "full",
    "cuisine": "",
    "sourceUrl": "https://www.openstreetmap.org/node/12487391734",
    "sourceQuote": "OpenStreetMap diet:halal=yes",
    "verifiedMethod": "web-source",
    "source": "osm"
  },
  {
    "name": "Songket Malaysian Cafe",
    "address": "6/10 Kilham Avenue",
    "latitude": "-36.8020032",
    "longitude": "174.7455968",
    "city": "",
    "country": "New Zealand",
    "halalStatus": "full",
    "cuisine": "",
    "sourceUrl": "https://www.openstreetmap.org/node/12487391735",
    "sourceQuote": "OpenStreetMap diet:halal=yes",
    "verifiedMethod": "web-source",
    "source": "osm"
  },
  {
    "name": "Celine Mediterranean Cuisine",
    "address": "12 Darby Street",
    "latitude": "-36.8495544",
    "longitude": "174.7642892",
    "city": "",
    "country": "New Zealand",
    "halalStatus": "full",
    "cuisine": "",
    "sourceUrl": "https://www.openstreetmap.org/node/12487391736",
    "sourceQuote": "OpenStreetMap diet:halal=yes",
    "verifiedMethod": "web-source",
    "source": "osm"
  },
  {
    "name": "Chamate Restaurant",
    "address": "17 Swanson Street",
    "latitude": "-36.8460221",
    "longitude": "174.7650544",
    "city": "",
    "country": "New Zealand",
    "halalStatus": "full",
    "cuisine": "",
    "sourceUrl": "https://www.openstreetmap.org/node/12487391737",
    "sourceQuote": "OpenStreetMap diet:halal=yes",
    "verifiedMethod": "web-source",
    "source": "osm"
  },
  {
    "name": "Mazi",
    "address": "Quay Street",
    "latitude": "-36.8436611",
    "longitude": "174.7664952",
    "city": "",
    "country": "New Zealand",
    "halalStatus": "full",
    "cuisine": "",
    "sourceUrl": "https://www.openstreetmap.org/node/12487391738",
    "sourceQuote": "OpenStreetMap diet:halal=yes",
    "verifiedMethod": "web-source",
    "source": "osm"
  },
  {
    "name": "My Dear Eatery",
    "address": "47 High Street",
    "latitude": "-36.9446024",
    "longitude": "174.8498564",
    "city": "",
    "country": "New Zealand",
    "halalStatus": "full",
    "cuisine": "",
    "sourceUrl": "https://www.openstreetmap.org/node/12487391739",
    "sourceQuote": "OpenStreetMap diet:halal=yes",
    "verifiedMethod": "web-source",
    "source": "osm"
  },
  {
    "name": "Chicking",
    "address": "2/407 Glenfield Road",
    "latitude": "-36.7812129",
    "longitude": "174.7215418",
    "city": "",
    "country": "New Zealand",
    "halalStatus": "full",
    "cuisine": "",
    "sourceUrl": "https://www.openstreetmap.org/node/12487392006",
    "sourceQuote": "OpenStreetMap diet:halal=yes",
    "verifiedMethod": "web-source",
    "source": "osm"
  },
  {
    "name": "Wicked Chicken",
    "address": "Anzac Street",
    "latitude": "-36.7878472",
    "longitude": "174.7693205",
    "city": "",
    "country": "New Zealand",
    "halalStatus": "full",
    "cuisine": "",
    "sourceUrl": "https://www.openstreetmap.org/node/12487392007",
    "sourceQuote": "OpenStreetMap diet:halal=yes",
    "verifiedMethod": "web-source",
    "source": "osm"
  },
  {
    "name": "Sensational Chicken",
    "address": "11A Mount Street",
    "latitude": "-36.8545477",
    "longitude": "174.7667053",
    "city": "",
    "country": "New Zealand",
    "halalStatus": "full",
    "cuisine": "chicken",
    "sourceUrl": "https://www.openstreetmap.org/node/12487392008",
    "sourceQuote": "OpenStreetMap diet:halal=yes",
    "verifiedMethod": "web-source",
    "source": "osm"
  },
  {
    "name": "Sensational Chicken | NZ Kebabs",
    "address": "10/25 Anzac Road",
    "latitude": "-36.7164308",
    "longitude": "174.7465398",
    "city": "",
    "country": "New Zealand",
    "halalStatus": "full",
    "cuisine": "",
    "sourceUrl": "https://www.openstreetmap.org/node/12487392511",
    "sourceQuote": "OpenStreetMap diet:halal=yes",
    "verifiedMethod": "web-source",
    "source": "osm"
  },
  {
    "name": "Smash Burger",
    "address": "",
    "latitude": "-36.8547477",
    "longitude": "174.7667021",
    "city": "",
    "country": "New Zealand",
    "halalStatus": "full",
    "cuisine": "",
    "sourceUrl": "https://www.openstreetmap.org/node/12487392512",
    "sourceQuote": "OpenStreetMap diet:halal=yes",
    "verifiedMethod": "web-source",
    "source": "osm"
  },
  {
    "name": "No.1 Lanzhou Beef Noodle",
    "address": "590 Dominion Road, 1024",
    "latitude": "-36.8874795",
    "longitude": "174.7474384",
    "city": "",
    "country": "New Zealand",
    "halalStatus": "full",
    "cuisine": "asian;beef_bowl;chicken;chinese;fish;noodles;oriental",
    "sourceUrl": "https://www.openstreetmap.org/node/12487498703",
    "sourceQuote": "OpenStreetMap diet:halal=yes",
    "verifiedMethod": "web-source",
    "source": "osm"
  },
  {
    "name": "Pacha's Kebab Cafe",
    "address": "167 Cuba Street",
    "latitude": "-40.3561206",
    "longitude": "175.6059088",
    "city": "",
    "country": "New Zealand",
    "halalStatus": "full",
    "cuisine": "kebab",
    "sourceUrl": "https://www.openstreetmap.org/node/12501043505",
    "sourceQuote": "OpenStreetMap diet:halal=yes",
    "verifiedMethod": "web-source",
    "source": "osm"
  },
  {
    "name": "Mother's Kitchen",
    "address": "198 Chadwick Road",
    "latitude": "-37.7268633",
    "longitude": "176.1331979",
    "city": "",
    "country": "New Zealand",
    "halalStatus": "full",
    "cuisine": "indian",
    "sourceUrl": "https://www.openstreetmap.org/node/12501045633",
    "sourceQuote": "OpenStreetMap diet:halal=only",
    "verifiedMethod": "web-source",
    "source": "osm"
  },
  {
    "name": "Halal Tasty Food",
    "address": "283 Great South Road",
    "latitude": "-36.9420556",
    "longitude": "174.8414168",
    "city": "",
    "country": "New Zealand",
    "halalStatus": "full",
    "cuisine": "",
    "sourceUrl": "https://www.openstreetmap.org/node/12501069609",
    "sourceQuote": "OpenStreetMap diet:halal=yes",
    "verifiedMethod": "web-source",
    "source": "osm"
  },
  {
    "name": "Anatolia Turkish Kebab House",
    "address": "152 Princes Street",
    "latitude": "-45.8765871",
    "longitude": "170.502073",
    "city": "",
    "country": "New Zealand",
    "halalStatus": "full",
    "cuisine": "turkish;kebab",
    "sourceUrl": "https://www.openstreetmap.org/node/12511051514",
    "sourceQuote": "OpenStreetMap diet:halal=yes",
    "verifiedMethod": "web-source",
    "source": "osm"
  },
  {
    "name": "Best Turkish Food Co",
    "address": "138 Hereford Street",
    "latitude": "-43.53216",
    "longitude": "172.6374041",
    "city": "",
    "country": "New Zealand",
    "halalStatus": "full",
    "cuisine": "turkish",
    "sourceUrl": "https://www.openstreetmap.org/node/12523108603",
    "sourceQuote": "OpenStreetMap diet:halal=yes",
    "verifiedMethod": "web-source",
    "source": "osm"
  },
  {
    "name": "The Kiwi Kebab",
    "address": "4A McCarthy Street",
    "latitude": "-43.563701",
    "longitude": "172.58861",
    "city": "",
    "country": "New Zealand",
    "halalStatus": "full",
    "cuisine": "mediterranean",
    "sourceUrl": "https://www.openstreetmap.org/node/12523108604",
    "sourceQuote": "OpenStreetMap diet:halal=yes",
    "verifiedMethod": "web-source",
    "source": "osm"
  },
  {
    "name": "Boliwood Restaurant Five Mile",
    "address": "3/34 Grant Road",
    "latitude": "-45.0130062",
    "longitude": "168.7429576",
    "city": "",
    "country": "New Zealand",
    "halalStatus": "full",
    "cuisine": "indian",
    "sourceUrl": "https://www.openstreetmap.org/node/12523108606",
    "sourceQuote": "OpenStreetMap diet:halal=yes",
    "verifiedMethod": "web-source",
    "source": "osm"
  },
  {
    "name": "Kitchen Manthira",
    "address": "1/935 High Street",
    "latitude": "-41.1940086",
    "longitude": "174.9431824",
    "city": "",
    "country": "New Zealand",
    "halalStatus": "full",
    "cuisine": "indian",
    "sourceUrl": "https://www.openstreetmap.org/node/12523109605",
    "sourceQuote": "OpenStreetMap diet:halal=yes",
    "verifiedMethod": "web-source",
    "source": "osm"
  },
  {
    "name": "Café Anatolia Turkish Cuisine",
    "address": "196 Oxford Street",
    "latitude": "-40.622908",
    "longitude": "175.2858131",
    "city": "",
    "country": "New Zealand",
    "halalStatus": "full",
    "cuisine": "turkish",
    "sourceUrl": "https://www.openstreetmap.org/node/12523109606",
    "sourceQuote": "OpenStreetMap diet:halal=yes",
    "verifiedMethod": "web-source",
    "source": "osm"
  },
  {
    "name": "Dubbba Deluxe",
    "address": "347 Moorhouse Avenue",
    "latitude": "-43.5388176",
    "longitude": "172.6423209",
    "city": "",
    "country": "New Zealand",
    "halalStatus": "full",
    "cuisine": "arab",
    "sourceUrl": "https://www.openstreetmap.org/node/12523110002",
    "sourceQuote": "OpenStreetMap diet:halal=yes",
    "verifiedMethod": "web-source",
    "source": "osm"
  },
  {
    "name": "New Paradise",
    "address": "462 High Street",
    "latitude": "-41.2053531",
    "longitude": "174.9116096",
    "city": "",
    "country": "New Zealand",
    "halalStatus": "full",
    "cuisine": "indian",
    "sourceUrl": "https://www.openstreetmap.org/node/12523110102",
    "sourceQuote": "OpenStreetMap diet:halal=yes",
    "verifiedMethod": "web-source",
    "source": "osm"
  },
  {
    "name": "Zak's Kebabs",
    "address": "81 Lichfield Street",
    "latitude": "-43.5341033",
    "longitude": "172.6384613",
    "city": "",
    "country": "New Zealand",
    "halalStatus": "full",
    "cuisine": "kebab",
    "sourceUrl": "https://www.openstreetmap.org/node/12523110103",
    "sourceQuote": "OpenStreetMap diet:halal=yes",
    "verifiedMethod": "web-source",
    "source": "osm"
  },
  {
    "name": "Paasha Turkish Restaurant",
    "address": "31 Saint Andrew Street",
    "latitude": "-45.8716038",
    "longitude": "170.504392",
    "city": "",
    "country": "New Zealand",
    "halalStatus": "full",
    "cuisine": "turkish",
    "sourceUrl": "https://www.openstreetmap.org/node/12523110104",
    "sourceQuote": "OpenStreetMap diet:halal=yes",
    "verifiedMethod": "web-source",
    "source": "osm"
  },
  {
    "name": "Indian Paradise",
    "address": "270 Stanmore Road",
    "latitude": "-43.5215343",
    "longitude": "172.6565424",
    "city": "",
    "country": "New Zealand",
    "halalStatus": "full",
    "cuisine": "fine_dining;indian",
    "sourceUrl": "https://www.openstreetmap.org/node/12523110702",
    "sourceQuote": "OpenStreetMap diet:halal=yes",
    "verifiedMethod": "web-source",
    "source": "osm"
  },
  {
    "name": "Kebabs on Queen",
    "address": "180",
    "latitude": "-41.2818114",
    "longitude": "174.7757645",
    "city": "",
    "country": "New Zealand",
    "halalStatus": "full",
    "cuisine": "mediterranean",
    "sourceUrl": "https://www.openstreetmap.org/node/12523110801",
    "sourceQuote": "OpenStreetMap diet:halal=yes",
    "verifiedMethod": "web-source",
    "source": "osm"
  },
  {
    "name": "Authentic Turkish Doner Kebabs",
    "address": "544 Memorial Avenue",
    "latitude": "-43.4907716",
    "longitude": "172.5481517",
    "city": "",
    "country": "New Zealand",
    "halalStatus": "full",
    "cuisine": "turkish",
    "sourceUrl": "https://www.openstreetmap.org/node/12523110802",
    "sourceQuote": "OpenStreetMap diet:halal=yes",
    "verifiedMethod": "web-source",
    "source": "osm"
  },
  {
    "name": "AR Indian Restaurant",
    "address": "2 Ruru Street",
    "latitude": "-46.3762961",
    "longitude": "168.347035",
    "city": "",
    "country": "New Zealand",
    "halalStatus": "full",
    "cuisine": "indian",
    "sourceUrl": "https://www.openstreetmap.org/node/12523111503",
    "sourceQuote": "OpenStreetMap diet:halal=yes",
    "verifiedMethod": "web-source",
    "source": "osm"
  },
  {
    "name": "Flaming Pizza",
    "address": "479 Papanui Road",
    "latitude": "-43.498388",
    "longitude": "172.6089383",
    "city": "",
    "country": "New Zealand",
    "halalStatus": "full",
    "cuisine": "",
    "sourceUrl": "https://www.openstreetmap.org/node/12523111601",
    "sourceQuote": "OpenStreetMap diet:halal=yes",
    "verifiedMethod": "web-source",
    "source": "osm"
  },
  {
    "name": "Kebab Time",
    "address": "51 Centennial Avenue",
    "latitude": "-45.2519205",
    "longitude": "169.3890813",
    "city": "",
    "country": "New Zealand",
    "halalStatus": "full",
    "cuisine": "turkish",
    "sourceUrl": "https://www.openstreetmap.org/node/12523111602",
    "sourceQuote": "OpenStreetMap diet:halal=yes",
    "verifiedMethod": "web-source",
    "source": "osm"
  },
  {
    "name": "Indian at the Crescent",
    "address": "11 The Crescent",
    "latitude": "-46.4131204",
    "longitude": "168.3462583",
    "city": "",
    "country": "New Zealand",
    "halalStatus": "full",
    "cuisine": "indian",
    "sourceUrl": "https://www.openstreetmap.org/node/12523111603",
    "sourceQuote": "OpenStreetMap diet:halal=yes",
    "verifiedMethod": "web-source",
    "source": "osm"
  },
  {
    "name": "Rivertown Cafe",
    "address": "77 Williams Street",
    "latitude": "-43.386058",
    "longitude": "172.6553197",
    "city": "",
    "country": "New Zealand",
    "halalStatus": "full",
    "cuisine": "",
    "sourceUrl": "https://www.openstreetmap.org/node/12523111701",
    "sourceQuote": "OpenStreetMap diet:halal=yes",
    "verifiedMethod": "web-source",
    "source": "osm"
  },
  {
    "name": "Curry Guru Tweed",
    "address": "231 Tweed Street",
    "latitude": "-46.4181167",
    "longitude": "168.356693",
    "city": "",
    "country": "New Zealand",
    "halalStatus": "full",
    "cuisine": "indian",
    "sourceUrl": "https://www.openstreetmap.org/node/12523112701",
    "sourceQuote": "OpenStreetMap diet:halal=yes",
    "verifiedMethod": "web-source",
    "source": "osm"
  },
  {
    "name": "Zeta Greek Kitchen",
    "address": "",
    "latitude": "-36.8453865",
    "longitude": "174.7676392",
    "city": "",
    "country": "New Zealand",
    "halalStatus": "full",
    "cuisine": "greek",
    "sourceUrl": "https://www.openstreetmap.org/node/12679820041",
    "sourceQuote": "OpenStreetMap diet:halal=yes",
    "verifiedMethod": "web-source",
    "source": "osm"
  },
  {
    "name": "flip",
    "address": "Queen Street, 1010",
    "latitude": "-36.8520438",
    "longitude": "174.7642252",
    "city": "",
    "country": "New Zealand",
    "halalStatus": "full",
    "cuisine": "burger;soft_serve",
    "sourceUrl": "https://www.openstreetmap.org/node/13722062985",
    "sourceQuote": "OpenStreetMap diet:halal=yes",
    "verifiedMethod": "web-source",
    "source": "osm"
  },
  {
    "name": "House of Authentic Kolkata Dum Biryani",
    "address": "",
    "latitude": "-36.9001613",
    "longitude": "174.7199765",
    "city": "",
    "country": "New Zealand",
    "halalStatus": "full",
    "cuisine": "indian",
    "sourceUrl": "https://www.openstreetmap.org/node/13722384659",
    "sourceQuote": "OpenStreetMap diet:halal=yes",
    "verifiedMethod": "web-source",
    "source": "osm"
  },
  {
    "name": "Paradise",
    "address": "Kitchener Road",
    "latitude": "-36.8920917",
    "longitude": "174.7356707",
    "city": "",
    "country": "New Zealand",
    "halalStatus": "full",
    "cuisine": "indian",
    "sourceUrl": "https://www.openstreetmap.org/node/13726730904",
    "sourceQuote": "OpenStreetMap diet:halal=yes",
    "verifiedMethod": "web-source",
    "source": "osm"
  },
  {
    "name": "Mashawe",
    "address": "1 New Regent Street, Christchurch, 8011",
    "latitude": "-43.5297379",
    "longitude": "172.638572",
    "city": "Christchurch",
    "country": "New Zealand",
    "halalStatus": "full",
    "cuisine": "lebanese;kebab",
    "sourceUrl": "https://www.openstreetmap.org/way/101123130",
    "sourceQuote": "OpenStreetMap diet:halal=yes",
    "verifiedMethod": "web-source",
    "source": "osm"
  },
  {
    "name": "AFG Restaurant",
    "address": "318 Lincoln Road, Christchurch, 8024",
    "latitude": "-43.5433046",
    "longitude": "172.6125709",
    "city": "Christchurch",
    "country": "New Zealand",
    "halalStatus": "full",
    "cuisine": "asian",
    "sourceUrl": "https://www.openstreetmap.org/way/235061485",
    "sourceQuote": "OpenStreetMap diet:halal=yes",
    "verifiedMethod": "web-source",
    "source": "osm"
  },
  {
    "name": "Shaolin Kung Fu Noodle",
    "address": "486 Queen Street, Auckland, 1010",
    "latitude": "-36.8562401",
    "longitude": "174.762399",
    "city": "Auckland",
    "country": "New Zealand",
    "halalStatus": "full",
    "cuisine": "chinese",
    "sourceUrl": "https://www.openstreetmap.org/way/293023331",
    "sourceQuote": "OpenStreetMap diet:halal=only",
    "verifiedMethod": "web-source",
    "source": "osm"
  },
  {
    "name": "Turkish Kitchen",
    "address": "104 Gordon Road, Mosgiel, 9024",
    "latitude": "-45.8763278",
    "longitude": "170.3487736",
    "city": "Mosgiel",
    "country": "New Zealand",
    "halalStatus": "full",
    "cuisine": "turkish",
    "sourceUrl": "https://www.openstreetmap.org/way/816352005",
    "sourceQuote": "OpenStreetMap diet:halal=yes",
    "verifiedMethod": "web-source",
    "source": "osm"
  },
  {
    "name": "Joong Wha Ru",
    "address": "462 Queen Street, Auckland, 1010",
    "latitude": "-36.8556517",
    "longitude": "174.7627054",
    "city": "Auckland",
    "country": "New Zealand",
    "halalStatus": "full",
    "cuisine": "",
    "sourceUrl": "https://www.openstreetmap.org/way/894759667",
    "sourceQuote": "OpenStreetMap diet:halal=yes",
    "verifiedMethod": "web-source",
    "source": "osm"
  },
  {
    "name": "Shoya",
    "address": "478 Queen Street, Auckland, 1010",
    "latitude": "-36.85604",
    "longitude": "174.7624868",
    "city": "Auckland",
    "country": "New Zealand",
    "halalStatus": "full",
    "cuisine": "japanese",
    "sourceUrl": "https://www.openstreetmap.org/way/894759675",
    "sourceQuote": "OpenStreetMap diet:halal=yes",
    "verifiedMethod": "web-source",
    "source": "osm"
  },
  {
    "name": "Kebabzilla",
    "address": "",
    "latitude": "-36.8489845",
    "longitude": "174.7642151",
    "city": "",
    "country": "New Zealand",
    "halalStatus": "full",
    "cuisine": "",
    "sourceUrl": "https://www.openstreetmap.org/way/947693739",
    "sourceQuote": "OpenStreetMap diet:halal=only",
    "verifiedMethod": "web-source",
    "source": "osm"
  },
  {
    "name": "Toastie",
    "address": "",
    "latitude": "-36.8489044",
    "longitude": "174.764254",
    "city": "",
    "country": "New Zealand",
    "halalStatus": "full",
    "cuisine": "",
    "sourceUrl": "https://www.openstreetmap.org/way/947693741",
    "sourceQuote": "OpenStreetMap diet:halal=yes",
    "verifiedMethod": "web-source",
    "source": "osm"
  },
  {
    "name": "Java Hut",
    "address": "84B Aranui Road, Mapua",
    "latitude": "-41.2511617",
    "longitude": "173.0937924",
    "city": "Mapua",
    "country": "New Zealand",
    "halalStatus": "full",
    "cuisine": "",
    "sourceUrl": "https://www.openstreetmap.org/way/999243958",
    "sourceQuote": "OpenStreetMap diet:halal=yes",
    "verifiedMethod": "web-source",
    "source": "osm"
  },
  {
    "name": "Dubba Dubba",
    "address": "11B Waimairi Road",
    "latitude": "-43.5305847",
    "longitude": "172.5743639",
    "city": "",
    "country": "New Zealand",
    "halalStatus": "full",
    "cuisine": "moroccan",
    "sourceUrl": "https://www.openstreetmap.org/way/1018404192",
    "sourceQuote": "OpenStreetMap diet:halal=yes",
    "verifiedMethod": "web-source",
    "source": "osm"
  },
  {
    "name": "Peppers",
    "address": "103 Albert Street, Auckland, 1010",
    "latitude": "-36.8490424",
    "longitude": "174.7630185",
    "city": "Auckland",
    "country": "New Zealand",
    "halalStatus": "full",
    "cuisine": "",
    "sourceUrl": "https://www.openstreetmap.org/way/1041821948",
    "sourceQuote": "OpenStreetMap diet:halal=yes",
    "verifiedMethod": "web-source",
    "source": "osm"
  },